SETTLEMENTDATE,DUID,SCADAVALUE,Participant,Station Name,Fuel Source - Primary,MAX_CAP,utilisation_pct,Plant,Latitude,Longitude,timestamp_utc
2026/04/14 20:20:00,CAPTL_WF,27.98,Iberdrola Australia Holdings Pty Limited,Capital Wind Farm,Wind,140.0,19.99,Capital Wind Farm,-35.1,149.31,2026-04-14T10:23:22.749533
2026/04/14 20:20:00,CHALLHWF,3.7,Pacific Hydro Challicum Hills Pty Ltd,Challicum Hills Wind Farm,Wind,52.0,7.12,Challicum Hills Wind Farm,-37.38,143.11,2026-04-14T10:23:22.749533
2026/04/14 20:20:00,CULLRGWF,11.39,Cullerin Range Wind Farm Pty Ltd,Cullerin Range Wind Farm,Wind,30.0,37.97,Cullerin Range Wind Farm,-34.81,149.4,2026-04-14T10:23:22.749533
2026/04/14 20:20:00,DIAPURWF1,3.3,Y.E.S. Energy (SA) Pty Ltd,Diapur Wind Farm,Wind,7.0,47.14,Diapur Wind Farm,-36.3425,141.43,2026-04-14T10:23:22.749533
2026/04/14 20:20:00,MLWF1,5.56,Mortons Lane Windfarm Pty Limited,Mortons Lane Wind Farm,Wind,20.0,27.8,Mortons Lane Wind Farm,-37.84,142.45,2026-04-14T10:23:22.749533
2026/04/14 20:20:00,WAUBRAWF,12.98,Pyrenees Wind Energy Developments Pty Ltd,Waubra Wind Farm,Wind,192.0,6.76,Waubra Wind Farm,-37.394498,143.638982,2026-04-14T10:23:22.749533
2026/04/14 20:20:00,WOOLNTH1,80.3,Hydro-Electric Corporation,Woolnorth Studland Bay / Bluff Point Wind Farm,Wind,140.0,57.36,Woolnorth Studland Bay / Bluff Point Wind Farm,-40.69,144.72,2026-04-14T10:23:22.749533
2026/04/14 20:20:00,YAMBUKWF,9.4,Energy Pacific (Vic) Pty Ltd,Yambuk Wind Farm,Wind,30.0,31.33,Yambuk Wind Farm,-38.299083,142.027577,2026-04-14T10:23:22.749533
2026/04/14 20:20:00,YSWF1,3.9,Pacific Hydro Yaloak South Pty Ltd,Yaloak South Wind Farm,Wind,28.0,13.93,Yaloak South Wind Farm,-37.7163,144.242853,2026-04-14T10:23:22.749533
2026/04/14 20:20:00,ARWF1,0.5,Ararat Wind Farm Pty Ltd,Ararat Wind Farm,Wind,241.0,0.21,Ararat Wind Farm,-37.232778,143.031389,2026-04-14T10:23:22.749533
2026/04/14 20:20:00,BALDHWF1,72.24,Alinta Energy Retail Sales Pty Ltd,Bald Hills Wind Farm,Wind,106.0,68.15,Bald Hills Wind Farm,-38.79,145.93,2026-04-14T10:23:22.749533
2026/04/14 20:20:00,BANGOWF1,36.1,BWF Nominees Pty Ltd as The Trustee for BWF Trust,Bango 973 Wind Farm,Wind,155.0,23.29,Bango 973 Wind Farm,-34.551582,148.732808,2026-04-14T10:23:22.749533
2026/04/14 20:20:00,BANGOWF2,32.0,BWF Nominees Pty Ltd as The Trustee for BWF Trust,Bango 999 Wind Farm,Wind,82.0,39.02,Bango 999 Wind Farm,-34.551582,148.732808,2026-04-14T10:23:22.749533
2026/04/14 20:20:00,BLUFF1,1.0,AGL SA Generation Pty Limited,The Bluff Wind Farm,Wind,53.0,1.89,The Bluff Wind Farm,-33.367778,138.728611,2026-04-14T10:23:22.749533
2026/04/14 20:20:00,BOCORWF1,4.51,Boco Rock Wind Farm Pty Ltd,Boco Rock Wind Farm,Wind,111.0,4.06,Boco Rock Wind Farm,-36.578611,149.103333,2026-04-14T10:23:22.749533
2026/04/14 20:20:00,BRYB1WF1,13.52,Berrybank Development Pty Ltd,Berrybank Wind Farm,Wind,175.9,7.69,Berrybank Wind Farm,-37.94,143.52,2026-04-14T10:23:22.749533
2026/04/14 20:20:00,BRYB2WF2,15.42,Berrybank 2 Asset Pty Ltd as trustee for Berrybank 2 Asset Trust,Berrybank 2 Wind Farm,Wind,105.0,14.69,Berrybank 2 Wind Farm,-37.94,143.52,2026-04-14T10:23:22.749533
2026/04/14 20:20:00,BULGANA1,8.48,Bulgana Wind Farm Pty Ltd,Bulgana Green Power Hub,Wind,204.0,4.16,Bulgana Green Power Hub,-37.0975,142.973611,2026-04-14T10:23:22.749533
2026/04/14 20:20:00,CATHROCK,0.0,Cathedral Rocks Wind Farm Pty Ltd,Cathedral Rocks,Wind,66.0,0.0,Cathedral Rocks,-34.51,135.35,2026-04-14T10:23:22.749533
2026/04/14 20:20:00,CHYTWF1,7.93,Cherry Tree Wind Farm Pty Ltd as trustee for The Cherry Tree Project trust ,Cherry Tree Wind Farm,Wind,57.0,13.91,Cherry Tree Wind Farm,-37.1,145.26,2026-04-14T10:23:22.749533
2026/04/14 20:20:00,CLEMGPWF,9.44,Pacific Hydro Clements Gap Pty Ltd,Clements Gap Wind Farm,Wind,57.0,16.56,Clements Gap Wind Farm,-33.48,138.1,2026-04-14T10:23:22.749533
2026/04/14 20:20:00,CLRKCWF1,235.67,Stanwell Corporation Limited ,Clarke Creek Wind Farm,Wind,338.0,69.72,Clarke Creek Wind Farm,-22.85,149.45,2026-04-14T10:23:22.749533
2026/04/14 20:20:00,CLRKCWF2,85.37,Stanwell Corporation Limited ,Clarke Creek Wind Farm,Wind,101.0,84.52,Clarke Creek Wind Farm,-22.85,149.45,2026-04-14T10:23:22.749533
2026/04/14 20:20:00,CNUNDAWF,7.41,Canunda Power Pty Ltd,Canunda Wind Farm,Wind,46.0,16.11,Canunda Wind Farm,-37.73,140.39,2026-04-14T10:23:22.749533
2026/04/14 20:20:00,COLWF01,36.43,Collector Wind Farm Pty Ltd,Collector Wind Farm 1,Wind,219.0,16.63,Collector Wind Farm 1,-34.8719,149.3967,2026-04-14T10:23:22.749533
2026/04/14 20:20:00,COOPGWF1,238.39,PARF Company 10 Pty Limited as The Trustee for Coopers Gap Project Trust,Coopers Gap Wind Farm,Wind,440.0,54.18,Coopers Gap Wind Farm,-26.74,151.45,2026-04-14T10:23:22.749533
2026/04/14 20:20:00,CROOKWF2,37.35,Crookwell Development Pty Ltd ,Crookwell 2 Wind Farm,Wind,91.0,41.04,Crookwell 2 Wind Farm,-34.52,149.54,2026-04-14T10:23:22.749533
2026/04/14 20:20:00,CROOKWF3,27.53,Crookwell 3 Development Pty Ltd,Crookwell 3 Wind Farm,Wind,56.0,49.16,Crookwell 3 Wind Farm,-34.52,149.54,2026-04-14T10:23:22.749533
2026/04/14 20:20:00,CROWLWF1,7.85,Pacific Hydro Crowlands Pty Ltd ,Crowlands Wind Farm,Wind,79.0,9.94,Crowlands Wind Farm,-37.13,143.16,2026-04-14T10:23:22.749533
2026/04/14 20:20:00,CRURWF1,18.4,CRWF Nominees Pty Ltd As Trustee For The CRWF Trust,Crudine Ridge Wind Farm,Wind,138.0,13.33,Crudine Ridge Wind Farm,-32.97,149.64,2026-04-14T10:23:22.749533
2026/04/14 20:20:00,CTHLWF1,134.21,Wild Cattle Hill Pty Ltd,Cattle Hill Wind Farm,Wind,144.0,93.2,Cattle Hill Wind Farm,-42.15,146.69,2026-04-14T10:23:22.749533
2026/04/14 20:20:00,DULAWF1,2.9,Dulacca Energy Project Co Pty Ltd,Dulacca Wind Farm,Wind,173.0,1.68,Dulacca Wind Farm,-26.63,149.87,2026-04-14T10:23:22.749533
2026/04/14 20:20:00,DUNDWF1,33.76,Dundonnell Wind Farm Pty Ltd,Dundonnell Wind Farm,Wind,168.0,20.1,Dundonnell Wind Farm,-37.52,142.58,2026-04-14T10:23:22.749533
2026/04/14 20:20:00,DUNDWF2,6.1,Dundonnell Wind Farm Pty Ltd,Dundonnell Wind Farm,Wind,46.0,13.26,Dundonnell Wind Farm,-37.52,142.58,2026-04-14T10:23:22.749533
2026/04/14 20:20:00,DUNDWF3,31.92,Dundonnell Wind Farm Pty Ltd,Dundonnell Wind Farm,Wind,122.0,26.16,Dundonnell Wind Farm,-37.52,142.58,2026-04-14T10:23:22.749533
2026/04/14 20:20:00,ELAINWF1,5.21,Lal Lal Wind Farms Nom Co Pty Ltd,Elaine Wind Farm,Wind,82.0,6.35,Elaine Wind Farm,-37.36,144.0,2026-04-14T10:23:22.749533
2026/04/14 20:20:00,FLYCRKWF,0.0,Iberdrola Australia Energy Markets Pty Limited,Flyers Creek Wind Farm,Wind,140.0,0.0,Flyers Creek Wind Farm,-33.365556,148.981944,2026-04-14T10:23:22.749533
2026/04/14 20:20:00,GPWFEST1,37.67,Golden Plains WF1 Pty Ltd as Trustee for the Golden Plains WF1 Unit Trust,Golden Plains Wind Farm East,Wind,240.0,15.7,Golden Plains Wind Farm East,-37.945091,143.752614,2026-04-14T10:23:22.749533
2026/04/14 20:20:00,GPWFEST2,23.22,Golden Plains WF1 Pty Ltd as Trustee for the Golden Plains WF1 Unit Trust,Golden Plains Wind Farm East,Wind,253.0,9.18,Golden Plains Wind Farm East,-37.945091,143.752614,2026-04-14T10:23:22.749533
2026/04/14 20:20:00,GPWFEST3,13.0,Golden Plains WF1 Pty Ltd as Trustee for the Golden Plains WF1 Unit Trust,Golden Plains Wind Farm East,Wind,240.0,5.42,Golden Plains Wind Farm East,-37.945091,143.752614,2026-04-14T10:23:22.749533
2026/04/14 20:20:00,GRANWF1,66.94,Granville Harbour Operations Pty Ltd as The Trustee for Granville Harbour Operations Trust,Granville Harbour Wind Farm,Wind,111.0,60.31,Granville Harbour Wind Farm,-41.8,145.06,2026-04-14T10:23:22.749533
2026/04/14 20:20:00,GSWF1A,31.74,Goyder Wind Farm 1 Pty Ltd as the Trustee for Goyder Wind Farm 1 Trust,Goyder South Wind Farm 1A,Wind,201.0,15.79,Goyder South Wind Farm 1A,-33.679758,138.937597,2026-04-14T10:23:22.749533
2026/04/14 20:20:00,GSWF1B1,20.21,Goyder Wind Farm 1B Pty Ltd as the Trustee for the Goyder Wind Farm 1B Trust,Goyder South Wind Farm 1B,Wind,196.0,10.31,Goyder South Wind Farm 1B,-33.679758,138.937597,2026-04-14T10:23:22.749533
2026/04/14 20:20:00,GULLRWF1,90.01,New Gullen Range Wind Farm Pty Ltd,Gullen Range Wind Farm,Wind,161.0,55.91,Gullen Range Wind Farm,-34.34,149.27,2026-04-14T10:23:22.749533
2026/04/14 20:20:00,GULLRWF2,24.9,New Gullen Range Wind Farm Pty Ltd,Gullen Range Wind Farm,Wind,107.0,23.27,Gullen Range Wind Farm,-34.34,149.27,2026-04-14T10:23:22.749533
2026/04/14 20:20:00,GUNNING1,12.24,Gunning Wind Energy Developments Pty Ltd,Gunning Wind Farm,Wind,47.0,26.04,Gunning Wind Farm,-34.813333,149.4,2026-04-14T10:23:22.749533
2026/04/14 20:20:00,HALLWF1,0.62,AGL SA Generation Pty Limited,Hallett 1 Wind Farm,Wind,95.0,0.65,Hallett 1 Wind Farm,-33.367778,138.728611,2026-04-14T10:23:22.749533
2026/04/14 20:20:00,HALLWF2,0.16,AGL SA Generation Pty Limited,Hallett 2 Wind Farm,Wind,71.0,0.23,Hallett 2 Wind Farm,-33.367778,138.728611,2026-04-14T10:23:22.749533
2026/04/14 20:20:00,HD1WF1,53.4,Hawkesdale Asset Pty Ltd as trustee for Hawkesdale Asset Trust,Hawkesdale Wind Farm,Wind,89.0,60.0,Hawkesdale Wind Farm,-38.147894,142.361381,2026-04-14T10:23:22.749533
2026/04/14 20:20:00,HDWF1,8.6,HWF1 Pty Ltd,Hornsdale Wind Farm,Wind,102.0,8.43,Hornsdale Wind Farm,-33.050556,138.543611,2026-04-14T10:23:22.749533
2026/04/14 20:20:00,HDWF2,7.7,HWF 2 Pty Ltd,Hornsdale Wind Farm 2,Wind,102.0,7.55,Hornsdale Wind Farm 2,-33.06,138.54,2026-04-14T10:23:22.749533
2026/04/14 20:20:00,HDWF3,7.9,HWF3 Pty Ltd,Hornsdale Wind Farm 3,Wind,109.0,7.25,Hornsdale Wind Farm 3,-33.06,138.54,2026-04-14T10:23:22.749533
2026/04/14 20:20:00,KABANWF1,80.63,Kaban Wind Farm Pty Ltd as trustee for Kaban Wind Farm Trust,Kaban Wind Farm,Wind,152.0,53.05,Kaban Wind Farm,-17.56,145.41,2026-04-14T10:23:22.749533
2026/04/14 20:20:00,KEPWF1,26.2,Kennedy Energy Park Pty Ltd,Kennedy Energy Park,Wind,43.0,60.93,Kennedy Energy Park,-20.88,144.42,2026-04-14T10:23:22.749533
2026/04/14 20:20:00,KIATAWF1,4.4,Kiata ProjectCo Pty Ltd Atf Kiata Project Trust,Kiata Wind Farm,Wind,31.0,14.19,Kiata Wind Farm,-36.4,141.75,2026-04-14T10:23:22.749533
2026/04/14 20:20:00,LGAPWF1,13.31,Lincoln Gap Wind Farm (Operations) Pty Ltd,Lincoln Gap Wind Farm,Wind,123.0,10.82,Lincoln Gap Wind Farm,-32.564279,137.557328,2026-04-14T10:23:22.749533
2026/04/14 20:20:00,LGAPWF1,13.31,Lincoln Gap Wind Farm (Operations) Pty Ltd,Lincoln Gap Wind Farm,Wind,123.0,10.82,Lincoln Gap Wind Farm,-32.564279,137.557328,2026-04-14T10:23:22.749533
2026/04/14 20:20:00,LGAPWF2,9.38,Lincoln Gap Wind Farm (Operations) Pty Ltd,Lincoln Gap Wind Farm,Wind,85.0,11.04,Lincoln Gap Wind Farm,-32.564279,137.557328,2026-04-14T10:23:22.749533
2026/04/14 20:20:00,LGAPWF2,9.38,Lincoln Gap Wind Farm (Operations) Pty Ltd,Lincoln Gap Wind Farm,Wind,85.0,11.04,Lincoln Gap Wind Farm,-32.564279,137.557328,2026-04-14T10:23:22.749533
2026/04/14 20:20:00,LKBONNY1,9.73,Lake Bonney Wind Power Pty Ltd,Lake Bonney Wind Farm Stage 1,Wind,81.0,12.01,Lake Bonney Wind Farm Stage 1,-37.76,140.4,2026-04-14T10:23:22.749533
2026/04/14 20:20:00,LKBONNY2,29.73,Lake Bonney Wind Power Pty Ltd,Lake Bonney Stage 2 Windfarm,Wind,159.0,18.7,Lake Bonney Stage 2 Windfarm,-37.76,140.4,2026-04-14T10:23:22.749533
2026/04/14 20:20:00,LKBONNY3,9.6,Lake Bonney Wind Power Pty Ltd,Lake Bonney Stage 3 Wind Farm,Wind,39.0,24.62,Lake Bonney Stage 3 Wind Farm,-37.737781,140.388137,2026-04-14T10:23:22.749533
2026/04/14 20:20:00,MACARTH1,70.7,AGL Hydro Partnership,Macarthur Wind Farm,Wind,420.0,16.83,Macarthur Wind Farm,-38.048957,142.192112,2026-04-14T10:23:22.749533
2026/04/14 20:20:00,MCINTYR1,137.2,MacIntyre UJV Operator Pty Ltd,MacIntyre Wind Farm,Wind,890.0,15.42,MacIntyre Wind Farm,-28.32,151.54,2026-04-14T10:23:22.749533
2026/04/14 20:20:00,MERCER01,6.0,Mt Mercer Windfarm Pty Ltd,Mt Mercer Wind Farm,Wind,131.0,4.58,Mt Mercer Wind Farm,-37.841111,143.871111,2026-04-14T10:23:22.749533
2026/04/14 20:20:00,MEWF1,136.53,Ergon Energy Queensland Pty Ltd ,Mount Emerald Wind Farm,Wind,178.0,76.7,Mount Emerald Wind Farm,-17.133007,145.380644,2026-04-14T10:23:22.749533
2026/04/14 20:20:00,MRTLSWF1,73.74,Mortlake South Wind Farm Pty Ltd,Mortlake South Wind Farm,Wind,153.0,48.2,Mortlake South Wind Farm,-38.127337,142.857801,2026-04-14T10:23:22.749533
2026/04/14 20:20:00,MTGELWF1,43.26,Mt. Gellibrand Wind Farm Pty Ltd,Mt Gellibrand Wind Farm,Wind,132.0,32.77,Mt Gellibrand Wind Farm,-38.23,143.77,2026-04-14T10:23:22.749533
2026/04/14 20:20:00,MTMILLAR,2.8,Mt Millar Wind Farm Pty Ltd,Mt Millar Wind Farm,Wind,70.0,4.0,Mt Millar Wind Farm,-33.624444,136.703611,2026-04-14T10:23:22.749533
2026/04/14 20:20:00,MUSSELR1,151.7,Hydro-Electric Corporation,Musselroe Wind Farm,Wind,168.0,90.3,Musselroe Wind Farm,-40.780225,148.010799,2026-04-14T10:23:22.749533
2026/04/14 20:20:00,MUWAWF1,37.49,Telstra Energy (Generation) Pty Ltd,Murra Warra Wind Farm,Wind,225.7,16.61,Murra Warra Wind Farm,-36.432404,142.317853,2026-04-14T10:23:22.749533
2026/04/14 20:20:00,MUWAWF2,8.7,Murra Warra II Project Co Pty Ltd ATF The Murra Warra II Project Trust,Murra Warra Wind Farm Stage 2,Wind,203.0,4.29,Murra Warra Wind Farm Stage 2,-36.43,142.32,2026-04-14T10:23:22.749533
2026/04/14 20:20:00,NBHWF1,5.8,AGL SA Generation Pty Limited,North Brown Hill Wind Farm,Wind,132.0,4.39,North Brown Hill Wind Farm,-33.367778,138.728611,2026-04-14T10:23:22.749533
2026/04/14 20:20:00,OAKLAND1,7.6,AGL Hydro Partnership,Oaklands Hill Wind Farm,Wind,63.0,12.06,Oaklands Hill Wind Farm,-37.683078,142.551678,2026-04-14T10:23:22.749533
2026/04/14 20:20:00,PAREPW1,0.0,Iberdrola Australia Energy Markets Pty Limited,Port Augusta Renewable Energy Park,Wind,201.0,0.0,Port Augusta Renewable Energy Park,-32.566944,137.856111,2026-04-14T10:23:22.749533
2026/04/14 20:20:00,RYANCWF1,100.22,Ryan Corner Development Pty Ltd,Ryan Corner Wind Farm,Wind,205.0,48.89,Ryan Corner Wind Farm,-38.271017,142.140647,2026-04-14T10:23:22.749533
2026/04/14 20:20:00,RYEPARK1,128.7,Rye Park Renewable Energy Pty Ltd as trustee for Rye Park Wind Farm Trust,Rye Park Renewable Energy,Wind,384.0,33.52,Rye Park Renewable Energy,-32.138333,148.972778,2026-04-14T10:23:22.749533
2026/04/14 20:20:00,SALTCRK1,11.49,Salt Creek Wind Farm Pty Ltd,Salt Creek Wind Farm,Wind,54.0,21.28,Salt Creek Wind Farm,-37.95,142.63,2026-04-14T10:23:22.749533
2026/04/14 20:20:00,SAPHWF1,2.75,The Trustee For The SWF1 Operations Trust,Sapphire Wind Farm,Wind,270.0,1.02,Sapphire Wind Farm,-29.7,151.41,2026-04-14T10:23:22.749533
2026/04/14 20:20:00,SNOWNTH1,36.9,Snowtown Wind Farm Stage 2 Pty Ltd,Snowtown Wind Farm Stage 2 North,Wind,144.0,25.62,Snowtown Wind Farm Stage 2 North,-33.83,138.118611,2026-04-14T10:23:22.749533
2026/04/14 20:20:00,SNOWSTH1,15.2,Snowtown Wind Farm Stage 2 Pty Ltd,Snowtown South Wind Farm,Wind,126.0,12.06,Snowtown South Wind Farm,-33.83,138.118611,2026-04-14T10:23:22.749533
2026/04/14 20:20:00,SNOWTWN1,19.13,Snowtown Wind Farm Pty Ltd,Snowtown Wind Farm Units 1 And 47,Wind,99.0,19.32,Snowtown Wind Farm Units 1 And 47,-33.83,138.118611,2026-04-14T10:23:22.749533
2026/04/14 20:20:00,STARHLWF,0.01,Starfish Hill Wind Farm Pty Ltd,Starfish Hill Wind Farm,Wind,35.0,0.03,Starfish Hill Wind Farm,-35.58,138.14,2026-04-14T10:23:22.749533
2026/04/14 20:20:00,STOCKYD1,85.47,Stockyard Hill Wind Farm Pty Ltd,Stockyard Hill Wind Farm,Wind,511.0,16.73,Stockyard Hill Wind Farm,-37.535833,143.251389,2026-04-14T10:23:22.749533
2026/04/14 20:20:00,STWF1,51.84,PARF Company 8 Pty Ltd as The Trustee for Silverton Project Trust,Silverton Wind Farm,Wind,198.0,26.18,Silverton Wind Farm,-37.683168,142.551678,2026-04-14T10:23:22.749533
2026/04/14 20:20:00,TARALGA1,69.78,Taralga Wind Farm Nominees No 2 Pty Ltd (ATF Taralga Wind Farm Operating Trust),Taralga Wind Farm,Wind,106.0,65.83,Taralga Wind Farm,-34.42352,149.826267,2026-04-14T10:23:22.749533
2026/04/14 20:20:00,WAMBOWF1,170.82,Stanwell Corporation Limited,Wambo Wind Farm 1,Wind,245.0,69.72,Wambo Wind Farm 1,-35.187301,149.524945,2026-04-14T10:23:22.749533
2026/04/14 20:20:00,WATERLWF,5.0,Waterloo Wind Farm Pty Ltd,Waterloo Wind Farm,Wind,130.0,3.85,Waterloo Wind Farm,-34.00094,138.911567,2026-04-14T10:23:22.749533
2026/04/14 20:20:00,WGWF1,1.9,Willogoleche Power Pty Ltd As The Trustee For The Willogoleche Operating Trust,Willogoleche Wind Farm,Wind,119.0,1.6,Willogoleche Wind Farm,-33.39,138.85,2026-04-14T10:23:22.749533
2026/04/14 20:20:00,WOODLWN1,22.29,Woodlawn Wind Pty Ltd,Woodlawn Wind Farm,Wind,48.0,46.44,Woodlawn Wind Farm,-35.08,149.62,2026-04-14T10:23:22.749533
2026/04/14 20:20:00,WPWF,1.18,AGL SA Generation Pty Limited,Wattle Point Wind Farm,Wind,91.0,1.3,Wattle Point Wind Farm,-35.111624,137.7219,2026-04-14T10:23:22.749533
2026/04/14 20:20:00,WRWF1,0.04,White Rock Wind Farm Pty Ltd,White Rock Wind Farm,Wind,172.0,0.02,White Rock Wind Farm,-29.79,151.54,2026-04-14T10:23:22.749533
2026/04/14 20:20:00,YENDWF1,7.47,Lal Lal Wind Farms Nom Co Pty Ltd,Yendon Wind Farm,Wind,142.0,5.26,Yendon Wind Farm,-37.629987,144.022717,2026-04-14T10:23:22.749533
