SETTLEMENTDATE,DUID,SCADAVALUE,Participant,Station Name,Fuel Source - Primary,MAX_CAP,utilisation_pct,Plant,Latitude,Longitude,timestamp_utc
2026/01/31 19:05:00,CAPTL_WF,111.28,Iberdrola Australia Holdings Pty Limited,Capital Wind Farm,Wind,140.0,79.49,Capital Wind Farm,-35.1,149.31,2026-01-31T09:02:41.487436
2026/01/31 19:05:00,CHALLHWF,12.8,Pacific Hydro Challicum Hills Pty Ltd,Challicum Hills Wind Farm,Wind,52.0,24.62,Challicum Hills Wind Farm,-37.38,143.11,2026-01-31T09:02:41.487436
2026/01/31 19:05:00,CULLRGWF,10.35,Cullerin Range Wind Farm Pty Ltd,Cullerin Range Wind Farm,Wind,30.0,34.5,Cullerin Range Wind Farm,-34.81,149.4,2026-01-31T09:02:41.487436
2026/01/31 19:05:00,DIAPURWF1,6.6,Y.E.S. Energy (SA) Pty Ltd,Diapur Wind Farm,Wind,7.0,94.29,Diapur Wind Farm,-36.3425,141.43,2026-01-31T09:02:41.487436
2026/01/31 19:05:00,MLWF1,4.07,Mortons Lane Windfarm Pty Limited,Mortons Lane Wind Farm,Wind,20.0,20.35,Mortons Lane Wind Farm,-37.84,142.45,2026-01-31T09:02:41.487436
2026/01/31 19:05:00,WAUBRAWF,53.5,Pyrenees Wind Energy Developments Pty Ltd,Waubra Wind Farm,Wind,192.0,27.86,Waubra Wind Farm,-37.394498,143.638982,2026-01-31T09:02:41.487436
2026/01/31 19:05:00,WOOLNTH1,66.11,Hydro-Electric Corporation,Woolnorth Studland Bay / Bluff Point Wind Farm,Wind,140.0,47.22,Woolnorth Studland Bay / Bluff Point Wind Farm,-40.69,144.72,2026-01-31T09:02:41.487436
2026/01/31 19:05:00,YAMBUKWF,8.3,Energy Pacific (Vic) Pty Ltd,Yambuk Wind Farm,Wind,30.0,27.67,Yambuk Wind Farm,-38.299083,142.027577,2026-01-31T09:02:41.487436
2026/01/31 19:05:00,YSWF1,0.4,Pacific Hydro Yaloak South Pty Ltd,Yaloak South Wind Farm,Wind,28.0,1.43,Yaloak South Wind Farm,-37.7163,144.242853,2026-01-31T09:02:41.487436
2026/01/31 19:05:00,ARWF1,128.5,Ararat Wind Farm Pty Ltd,Ararat Wind Farm,Wind,241.0,53.32,Ararat Wind Farm,-37.232778,143.031389,2026-01-31T09:02:41.487436
2026/01/31 19:05:00,BALDHWF1,22.18,Alinta Energy Retail Sales Pty Ltd,Bald Hills Wind Farm,Wind,106.0,20.92,Bald Hills Wind Farm,-38.79,145.93,2026-01-31T09:02:41.487436
2026/01/31 19:05:00,BANGOWF1,8.0,BWF Nominees Pty Ltd as The Trustee for BWF Trust,Bango 973 Wind Farm,Wind,155.0,5.16,Bango 973 Wind Farm,-34.551582,148.732808,2026-01-31T09:02:41.487436
2026/01/31 19:05:00,BANGOWF2,7.6,BWF Nominees Pty Ltd as The Trustee for BWF Trust,Bango 999 Wind Farm,Wind,82.0,9.27,Bango 999 Wind Farm,-34.551582,148.732808,2026-01-31T09:02:41.487436
2026/01/31 19:05:00,BLUFF1,17.1,AGL SA Generation Pty Limited,The Bluff Wind Farm,Wind,53.0,32.26,The Bluff Wind Farm,-33.367778,138.728611,2026-01-31T09:02:41.487436
2026/01/31 19:05:00,BOCORWF1,6.34,Boco Rock Wind Farm Pty Ltd,Boco Rock Wind Farm,Wind,111.0,5.71,Boco Rock Wind Farm,-36.578611,149.103333,2026-01-31T09:02:41.487436
2026/01/31 19:05:00,BRYB1WF1,78.89,Berrybank Development Pty Ltd,Berrybank Wind Farm,Wind,175.9,44.85,Berrybank Wind Farm,-37.94,143.52,2026-01-31T09:02:41.487436
2026/01/31 19:05:00,BRYB2WF2,54.87,Berrybank 2 Asset Pty Ltd as trustee for Berrybank 2 Asset Trust,Berrybank 2 Wind Farm,Wind,105.0,52.26,Berrybank 2 Wind Farm,-37.94,143.52,2026-01-31T09:02:41.487436
2026/01/31 19:05:00,BULGANA1,0.0,Bulgana Wind Farm Pty Ltd,Bulgana Green Power Hub,Wind,204.0,0.0,Bulgana Green Power Hub,-37.0975,142.973611,2026-01-31T09:02:41.487436
2026/01/31 19:05:00,CATHROCK,33.4,Cathedral Rocks Wind Farm Pty Ltd,Cathedral Rocks,Wind,66.0,50.61,Cathedral Rocks,-34.51,135.35,2026-01-31T09:02:41.487436
2026/01/31 19:05:00,CHYTWF1,27.57,Cherry Tree Wind Farm Pty Ltd as trustee for The Cherry Tree Project trust ,Cherry Tree Wind Farm,Wind,57.0,48.37,Cherry Tree Wind Farm,-37.1,145.26,2026-01-31T09:02:41.487436
2026/01/31 19:05:00,CLEMGPWF,34.65,Pacific Hydro Clements Gap Pty Ltd,Clements Gap Wind Farm,Wind,57.0,60.79,Clements Gap Wind Farm,-33.48,138.1,2026-01-31T09:02:41.487436
2026/01/31 19:05:00,CLRKCWF1,0.0,Stanwell Corporation Limited ,Clarke Creek Wind Farm,Wind,338.0,0.0,Clarke Creek Wind Farm,-22.85,149.45,2026-01-31T09:02:41.487436
2026/01/31 19:05:00,CLRKCWF2,6.78,Stanwell Corporation Limited ,Clarke Creek Wind Farm,Wind,101.0,6.71,Clarke Creek Wind Farm,-22.85,149.45,2026-01-31T09:02:41.487436
2026/01/31 19:05:00,CNUNDAWF,20.82,Canunda Power Pty Ltd,Canunda Wind Farm,Wind,46.0,45.26,Canunda Wind Farm,-37.73,140.39,2026-01-31T09:02:41.487436
2026/01/31 19:05:00,COLWF01,61.13,Collector Wind Farm Pty Ltd,Collector Wind Farm 1,Wind,219.0,27.91,Collector Wind Farm 1,-34.8719,149.3967,2026-01-31T09:02:41.487436
2026/01/31 19:05:00,COOPGWF1,23.66,PARF Company 10 Pty Limited as The Trustee for Coopers Gap Project Trust,Coopers Gap Wind Farm,Wind,440.0,5.38,Coopers Gap Wind Farm,-26.74,151.45,2026-01-31T09:02:41.487436
2026/01/31 19:05:00,CROOKWF2,7.59,Crookwell Development Pty Ltd ,Crookwell 2 Wind Farm,Wind,91.0,8.34,Crookwell 2 Wind Farm,-34.52,149.54,2026-01-31T09:02:41.487436
2026/01/31 19:05:00,CROOKWF3,25.14,Crookwell 3 Development Pty Ltd,Crookwell 3 Wind Farm,Wind,56.0,44.89,Crookwell 3 Wind Farm,-34.52,149.54,2026-01-31T09:02:41.487436
2026/01/31 19:05:00,CROWLWF1,62.9,Pacific Hydro Crowlands Pty Ltd ,Crowlands Wind Farm,Wind,79.0,79.62,Crowlands Wind Farm,-37.13,143.16,2026-01-31T09:02:41.487436
2026/01/31 19:05:00,CRURWF1,45.9,CRWF Nominees Pty Ltd As Trustee For The CRWF Trust,Crudine Ridge Wind Farm,Wind,138.0,33.26,Crudine Ridge Wind Farm,-32.97,149.64,2026-01-31T09:02:41.487436
2026/01/31 19:05:00,CTHLWF1,114.89,Wild Cattle Hill Pty Ltd,Cattle Hill Wind Farm,Wind,144.0,79.78,Cattle Hill Wind Farm,-42.15,146.69,2026-01-31T09:02:41.487436
2026/01/31 19:05:00,DULAWF1,47.5,Dulacca Energy Project Co Pty Ltd,Dulacca Wind Farm,Wind,173.0,27.46,Dulacca Wind Farm,-26.63,149.87,2026-01-31T09:02:41.487436
2026/01/31 19:05:00,DUNDWF1,80.43,Dundonnell Wind Farm Pty Ltd,Dundonnell Wind Farm,Wind,168.0,47.88,Dundonnell Wind Farm,-37.52,142.58,2026-01-31T09:02:41.487436
2026/01/31 19:05:00,DUNDWF2,25.03,Dundonnell Wind Farm Pty Ltd,Dundonnell Wind Farm,Wind,46.0,54.41,Dundonnell Wind Farm,-37.52,142.58,2026-01-31T09:02:41.487436
2026/01/31 19:05:00,DUNDWF3,64.0,Dundonnell Wind Farm Pty Ltd,Dundonnell Wind Farm,Wind,122.0,52.46,Dundonnell Wind Farm,-37.52,142.58,2026-01-31T09:02:41.487436
2026/01/31 19:05:00,ELAINWF1,6.22,Lal Lal Wind Farms Nom Co Pty Ltd,Elaine Wind Farm,Wind,82.0,7.59,Elaine Wind Farm,-37.36,144.0,2026-01-31T09:02:41.487436
2026/01/31 19:05:00,FLYCRKWF,20.06,Iberdrola Australia Energy Markets Pty Limited,Flyers Creek Wind Farm,Wind,140.0,14.33,Flyers Creek Wind Farm,-33.365556,148.981944,2026-01-31T09:02:41.487436
2026/01/31 19:05:00,GPWFEST1,86.09,Golden Plains WF1 Pty Ltd as Trustee for the Golden Plains WF1 Unit Trust,Golden Plains Wind Farm East,Wind,240.0,35.87,Golden Plains Wind Farm East,-37.945091,143.752614,2026-01-31T09:02:41.487436
2026/01/31 19:05:00,GPWFEST2,18.9,Golden Plains WF1 Pty Ltd as Trustee for the Golden Plains WF1 Unit Trust,Golden Plains Wind Farm East,Wind,253.0,7.47,Golden Plains Wind Farm East,-37.945091,143.752614,2026-01-31T09:02:41.487436
2026/01/31 19:05:00,GPWFEST3,74.17,Golden Plains WF1 Pty Ltd as Trustee for the Golden Plains WF1 Unit Trust,Golden Plains Wind Farm East,Wind,240.0,30.9,Golden Plains Wind Farm East,-37.945091,143.752614,2026-01-31T09:02:41.487436
2026/01/31 19:05:00,GRANWF1,16.95,Granville Harbour Operations Pty Ltd as The Trustee for Granville Harbour Operations Trust,Granville Harbour Wind Farm,Wind,111.0,15.27,Granville Harbour Wind Farm,-41.8,145.06,2026-01-31T09:02:41.487436
2026/01/31 19:05:00,GSWF1A,99.7,Goyder Wind Farm 1 Pty Ltd as the Trustee for Goyder Wind Farm 1 Trust,Goyder South Wind Farm 1A,Wind,201.0,49.6,Goyder South Wind Farm 1A,-33.679758,138.937597,2026-01-31T09:02:41.487436
2026/01/31 19:05:00,GSWF1B1,128.86,Goyder Wind Farm 1B Pty Ltd as the Trustee for the Goyder Wind Farm 1B Trust,Goyder South Wind Farm 1B,Wind,196.0,65.74,Goyder South Wind Farm 1B,-33.679758,138.937597,2026-01-31T09:02:41.487436
2026/01/31 19:05:00,GULLRWF1,23.69,New Gullen Range Wind Farm Pty Ltd,Gullen Range Wind Farm,Wind,161.0,14.71,Gullen Range Wind Farm,-34.34,149.27,2026-01-31T09:02:41.487436
2026/01/31 19:05:00,GULLRWF2,7.15,New Gullen Range Wind Farm Pty Ltd,Gullen Range Wind Farm,Wind,107.0,6.68,Gullen Range Wind Farm,-34.34,149.27,2026-01-31T09:02:41.487436
2026/01/31 19:05:00,GUNNING1,7.01,Gunning Wind Energy Developments Pty Ltd,Gunning Wind Farm,Wind,47.0,14.91,Gunning Wind Farm,-34.813333,149.4,2026-01-31T09:02:41.487436
2026/01/31 19:05:00,HALLWF1,38.73,AGL SA Generation Pty Limited,Hallett 1 Wind Farm,Wind,95.0,40.77,Hallett 1 Wind Farm,-33.367778,138.728611,2026-01-31T09:02:41.487436
2026/01/31 19:05:00,HALLWF2,30.46,AGL SA Generation Pty Limited,Hallett 2 Wind Farm,Wind,71.0,42.9,Hallett 2 Wind Farm,-33.367778,138.728611,2026-01-31T09:02:41.487436
2026/01/31 19:05:00,HD1WF1,39.22,Hawkesdale Asset Pty Ltd as trustee for Hawkesdale Asset Trust,Hawkesdale Wind Farm,Wind,89.0,44.07,Hawkesdale Wind Farm,-38.147894,142.361381,2026-01-31T09:02:41.487436
2026/01/31 19:05:00,HDWF1,52.1,HWF1 Pty Ltd,Hornsdale Wind Farm,Wind,102.0,51.08,Hornsdale Wind Farm,-33.050556,138.543611,2026-01-31T09:02:41.487436
2026/01/31 19:05:00,HDWF2,52.5,HWF 2 Pty Ltd,Hornsdale Wind Farm 2,Wind,102.0,51.47,Hornsdale Wind Farm 2,-33.06,138.54,2026-01-31T09:02:41.487436
2026/01/31 19:05:00,HDWF3,49.8,HWF3 Pty Ltd,Hornsdale Wind Farm 3,Wind,109.0,45.69,Hornsdale Wind Farm 3,-33.06,138.54,2026-01-31T09:02:41.487436
2026/01/31 19:05:00,KABANWF1,14.1,Kaban Wind Farm Pty Ltd as trustee for Kaban Wind Farm Trust,Kaban Wind Farm,Wind,152.0,9.28,Kaban Wind Farm,-17.56,145.41,2026-01-31T09:02:41.487436
2026/01/31 19:05:00,KEPWF1,0.0,Kennedy Energy Park Pty Ltd,Kennedy Energy Park,Wind,43.0,0.0,Kennedy Energy Park,-20.88,144.42,2026-01-31T09:02:41.487436
2026/01/31 19:05:00,KIATAWF1,27.2,Kiata ProjectCo Pty Ltd Atf Kiata Project Trust,Kiata Wind Farm,Wind,31.0,87.74,Kiata Wind Farm,-36.4,141.75,2026-01-31T09:02:41.487436
2026/01/31 19:05:00,LGAPWF1,70.3,Lincoln Gap Wind Farm (Operations) Pty Ltd,Lincoln Gap Wind Farm,Wind,123.0,57.15,Lincoln Gap Wind Farm,-32.564279,137.557328,2026-01-31T09:02:41.487436
2026/01/31 19:05:00,LGAPWF1,70.3,Lincoln Gap Wind Farm (Operations) Pty Ltd,Lincoln Gap Wind Farm,Wind,123.0,57.15,Lincoln Gap Wind Farm,-32.564279,137.557328,2026-01-31T09:02:41.487436
2026/01/31 19:05:00,LGAPWF2,80.51,Lincoln Gap Wind Farm (Operations) Pty Ltd,Lincoln Gap Wind Farm,Wind,85.0,94.72,Lincoln Gap Wind Farm,-32.564279,137.557328,2026-01-31T09:02:41.487436
2026/01/31 19:05:00,LGAPWF2,80.51,Lincoln Gap Wind Farm (Operations) Pty Ltd,Lincoln Gap Wind Farm,Wind,85.0,94.72,Lincoln Gap Wind Farm,-32.564279,137.557328,2026-01-31T09:02:41.487436
2026/01/31 19:05:00,LKBONNY1,43.76,Lake Bonney Wind Power Pty Ltd,Lake Bonney Wind Farm Stage 1,Wind,81.0,54.02,Lake Bonney Wind Farm Stage 1,-37.76,140.4,2026-01-31T09:02:41.487436
2026/01/31 19:05:00,LKBONNY2,62.92,Lake Bonney Wind Power Pty Ltd,Lake Bonney Stage 2 Windfarm,Wind,159.0,39.57,Lake Bonney Stage 2 Windfarm,-37.76,140.4,2026-01-31T09:02:41.487436
2026/01/31 19:05:00,LKBONNY3,10.66,Lake Bonney Wind Power Pty Ltd,Lake Bonney Stage 3 Wind Farm,Wind,39.0,27.33,Lake Bonney Stage 3 Wind Farm,-37.737781,140.388137,2026-01-31T09:02:41.487436
2026/01/31 19:05:00,MACARTH1,88.3,AGL Hydro Partnership,Macarthur Wind Farm,Wind,420.0,21.02,Macarthur Wind Farm,-38.048957,142.192112,2026-01-31T09:02:41.487436
2026/01/31 19:05:00,MCINTYR1,5.52,MacIntyre UJV Operator Pty Ltd,MacIntyre Wind Farm,Wind,890.0,0.62,MacIntyre Wind Farm,-28.32,151.54,2026-01-31T09:02:41.487436
2026/01/31 19:05:00,MERCER01,0.8,Mt Mercer Windfarm Pty Ltd,Mt Mercer Wind Farm,Wind,131.0,0.61,Mt Mercer Wind Farm,-37.841111,143.871111,2026-01-31T09:02:41.487436
2026/01/31 19:05:00,MEWF1,9.0,Ergon Energy Queensland Pty Ltd ,Mount Emerald Wind Farm,Wind,178.0,5.06,Mount Emerald Wind Farm,-17.133007,145.380644,2026-01-31T09:02:41.487436
2026/01/31 19:05:00,MRTLSWF1,51.27,Mortlake South Wind Farm Pty Ltd,Mortlake South Wind Farm,Wind,153.0,33.51,Mortlake South Wind Farm,-38.127337,142.857801,2026-01-31T09:02:41.487436
2026/01/31 19:05:00,MTGELWF1,15.61,Mt. Gellibrand Wind Farm Pty Ltd,Mt Gellibrand Wind Farm,Wind,132.0,11.83,Mt Gellibrand Wind Farm,-38.23,143.77,2026-01-31T09:02:41.487436
2026/01/31 19:05:00,MTMILLAR,58.5,Mt Millar Wind Farm Pty Ltd,Mt Millar Wind Farm,Wind,70.0,83.57,Mt Millar Wind Farm,-33.624444,136.703611,2026-01-31T09:02:41.487436
2026/01/31 19:05:00,MUSSELR1,87.3,Hydro-Electric Corporation,Musselroe Wind Farm,Wind,168.0,51.96,Musselroe Wind Farm,-40.780225,148.010799,2026-01-31T09:02:41.487436
2026/01/31 19:05:00,MUWAWF1,52.37,Telstra Energy (Generation) Pty Ltd,Murra Warra Wind Farm,Wind,225.7,23.2,Murra Warra Wind Farm,-36.432404,142.317853,2026-01-31T09:02:41.487436
2026/01/31 19:05:00,MUWAWF2,46.3,Murra Warra II Project Co Pty Ltd ATF The Murra Warra II Project Trust,Murra Warra Wind Farm Stage 2,Wind,203.0,22.81,Murra Warra Wind Farm Stage 2,-36.43,142.32,2026-01-31T09:02:41.487436
2026/01/31 19:05:00,NBHWF1,48.5,AGL SA Generation Pty Limited,North Brown Hill Wind Farm,Wind,132.0,36.74,North Brown Hill Wind Farm,-33.367778,138.728611,2026-01-31T09:02:41.487436
2026/01/31 19:05:00,OAKLAND1,26.4,AGL Hydro Partnership,Oaklands Hill Wind Farm,Wind,63.0,41.9,Oaklands Hill Wind Farm,-37.683078,142.551678,2026-01-31T09:02:41.487436
2026/01/31 19:05:00,PAREPW1,191.54,Iberdrola Australia Energy Markets Pty Limited,Port Augusta Renewable Energy Park,Wind,201.0,95.29,Port Augusta Renewable Energy Park,-32.566944,137.856111,2026-01-31T09:02:41.487436
2026/01/31 19:05:00,RYANCWF1,52.38,Ryan Corner Development Pty Ltd,Ryan Corner Wind Farm,Wind,205.0,25.55,Ryan Corner Wind Farm,-38.271017,142.140647,2026-01-31T09:02:41.487436
2026/01/31 19:05:00,RYEPARK1,29.39,Rye Park Renewable Energy Pty Ltd as trustee for Rye Park Wind Farm Trust,Rye Park Renewable Energy,Wind,384.0,7.65,Rye Park Renewable Energy,-32.138333,148.972778,2026-01-31T09:02:41.487436
2026/01/31 19:05:00,SALTCRK1,11.08,Salt Creek Wind Farm Pty Ltd,Salt Creek Wind Farm,Wind,54.0,20.52,Salt Creek Wind Farm,-37.95,142.63,2026-01-31T09:02:41.487436
2026/01/31 19:05:00,SAPHWF1,31.02,The Trustee For The SWF1 Operations Trust,Sapphire Wind Farm,Wind,270.0,11.49,Sapphire Wind Farm,-29.7,151.41,2026-01-31T09:02:41.487436
2026/01/31 19:05:00,SNOWNTH1,136.8,Snowtown Wind Farm Stage 2 Pty Ltd,Snowtown Wind Farm Stage 2 North,Wind,144.0,95.0,Snowtown Wind Farm Stage 2 North,-33.83,138.118611,2026-01-31T09:02:41.487436
2026/01/31 19:05:00,SNOWSTH1,85.3,Snowtown Wind Farm Stage 2 Pty Ltd,Snowtown South Wind Farm,Wind,126.0,67.7,Snowtown South Wind Farm,-33.83,138.118611,2026-01-31T09:02:41.487436
2026/01/31 19:05:00,SNOWTWN1,81.99,Snowtown Wind Farm Pty Ltd,Snowtown Wind Farm Units 1 And 47,Wind,99.0,82.82,Snowtown Wind Farm Units 1 And 47,-33.83,138.118611,2026-01-31T09:02:41.487436
2026/01/31 19:05:00,STARHLWF,27.09,Starfish Hill Wind Farm Pty Ltd,Starfish Hill Wind Farm,Wind,35.0,77.4,Starfish Hill Wind Farm,-35.58,138.14,2026-01-31T09:02:41.487436
2026/01/31 19:05:00,STOCKYD1,266.71,Stockyard Hill Wind Farm Pty Ltd,Stockyard Hill Wind Farm,Wind,511.0,52.19,Stockyard Hill Wind Farm,-37.535833,143.251389,2026-01-31T09:02:41.487436
2026/01/31 19:05:00,STWF1,0.0,PARF Company 8 Pty Ltd as The Trustee for Silverton Project Trust,Silverton Wind Farm,Wind,198.0,0.0,Silverton Wind Farm,-37.683168,142.551678,2026-01-31T09:02:41.487436
2026/01/31 19:05:00,TARALGA1,34.89,Taralga Wind Farm Nominees No 2 Pty Ltd (ATF Taralga Wind Farm Operating Trust),Taralga Wind Farm,Wind,106.0,32.92,Taralga Wind Farm,-34.42352,149.826267,2026-01-31T09:02:41.487436
2026/01/31 19:05:00,WAMBOWF1,0.34,Stanwell Corporation Limited,Wambo Wind Farm 1,Wind,245.0,0.14,Wambo Wind Farm 1,-35.187301,149.524945,2026-01-31T09:02:41.487436
2026/01/31 19:05:00,WATERLWF,45.5,Waterloo Wind Farm Pty Ltd,Waterloo Wind Farm,Wind,130.0,35.0,Waterloo Wind Farm,-34.00094,138.911567,2026-01-31T09:02:41.487436
2026/01/31 19:05:00,WGWF1,93.2,Willogoleche Power Pty Ltd As The Trustee For The Willogoleche Operating Trust,Willogoleche Wind Farm,Wind,119.0,78.32,Willogoleche Wind Farm,-33.39,138.85,2026-01-31T09:02:41.487436
2026/01/31 19:05:00,WOODLWN1,35.2,Woodlawn Wind Pty Ltd,Woodlawn Wind Farm,Wind,48.0,73.33,Woodlawn Wind Farm,-35.08,149.62,2026-01-31T09:02:41.487436
2026/01/31 19:05:00,WPWF,74.26,AGL SA Generation Pty Limited,Wattle Point Wind Farm,Wind,91.0,81.6,Wattle Point Wind Farm,-35.111624,137.7219,2026-01-31T09:02:41.487436
2026/01/31 19:05:00,WRWF1,6.7,White Rock Wind Farm Pty Ltd,White Rock Wind Farm,Wind,172.0,3.9,White Rock Wind Farm,-29.79,151.54,2026-01-31T09:02:41.487436
2026/01/31 19:05:00,YENDWF1,20.81,Lal Lal Wind Farms Nom Co Pty Ltd,Yendon Wind Farm,Wind,142.0,14.65,Yendon Wind Farm,-37.629987,144.022717,2026-01-31T09:02:41.487436
