SETTLEMENTDATE,DUID,SCADAVALUE,Participant,Station Name,Fuel Source - Primary,MAX_CAP,utilisation_pct,Plant,Latitude,Longitude,timestamp_utc
2026/03/02 00:45:00,CAPTL_WF,16.25,Iberdrola Australia Holdings Pty Limited,Capital Wind Farm,Wind,140.0,11.61,Capital Wind Farm,-35.1,149.31,2026-03-01T14:45:29.230516
2026/03/02 00:45:00,CHALLHWF,26.5,Pacific Hydro Challicum Hills Pty Ltd,Challicum Hills Wind Farm,Wind,52.0,50.96,Challicum Hills Wind Farm,-37.38,143.11,2026-03-01T14:45:29.230516
2026/03/02 00:45:00,CULLRGWF,6.33,Cullerin Range Wind Farm Pty Ltd,Cullerin Range Wind Farm,Wind,30.0,21.1,Cullerin Range Wind Farm,-34.81,149.4,2026-03-01T14:45:29.230516
2026/03/02 00:45:00,DIAPURWF1,0.8,Y.E.S. Energy (SA) Pty Ltd,Diapur Wind Farm,Wind,7.0,11.43,Diapur Wind Farm,-36.3425,141.43,2026-03-01T14:45:29.230516
2026/03/02 00:45:00,MLWF1,1.88,Mortons Lane Windfarm Pty Limited,Mortons Lane Wind Farm,Wind,20.0,9.4,Mortons Lane Wind Farm,-37.84,142.45,2026-03-01T14:45:29.230516
2026/03/02 00:45:00,WAUBRAWF,164.6,Pyrenees Wind Energy Developments Pty Ltd,Waubra Wind Farm,Wind,192.0,85.73,Waubra Wind Farm,-37.394498,143.638982,2026-03-01T14:45:29.230516
2026/03/02 00:45:00,WOOLNTH1,24.82,Hydro-Electric Corporation,Woolnorth Studland Bay / Bluff Point Wind Farm,Wind,140.0,17.73,Woolnorth Studland Bay / Bluff Point Wind Farm,-40.69,144.72,2026-03-01T14:45:29.230516
2026/03/02 00:45:00,YAMBUKWF,-0.1,Energy Pacific (Vic) Pty Ltd,Yambuk Wind Farm,Wind,30.0,-0.33,Yambuk Wind Farm,-38.299083,142.027577,2026-03-01T14:45:29.230516
2026/03/02 00:45:00,YSWF1,6.1,Pacific Hydro Yaloak South Pty Ltd,Yaloak South Wind Farm,Wind,28.0,21.79,Yaloak South Wind Farm,-37.7163,144.242853,2026-03-01T14:45:29.230516
2026/03/02 00:45:00,ARWF1,94.3,Ararat Wind Farm Pty Ltd,Ararat Wind Farm,Wind,241.0,39.13,Ararat Wind Farm,-37.232778,143.031389,2026-03-01T14:45:29.230516
2026/03/02 00:45:00,BALDHWF1,10.43,Alinta Energy Retail Sales Pty Ltd,Bald Hills Wind Farm,Wind,106.0,9.84,Bald Hills Wind Farm,-38.79,145.93,2026-03-01T14:45:29.230516
2026/03/02 00:45:00,BANGOWF1,57.7,BWF Nominees Pty Ltd as The Trustee for BWF Trust,Bango 973 Wind Farm,Wind,155.0,37.23,Bango 973 Wind Farm,-34.551582,148.732808,2026-03-01T14:45:29.230516
2026/03/02 00:45:00,BANGOWF2,26.4,BWF Nominees Pty Ltd as The Trustee for BWF Trust,Bango 999 Wind Farm,Wind,82.0,32.2,Bango 999 Wind Farm,-34.551582,148.732808,2026-03-01T14:45:29.230516
2026/03/02 00:45:00,BLUFF1,5.2,AGL SA Generation Pty Limited,The Bluff Wind Farm,Wind,53.0,9.81,The Bluff Wind Farm,-33.367778,138.728611,2026-03-01T14:45:29.230516
2026/03/02 00:45:00,BOCORWF1,82.34,Boco Rock Wind Farm Pty Ltd,Boco Rock Wind Farm,Wind,111.0,74.18,Boco Rock Wind Farm,-36.578611,149.103333,2026-03-01T14:45:29.230516
2026/03/02 00:45:00,BRYB1WF1,113.43,Berrybank Development Pty Ltd,Berrybank Wind Farm,Wind,175.9,64.49,Berrybank Wind Farm,-37.94,143.52,2026-03-01T14:45:29.230516
2026/03/02 00:45:00,BRYB2WF2,64.55,Berrybank 2 Asset Pty Ltd as trustee for Berrybank 2 Asset Trust,Berrybank 2 Wind Farm,Wind,105.0,61.48,Berrybank 2 Wind Farm,-37.94,143.52,2026-03-01T14:45:29.230516
2026/03/02 00:45:00,BULGANA1,111.24,Bulgana Wind Farm Pty Ltd,Bulgana Green Power Hub,Wind,204.0,54.53,Bulgana Green Power Hub,-37.0975,142.973611,2026-03-01T14:45:29.230516
2026/03/02 00:45:00,CATHROCK,26.0,Cathedral Rocks Wind Farm Pty Ltd,Cathedral Rocks,Wind,66.0,39.39,Cathedral Rocks,-34.51,135.35,2026-03-01T14:45:29.230516
2026/03/02 00:45:00,CHYTWF1,54.86,Cherry Tree Wind Farm Pty Ltd as trustee for The Cherry Tree Project trust ,Cherry Tree Wind Farm,Wind,57.0,96.25,Cherry Tree Wind Farm,-37.1,145.26,2026-03-01T14:45:29.230516
2026/03/02 00:45:00,CLEMGPWF,26.8,Pacific Hydro Clements Gap Pty Ltd,Clements Gap Wind Farm,Wind,57.0,47.02,Clements Gap Wind Farm,-33.48,138.1,2026-03-01T14:45:29.230516
2026/03/02 00:45:00,CLRKCWF1,269.48,Stanwell Corporation Limited ,Clarke Creek Wind Farm,Wind,338.0,79.73,Clarke Creek Wind Farm,-22.85,149.45,2026-03-01T14:45:29.230516
2026/03/02 00:45:00,CLRKCWF2,82.46,Stanwell Corporation Limited ,Clarke Creek Wind Farm,Wind,101.0,81.64,Clarke Creek Wind Farm,-22.85,149.45,2026-03-01T14:45:29.230516
2026/03/02 00:45:00,CNUNDAWF,8.01,Canunda Power Pty Ltd,Canunda Wind Farm,Wind,46.0,17.41,Canunda Wind Farm,-37.73,140.39,2026-03-01T14:45:29.230516
2026/03/02 00:45:00,COLWF01,16.34,Collector Wind Farm Pty Ltd,Collector Wind Farm 1,Wind,219.0,7.46,Collector Wind Farm 1,-34.8719,149.3967,2026-03-01T14:45:29.230516
2026/03/02 00:45:00,COOPGWF1,333.89,PARF Company 10 Pty Limited as The Trustee for Coopers Gap Project Trust,Coopers Gap Wind Farm,Wind,440.0,75.88,Coopers Gap Wind Farm,-26.74,151.45,2026-03-01T14:45:29.230516
2026/03/02 00:45:00,CROOKWF2,25.12,Crookwell Development Pty Ltd ,Crookwell 2 Wind Farm,Wind,91.0,27.6,Crookwell 2 Wind Farm,-34.52,149.54,2026-03-01T14:45:29.230516
2026/03/02 00:45:00,CROOKWF3,13.29,Crookwell 3 Development Pty Ltd,Crookwell 3 Wind Farm,Wind,56.0,23.73,Crookwell 3 Wind Farm,-34.52,149.54,2026-03-01T14:45:29.230516
2026/03/02 00:45:00,CROWLWF1,74.29,Pacific Hydro Crowlands Pty Ltd ,Crowlands Wind Farm,Wind,79.0,94.04,Crowlands Wind Farm,-37.13,143.16,2026-03-01T14:45:29.230516
2026/03/02 00:45:00,CRURWF1,55.1,CRWF Nominees Pty Ltd As Trustee For The CRWF Trust,Crudine Ridge Wind Farm,Wind,138.0,39.93,Crudine Ridge Wind Farm,-32.97,149.64,2026-03-01T14:45:29.230516
2026/03/02 00:45:00,CTHLWF1,89.58,Wild Cattle Hill Pty Ltd,Cattle Hill Wind Farm,Wind,144.0,62.21,Cattle Hill Wind Farm,-42.15,146.69,2026-03-01T14:45:29.230516
2026/03/02 00:45:00,DULAWF1,99.8,Dulacca Energy Project Co Pty Ltd,Dulacca Wind Farm,Wind,173.0,57.69,Dulacca Wind Farm,-26.63,149.87,2026-03-01T14:45:29.230516
2026/03/02 00:45:00,DUNDWF1,52.38,Dundonnell Wind Farm Pty Ltd,Dundonnell Wind Farm,Wind,168.0,31.18,Dundonnell Wind Farm,-37.52,142.58,2026-03-01T14:45:29.230516
2026/03/02 00:45:00,DUNDWF2,16.44,Dundonnell Wind Farm Pty Ltd,Dundonnell Wind Farm,Wind,46.0,35.74,Dundonnell Wind Farm,-37.52,142.58,2026-03-01T14:45:29.230516
2026/03/02 00:45:00,DUNDWF3,58.72,Dundonnell Wind Farm Pty Ltd,Dundonnell Wind Farm,Wind,122.0,48.13,Dundonnell Wind Farm,-37.52,142.58,2026-03-01T14:45:29.230516
2026/03/02 00:45:00,ELAINWF1,39.08,Lal Lal Wind Farms Nom Co Pty Ltd,Elaine Wind Farm,Wind,82.0,47.66,Elaine Wind Farm,-37.36,144.0,2026-03-01T14:45:29.230516
2026/03/02 00:45:00,FLYCRKWF,63.06,Iberdrola Australia Energy Markets Pty Limited,Flyers Creek Wind Farm,Wind,140.0,45.04,Flyers Creek Wind Farm,-33.365556,148.981944,2026-03-01T14:45:29.230516
2026/03/02 00:45:00,GPWFEST1,54.72,Golden Plains WF1 Pty Ltd as Trustee for the Golden Plains WF1 Unit Trust,Golden Plains Wind Farm East,Wind,240.0,22.8,Golden Plains Wind Farm East,-37.945091,143.752614,2026-03-01T14:45:29.230516
2026/03/02 00:45:00,GPWFEST2,33.69,Golden Plains WF1 Pty Ltd as Trustee for the Golden Plains WF1 Unit Trust,Golden Plains Wind Farm East,Wind,253.0,13.32,Golden Plains Wind Farm East,-37.945091,143.752614,2026-03-01T14:45:29.230516
2026/03/02 00:45:00,GPWFEST3,100.48,Golden Plains WF1 Pty Ltd as Trustee for the Golden Plains WF1 Unit Trust,Golden Plains Wind Farm East,Wind,240.0,41.87,Golden Plains Wind Farm East,-37.945091,143.752614,2026-03-01T14:45:29.230516
2026/03/02 00:45:00,GRANWF1,85.19,Granville Harbour Operations Pty Ltd as The Trustee for Granville Harbour Operations Trust,Granville Harbour Wind Farm,Wind,111.0,76.75,Granville Harbour Wind Farm,-41.8,145.06,2026-03-01T14:45:29.230516
2026/03/02 00:45:00,GSWF1A,74.73,Goyder Wind Farm 1 Pty Ltd as the Trustee for Goyder Wind Farm 1 Trust,Goyder South Wind Farm 1A,Wind,201.0,37.18,Goyder South Wind Farm 1A,-33.679758,138.937597,2026-03-01T14:45:29.230516
2026/03/02 00:45:00,GSWF1B1,60.19,Goyder Wind Farm 1B Pty Ltd as the Trustee for the Goyder Wind Farm 1B Trust,Goyder South Wind Farm 1B,Wind,196.0,30.71,Goyder South Wind Farm 1B,-33.679758,138.937597,2026-03-01T14:45:29.230516
2026/03/02 00:45:00,GULLRWF1,25.07,New Gullen Range Wind Farm Pty Ltd,Gullen Range Wind Farm,Wind,161.0,15.57,Gullen Range Wind Farm,-34.34,149.27,2026-03-01T14:45:29.230516
2026/03/02 00:45:00,GULLRWF2,37.53,New Gullen Range Wind Farm Pty Ltd,Gullen Range Wind Farm,Wind,107.0,35.07,Gullen Range Wind Farm,-34.34,149.27,2026-03-01T14:45:29.230516
2026/03/02 00:45:00,GUNNING1,16.95,Gunning Wind Energy Developments Pty Ltd,Gunning Wind Farm,Wind,47.0,36.06,Gunning Wind Farm,-34.813333,149.4,2026-03-01T14:45:29.230516
2026/03/02 00:45:00,HALLWF1,26.52,AGL SA Generation Pty Limited,Hallett 1 Wind Farm,Wind,95.0,27.92,Hallett 1 Wind Farm,-33.367778,138.728611,2026-03-01T14:45:29.230516
2026/03/02 00:45:00,HALLWF2,23.59,AGL SA Generation Pty Limited,Hallett 2 Wind Farm,Wind,71.0,33.23,Hallett 2 Wind Farm,-33.367778,138.728611,2026-03-01T14:45:29.230516
2026/03/02 00:45:00,HD1WF1,9.67,Hawkesdale Asset Pty Ltd as trustee for Hawkesdale Asset Trust,Hawkesdale Wind Farm,Wind,89.0,10.87,Hawkesdale Wind Farm,-38.147894,142.361381,2026-03-01T14:45:29.230516
2026/03/02 00:45:00,HDWF1,43.8,HWF1 Pty Ltd,Hornsdale Wind Farm,Wind,102.0,42.94,Hornsdale Wind Farm,-33.050556,138.543611,2026-03-01T14:45:29.230516
2026/03/02 00:45:00,HDWF2,45.7,HWF 2 Pty Ltd,Hornsdale Wind Farm 2,Wind,102.0,44.8,Hornsdale Wind Farm 2,-33.06,138.54,2026-03-01T14:45:29.230516
2026/03/02 00:45:00,HDWF3,52.4,HWF3 Pty Ltd,Hornsdale Wind Farm 3,Wind,109.0,48.07,Hornsdale Wind Farm 3,-33.06,138.54,2026-03-01T14:45:29.230516
2026/03/02 00:45:00,KABANWF1,6.06,Kaban Wind Farm Pty Ltd as trustee for Kaban Wind Farm Trust,Kaban Wind Farm,Wind,152.0,3.99,Kaban Wind Farm,-17.56,145.41,2026-03-01T14:45:29.230516
2026/03/02 00:45:00,KEPWF1,23.3,Kennedy Energy Park Pty Ltd,Kennedy Energy Park,Wind,43.0,54.19,Kennedy Energy Park,-20.88,144.42,2026-03-01T14:45:29.230516
2026/03/02 00:45:00,KIATAWF1,0.7,Kiata ProjectCo Pty Ltd Atf Kiata Project Trust,Kiata Wind Farm,Wind,31.0,2.26,Kiata Wind Farm,-36.4,141.75,2026-03-01T14:45:29.230516
2026/03/02 00:45:00,LGAPWF1,42.19,Lincoln Gap Wind Farm (Operations) Pty Ltd,Lincoln Gap Wind Farm,Wind,123.0,34.3,Lincoln Gap Wind Farm,-32.564279,137.557328,2026-03-01T14:45:29.230516
2026/03/02 00:45:00,LGAPWF1,42.19,Lincoln Gap Wind Farm (Operations) Pty Ltd,Lincoln Gap Wind Farm,Wind,123.0,34.3,Lincoln Gap Wind Farm,-32.564279,137.557328,2026-03-01T14:45:29.230516
2026/03/02 00:45:00,LGAPWF2,67.83,Lincoln Gap Wind Farm (Operations) Pty Ltd,Lincoln Gap Wind Farm,Wind,85.0,79.8,Lincoln Gap Wind Farm,-32.564279,137.557328,2026-03-01T14:45:29.230516
2026/03/02 00:45:00,LGAPWF2,67.83,Lincoln Gap Wind Farm (Operations) Pty Ltd,Lincoln Gap Wind Farm,Wind,85.0,79.8,Lincoln Gap Wind Farm,-32.564279,137.557328,2026-03-01T14:45:29.230516
2026/03/02 00:45:00,LKBONNY1,15.45,Lake Bonney Wind Power Pty Ltd,Lake Bonney Wind Farm Stage 1,Wind,81.0,19.07,Lake Bonney Wind Farm Stage 1,-37.76,140.4,2026-03-01T14:45:29.230516
2026/03/02 00:45:00,LKBONNY2,24.65,Lake Bonney Wind Power Pty Ltd,Lake Bonney Stage 2 Windfarm,Wind,159.0,15.5,Lake Bonney Stage 2 Windfarm,-37.76,140.4,2026-03-01T14:45:29.230516
2026/03/02 00:45:00,LKBONNY3,6.48,Lake Bonney Wind Power Pty Ltd,Lake Bonney Stage 3 Wind Farm,Wind,39.0,16.62,Lake Bonney Stage 3 Wind Farm,-37.737781,140.388137,2026-03-01T14:45:29.230516
2026/03/02 00:45:00,MACARTH1,26.2,AGL Hydro Partnership,Macarthur Wind Farm,Wind,420.0,6.24,Macarthur Wind Farm,-38.048957,142.192112,2026-03-01T14:45:29.230516
2026/03/02 00:45:00,MCINTYR1,392.27,MacIntyre UJV Operator Pty Ltd,MacIntyre Wind Farm,Wind,890.0,44.08,MacIntyre Wind Farm,-28.32,151.54,2026-03-01T14:45:29.230516
2026/03/02 00:45:00,MERCER01,104.9,Mt Mercer Windfarm Pty Ltd,Mt Mercer Wind Farm,Wind,131.0,80.08,Mt Mercer Wind Farm,-37.841111,143.871111,2026-03-01T14:45:29.230516
2026/03/02 00:45:00,MEWF1,2.78,Ergon Energy Queensland Pty Ltd ,Mount Emerald Wind Farm,Wind,178.0,1.56,Mount Emerald Wind Farm,-17.133007,145.380644,2026-03-01T14:45:29.230516
2026/03/02 00:45:00,MRTLSWF1,27.99,Mortlake South Wind Farm Pty Ltd,Mortlake South Wind Farm,Wind,153.0,18.29,Mortlake South Wind Farm,-38.127337,142.857801,2026-03-01T14:45:29.230516
2026/03/02 00:45:00,MTGELWF1,2.37,Mt. Gellibrand Wind Farm Pty Ltd,Mt Gellibrand Wind Farm,Wind,132.0,1.8,Mt Gellibrand Wind Farm,-38.23,143.77,2026-03-01T14:45:29.230516
2026/03/02 00:45:00,MTMILLAR,19.2,Mt Millar Wind Farm Pty Ltd,Mt Millar Wind Farm,Wind,70.0,27.43,Mt Millar Wind Farm,-33.624444,136.703611,2026-03-01T14:45:29.230516
2026/03/02 00:45:00,MUSSELR1,135.2,Hydro-Electric Corporation,Musselroe Wind Farm,Wind,168.0,80.48,Musselroe Wind Farm,-40.780225,148.010799,2026-03-01T14:45:29.230516
2026/03/02 00:45:00,MUWAWF1,179.46,Telstra Energy (Generation) Pty Ltd,Murra Warra Wind Farm,Wind,225.7,79.51,Murra Warra Wind Farm,-36.432404,142.317853,2026-03-01T14:45:29.230516
2026/03/02 00:45:00,MUWAWF2,107.4,Murra Warra II Project Co Pty Ltd ATF The Murra Warra II Project Trust,Murra Warra Wind Farm Stage 2,Wind,203.0,52.91,Murra Warra Wind Farm Stage 2,-36.43,142.32,2026-03-01T14:45:29.230516
2026/03/02 00:45:00,NBHWF1,46.7,AGL SA Generation Pty Limited,North Brown Hill Wind Farm,Wind,132.0,35.38,North Brown Hill Wind Farm,-33.367778,138.728611,2026-03-01T14:45:29.230516
2026/03/02 00:45:00,OAKLAND1,18.3,AGL Hydro Partnership,Oaklands Hill Wind Farm,Wind,63.0,29.05,Oaklands Hill Wind Farm,-37.683078,142.551678,2026-03-01T14:45:29.230516
2026/03/02 00:45:00,PAREPW1,199.4,Iberdrola Australia Energy Markets Pty Limited,Port Augusta Renewable Energy Park,Wind,201.0,99.2,Port Augusta Renewable Energy Park,-32.566944,137.856111,2026-03-01T14:45:29.230516
2026/03/02 00:45:00,RYANCWF1,0.98,Ryan Corner Development Pty Ltd,Ryan Corner Wind Farm,Wind,205.0,0.48,Ryan Corner Wind Farm,-38.271017,142.140647,2026-03-01T14:45:29.230516
2026/03/02 00:45:00,RYEPARK1,125.43,Rye Park Renewable Energy Pty Ltd as trustee for Rye Park Wind Farm Trust,Rye Park Renewable Energy,Wind,384.0,32.66,Rye Park Renewable Energy,-32.138333,148.972778,2026-03-01T14:45:29.230516
2026/03/02 00:45:00,SALTCRK1,17.78,Salt Creek Wind Farm Pty Ltd,Salt Creek Wind Farm,Wind,54.0,32.93,Salt Creek Wind Farm,-37.95,142.63,2026-03-01T14:45:29.230516
2026/03/02 00:45:00,SAPHWF1,260.82,The Trustee For The SWF1 Operations Trust,Sapphire Wind Farm,Wind,270.0,96.6,Sapphire Wind Farm,-29.7,151.41,2026-03-01T14:45:29.230516
2026/03/02 00:45:00,SNOWNTH1,100.0,Snowtown Wind Farm Stage 2 Pty Ltd,Snowtown Wind Farm Stage 2 North,Wind,144.0,69.44,Snowtown Wind Farm Stage 2 North,-33.83,138.118611,2026-03-01T14:45:29.230516
2026/03/02 00:45:00,SNOWSTH1,72.1,Snowtown Wind Farm Stage 2 Pty Ltd,Snowtown South Wind Farm,Wind,126.0,57.22,Snowtown South Wind Farm,-33.83,138.118611,2026-03-01T14:45:29.230516
2026/03/02 00:45:00,SNOWTWN1,49.54,Snowtown Wind Farm Pty Ltd,Snowtown Wind Farm Units 1 And 47,Wind,99.0,50.04,Snowtown Wind Farm Units 1 And 47,-33.83,138.118611,2026-03-01T14:45:29.230516
2026/03/02 00:45:00,STARHLWF,17.59,Starfish Hill Wind Farm Pty Ltd,Starfish Hill Wind Farm,Wind,35.0,50.26,Starfish Hill Wind Farm,-35.58,138.14,2026-03-01T14:45:29.230516
2026/03/02 00:45:00,STOCKYD1,370.64,Stockyard Hill Wind Farm Pty Ltd,Stockyard Hill Wind Farm,Wind,511.0,72.53,Stockyard Hill Wind Farm,-37.535833,143.251389,2026-03-01T14:45:29.230516
2026/03/02 00:45:00,STWF1,125.2,PARF Company 8 Pty Ltd as The Trustee for Silverton Project Trust,Silverton Wind Farm,Wind,198.0,63.23,Silverton Wind Farm,-37.683168,142.551678,2026-03-01T14:45:29.230516
2026/03/02 00:45:00,TARALGA1,56.03,Taralga Wind Farm Nominees No 2 Pty Ltd (ATF Taralga Wind Farm Operating Trust),Taralga Wind Farm,Wind,106.0,52.86,Taralga Wind Farm,-34.42352,149.826267,2026-03-01T14:45:29.230516
2026/03/02 00:45:00,WAMBOWF1,142.13,Stanwell Corporation Limited,Wambo Wind Farm 1,Wind,245.0,58.01,Wambo Wind Farm 1,-35.187301,149.524945,2026-03-01T14:45:29.230516
2026/03/02 00:45:00,WATERLWF,16.0,Waterloo Wind Farm Pty Ltd,Waterloo Wind Farm,Wind,130.0,12.31,Waterloo Wind Farm,-34.00094,138.911567,2026-03-01T14:45:29.230516
2026/03/02 00:45:00,WGWF1,47.1,Willogoleche Power Pty Ltd As The Trustee For The Willogoleche Operating Trust,Willogoleche Wind Farm,Wind,119.0,39.58,Willogoleche Wind Farm,-33.39,138.85,2026-03-01T14:45:29.230516
2026/03/02 00:45:00,WOODLWN1,9.18,Woodlawn Wind Pty Ltd,Woodlawn Wind Farm,Wind,48.0,19.12,Woodlawn Wind Farm,-35.08,149.62,2026-03-01T14:45:29.230516
2026/03/02 00:45:00,WPWF,36.98,AGL SA Generation Pty Limited,Wattle Point Wind Farm,Wind,91.0,40.64,Wattle Point Wind Farm,-35.111624,137.7219,2026-03-01T14:45:29.230516
2026/03/02 00:45:00,WRWF1,150.53,White Rock Wind Farm Pty Ltd,White Rock Wind Farm,Wind,172.0,87.52,White Rock Wind Farm,-29.79,151.54,2026-03-01T14:45:29.230516
2026/03/02 00:45:00,YENDWF1,130.05,Lal Lal Wind Farms Nom Co Pty Ltd,Yendon Wind Farm,Wind,142.0,91.58,Yendon Wind Farm,-37.629987,144.022717,2026-03-01T14:45:29.230516
