SETTLEMENTDATE,DUID,SCADAVALUE,Participant,Station Name,Fuel Source - Primary,MAX_CAP,utilisation_pct,Plant,Latitude,Longitude,timestamp_utc
2026/03/27 17:50:00,CAPTL_WF,87.16,Iberdrola Australia Holdings Pty Limited,Capital Wind Farm,Wind,140.0,62.26,Capital Wind Farm,-35.1,149.31,2026-03-27T07:49:22.924273
2026/03/27 17:50:00,CHALLHWF,34.6,Pacific Hydro Challicum Hills Pty Ltd,Challicum Hills Wind Farm,Wind,52.0,66.54,Challicum Hills Wind Farm,-37.38,143.11,2026-03-27T07:49:22.924273
2026/03/27 17:50:00,CULLRGWF,19.72,Cullerin Range Wind Farm Pty Ltd,Cullerin Range Wind Farm,Wind,30.0,65.73,Cullerin Range Wind Farm,-34.81,149.4,2026-03-27T07:49:22.924273
2026/03/27 17:50:00,DIAPURWF1,7.9,Y.E.S. Energy (SA) Pty Ltd,Diapur Wind Farm,Wind,7.0,112.86,Diapur Wind Farm,-36.3425,141.43,2026-03-27T07:49:22.924273
2026/03/27 17:50:00,MLWF1,10.65,Mortons Lane Windfarm Pty Limited,Mortons Lane Wind Farm,Wind,20.0,53.25,Mortons Lane Wind Farm,-37.84,142.45,2026-03-27T07:49:22.924273
2026/03/27 17:50:00,WAUBRAWF,162.84,Pyrenees Wind Energy Developments Pty Ltd,Waubra Wind Farm,Wind,192.0,84.81,Waubra Wind Farm,-37.394498,143.638982,2026-03-27T07:49:22.924273
2026/03/27 17:50:00,WOOLNTH1,57.25,Hydro-Electric Corporation,Woolnorth Studland Bay / Bluff Point Wind Farm,Wind,140.0,40.89,Woolnorth Studland Bay / Bluff Point Wind Farm,-40.69,144.72,2026-03-27T07:49:22.924273
2026/03/27 17:50:00,YAMBUKWF,5.7,Energy Pacific (Vic) Pty Ltd,Yambuk Wind Farm,Wind,30.0,19.0,Yambuk Wind Farm,-38.299083,142.027577,2026-03-27T07:49:22.924273
2026/03/27 17:50:00,YSWF1,4.8,Pacific Hydro Yaloak South Pty Ltd,Yaloak South Wind Farm,Wind,28.0,17.14,Yaloak South Wind Farm,-37.7163,144.242853,2026-03-27T07:49:22.924273
2026/03/27 17:50:00,ARWF1,129.6,Ararat Wind Farm Pty Ltd,Ararat Wind Farm,Wind,241.0,53.78,Ararat Wind Farm,-37.232778,143.031389,2026-03-27T07:49:22.924273
2026/03/27 17:50:00,BALDHWF1,54.32,Alinta Energy Retail Sales Pty Ltd,Bald Hills Wind Farm,Wind,106.0,51.25,Bald Hills Wind Farm,-38.79,145.93,2026-03-27T07:49:22.924273
2026/03/27 17:50:00,BANGOWF1,132.3,BWF Nominees Pty Ltd as The Trustee for BWF Trust,Bango 973 Wind Farm,Wind,155.0,85.35,Bango 973 Wind Farm,-34.551582,148.732808,2026-03-27T07:49:22.924273
2026/03/27 17:50:00,BANGOWF2,77.7,BWF Nominees Pty Ltd as The Trustee for BWF Trust,Bango 999 Wind Farm,Wind,82.0,94.76,Bango 999 Wind Farm,-34.551582,148.732808,2026-03-27T07:49:22.924273
2026/03/27 17:50:00,BLUFF1,6.0,AGL SA Generation Pty Limited,The Bluff Wind Farm,Wind,53.0,11.32,The Bluff Wind Farm,-33.367778,138.728611,2026-03-27T07:49:22.924273
2026/03/27 17:50:00,BOCORWF1,100.07,Boco Rock Wind Farm Pty Ltd,Boco Rock Wind Farm,Wind,111.0,90.15,Boco Rock Wind Farm,-36.578611,149.103333,2026-03-27T07:49:22.924273
2026/03/27 17:50:00,BRYB1WF1,134.89,Berrybank Development Pty Ltd,Berrybank Wind Farm,Wind,175.9,76.69,Berrybank Wind Farm,-37.94,143.52,2026-03-27T07:49:22.924273
2026/03/27 17:50:00,BRYB2WF2,81.44,Berrybank 2 Asset Pty Ltd as trustee for Berrybank 2 Asset Trust,Berrybank 2 Wind Farm,Wind,105.0,77.56,Berrybank 2 Wind Farm,-37.94,143.52,2026-03-27T07:49:22.924273
2026/03/27 17:50:00,BULGANA1,128.34,Bulgana Wind Farm Pty Ltd,Bulgana Green Power Hub,Wind,204.0,62.91,Bulgana Green Power Hub,-37.0975,142.973611,2026-03-27T07:49:22.924273
2026/03/27 17:50:00,CATHROCK,15.5,Cathedral Rocks Wind Farm Pty Ltd,Cathedral Rocks,Wind,66.0,23.48,Cathedral Rocks,-34.51,135.35,2026-03-27T07:49:22.924273
2026/03/27 17:50:00,CHYTWF1,56.54,Cherry Tree Wind Farm Pty Ltd as trustee for The Cherry Tree Project trust ,Cherry Tree Wind Farm,Wind,57.0,99.19,Cherry Tree Wind Farm,-37.1,145.26,2026-03-27T07:49:22.924273
2026/03/27 17:50:00,CLEMGPWF,41.06,Pacific Hydro Clements Gap Pty Ltd,Clements Gap Wind Farm,Wind,57.0,72.04,Clements Gap Wind Farm,-33.48,138.1,2026-03-27T07:49:22.924273
2026/03/27 17:50:00,CLRKCWF1,3.41,Stanwell Corporation Limited ,Clarke Creek Wind Farm,Wind,338.0,1.01,Clarke Creek Wind Farm,-22.85,149.45,2026-03-27T07:49:22.924273
2026/03/27 17:50:00,CLRKCWF2,0.0,Stanwell Corporation Limited ,Clarke Creek Wind Farm,Wind,101.0,0.0,Clarke Creek Wind Farm,-22.85,149.45,2026-03-27T07:49:22.924273
2026/03/27 17:50:00,CNUNDAWF,2.3,Canunda Power Pty Ltd,Canunda Wind Farm,Wind,46.0,5.0,Canunda Wind Farm,-37.73,140.39,2026-03-27T07:49:22.924273
2026/03/27 17:50:00,COLWF01,144.08,Collector Wind Farm Pty Ltd,Collector Wind Farm 1,Wind,219.0,65.79,Collector Wind Farm 1,-34.8719,149.3967,2026-03-27T07:49:22.924273
2026/03/27 17:50:00,COOPGWF1,345.78,PARF Company 10 Pty Limited as The Trustee for Coopers Gap Project Trust,Coopers Gap Wind Farm,Wind,440.0,78.59,Coopers Gap Wind Farm,-26.74,151.45,2026-03-27T07:49:22.924273
2026/03/27 17:50:00,CROOKWF2,73.82,Crookwell Development Pty Ltd ,Crookwell 2 Wind Farm,Wind,91.0,81.12,Crookwell 2 Wind Farm,-34.52,149.54,2026-03-27T07:49:22.924273
2026/03/27 17:50:00,CROOKWF3,49.43,Crookwell 3 Development Pty Ltd,Crookwell 3 Wind Farm,Wind,56.0,88.27,Crookwell 3 Wind Farm,-34.52,149.54,2026-03-27T07:49:22.924273
2026/03/27 17:50:00,CROWLWF1,0.0,Pacific Hydro Crowlands Pty Ltd ,Crowlands Wind Farm,Wind,79.0,0.0,Crowlands Wind Farm,-37.13,143.16,2026-03-27T07:49:22.924273
2026/03/27 17:50:00,CRURWF1,131.0,CRWF Nominees Pty Ltd As Trustee For The CRWF Trust,Crudine Ridge Wind Farm,Wind,138.0,94.93,Crudine Ridge Wind Farm,-32.97,149.64,2026-03-27T07:49:22.924273
2026/03/27 17:50:00,CTHLWF1,56.21,Wild Cattle Hill Pty Ltd,Cattle Hill Wind Farm,Wind,144.0,39.03,Cattle Hill Wind Farm,-42.15,146.69,2026-03-27T07:49:22.924273
2026/03/27 17:50:00,DULAWF1,151.0,Dulacca Energy Project Co Pty Ltd,Dulacca Wind Farm,Wind,173.0,87.28,Dulacca Wind Farm,-26.63,149.87,2026-03-27T07:49:22.924273
2026/03/27 17:50:00,DUNDWF1,83.76,Dundonnell Wind Farm Pty Ltd,Dundonnell Wind Farm,Wind,168.0,49.86,Dundonnell Wind Farm,-37.52,142.58,2026-03-27T07:49:22.924273
2026/03/27 17:50:00,DUNDWF2,23.03,Dundonnell Wind Farm Pty Ltd,Dundonnell Wind Farm,Wind,46.0,50.07,Dundonnell Wind Farm,-37.52,142.58,2026-03-27T07:49:22.924273
2026/03/27 17:50:00,DUNDWF3,60.96,Dundonnell Wind Farm Pty Ltd,Dundonnell Wind Farm,Wind,122.0,49.97,Dundonnell Wind Farm,-37.52,142.58,2026-03-27T07:49:22.924273
2026/03/27 17:50:00,ELAINWF1,49.6,Lal Lal Wind Farms Nom Co Pty Ltd,Elaine Wind Farm,Wind,82.0,60.49,Elaine Wind Farm,-37.36,144.0,2026-03-27T07:49:22.924273
2026/03/27 17:50:00,FLYCRKWF,98.69,Iberdrola Australia Energy Markets Pty Limited,Flyers Creek Wind Farm,Wind,140.0,70.49,Flyers Creek Wind Farm,-33.365556,148.981944,2026-03-27T07:49:22.924273
2026/03/27 17:50:00,GPWFEST1,153.05,Golden Plains WF1 Pty Ltd as Trustee for the Golden Plains WF1 Unit Trust,Golden Plains Wind Farm East,Wind,240.0,63.77,Golden Plains Wind Farm East,-37.945091,143.752614,2026-03-27T07:49:22.924273
2026/03/27 17:50:00,GPWFEST2,97.16,Golden Plains WF1 Pty Ltd as Trustee for the Golden Plains WF1 Unit Trust,Golden Plains Wind Farm East,Wind,253.0,38.4,Golden Plains Wind Farm East,-37.945091,143.752614,2026-03-27T07:49:22.924273
2026/03/27 17:50:00,GPWFEST3,116.79,Golden Plains WF1 Pty Ltd as Trustee for the Golden Plains WF1 Unit Trust,Golden Plains Wind Farm East,Wind,240.0,48.66,Golden Plains Wind Farm East,-37.945091,143.752614,2026-03-27T07:49:22.924273
2026/03/27 17:50:00,GRANWF1,4.96,Granville Harbour Operations Pty Ltd as The Trustee for Granville Harbour Operations Trust,Granville Harbour Wind Farm,Wind,111.0,4.47,Granville Harbour Wind Farm,-41.8,145.06,2026-03-27T07:49:22.924273
2026/03/27 17:50:00,GSWF1A,32.8,Goyder Wind Farm 1 Pty Ltd as the Trustee for Goyder Wind Farm 1 Trust,Goyder South Wind Farm 1A,Wind,201.0,16.32,Goyder South Wind Farm 1A,-33.679758,138.937597,2026-03-27T07:49:22.924273
2026/03/27 17:50:00,GSWF1B1,59.8,Goyder Wind Farm 1B Pty Ltd as the Trustee for the Goyder Wind Farm 1B Trust,Goyder South Wind Farm 1B,Wind,196.0,30.51,Goyder South Wind Farm 1B,-33.679758,138.937597,2026-03-27T07:49:22.924273
2026/03/27 17:50:00,GULLRWF1,76.06,New Gullen Range Wind Farm Pty Ltd,Gullen Range Wind Farm,Wind,161.0,47.24,Gullen Range Wind Farm,-34.34,149.27,2026-03-27T07:49:22.924273
2026/03/27 17:50:00,GULLRWF2,67.2,New Gullen Range Wind Farm Pty Ltd,Gullen Range Wind Farm,Wind,107.0,62.8,Gullen Range Wind Farm,-34.34,149.27,2026-03-27T07:49:22.924273
2026/03/27 17:50:00,GUNNING1,21.52,Gunning Wind Energy Developments Pty Ltd,Gunning Wind Farm,Wind,47.0,45.79,Gunning Wind Farm,-34.813333,149.4,2026-03-27T07:49:22.924273
2026/03/27 17:50:00,HALLWF1,10.15,AGL SA Generation Pty Limited,Hallett 1 Wind Farm,Wind,95.0,10.68,Hallett 1 Wind Farm,-33.367778,138.728611,2026-03-27T07:49:22.924273
2026/03/27 17:50:00,HALLWF2,2.41,AGL SA Generation Pty Limited,Hallett 2 Wind Farm,Wind,71.0,3.39,Hallett 2 Wind Farm,-33.367778,138.728611,2026-03-27T07:49:22.924273
2026/03/27 17:50:00,HD1WF1,49.23,Hawkesdale Asset Pty Ltd as trustee for Hawkesdale Asset Trust,Hawkesdale Wind Farm,Wind,89.0,55.31,Hawkesdale Wind Farm,-38.147894,142.361381,2026-03-27T07:49:22.924273
2026/03/27 17:50:00,HDWF1,25.9,HWF1 Pty Ltd,Hornsdale Wind Farm,Wind,102.0,25.39,Hornsdale Wind Farm,-33.050556,138.543611,2026-03-27T07:49:22.924273
2026/03/27 17:50:00,HDWF2,46.1,HWF 2 Pty Ltd,Hornsdale Wind Farm 2,Wind,102.0,45.2,Hornsdale Wind Farm 2,-33.06,138.54,2026-03-27T07:49:22.924273
2026/03/27 17:50:00,HDWF3,41.6,HWF3 Pty Ltd,Hornsdale Wind Farm 3,Wind,109.0,38.17,Hornsdale Wind Farm 3,-33.06,138.54,2026-03-27T07:49:22.924273
2026/03/27 17:50:00,KABANWF1,18.4,Kaban Wind Farm Pty Ltd as trustee for Kaban Wind Farm Trust,Kaban Wind Farm,Wind,152.0,12.11,Kaban Wind Farm,-17.56,145.41,2026-03-27T07:49:22.924273
2026/03/27 17:50:00,KEPWF1,20.9,Kennedy Energy Park Pty Ltd,Kennedy Energy Park,Wind,43.0,48.6,Kennedy Energy Park,-20.88,144.42,2026-03-27T07:49:22.924273
2026/03/27 17:50:00,KIATAWF1,19.1,Kiata ProjectCo Pty Ltd Atf Kiata Project Trust,Kiata Wind Farm,Wind,31.0,61.61,Kiata Wind Farm,-36.4,141.75,2026-03-27T07:49:22.924273
2026/03/27 17:50:00,LGAPWF1,43.04,Lincoln Gap Wind Farm (Operations) Pty Ltd,Lincoln Gap Wind Farm,Wind,123.0,34.99,Lincoln Gap Wind Farm,-32.564279,137.557328,2026-03-27T07:49:22.924273
2026/03/27 17:50:00,LGAPWF1,43.04,Lincoln Gap Wind Farm (Operations) Pty Ltd,Lincoln Gap Wind Farm,Wind,123.0,34.99,Lincoln Gap Wind Farm,-32.564279,137.557328,2026-03-27T07:49:22.924273
2026/03/27 17:50:00,LGAPWF2,57.4,Lincoln Gap Wind Farm (Operations) Pty Ltd,Lincoln Gap Wind Farm,Wind,85.0,67.53,Lincoln Gap Wind Farm,-32.564279,137.557328,2026-03-27T07:49:22.924273
2026/03/27 17:50:00,LGAPWF2,57.4,Lincoln Gap Wind Farm (Operations) Pty Ltd,Lincoln Gap Wind Farm,Wind,85.0,67.53,Lincoln Gap Wind Farm,-32.564279,137.557328,2026-03-27T07:49:22.924273
2026/03/27 17:50:00,LKBONNY1,5.89,Lake Bonney Wind Power Pty Ltd,Lake Bonney Wind Farm Stage 1,Wind,81.0,7.27,Lake Bonney Wind Farm Stage 1,-37.76,140.4,2026-03-27T07:49:22.924273
2026/03/27 17:50:00,LKBONNY2,6.22,Lake Bonney Wind Power Pty Ltd,Lake Bonney Stage 2 Windfarm,Wind,159.0,3.91,Lake Bonney Stage 2 Windfarm,-37.76,140.4,2026-03-27T07:49:22.924273
2026/03/27 17:50:00,LKBONNY3,1.34,Lake Bonney Wind Power Pty Ltd,Lake Bonney Stage 3 Wind Farm,Wind,39.0,3.44,Lake Bonney Stage 3 Wind Farm,-37.737781,140.388137,2026-03-27T07:49:22.924273
2026/03/27 17:50:00,MACARTH1,131.8,AGL Hydro Partnership,Macarthur Wind Farm,Wind,420.0,31.38,Macarthur Wind Farm,-38.048957,142.192112,2026-03-27T07:49:22.924273
2026/03/27 17:50:00,MCINTYR1,313.43,MacIntyre UJV Operator Pty Ltd,MacIntyre Wind Farm,Wind,890.0,35.22,MacIntyre Wind Farm,-28.32,151.54,2026-03-27T07:49:22.924273
2026/03/27 17:50:00,MERCER01,62.3,Mt Mercer Windfarm Pty Ltd,Mt Mercer Wind Farm,Wind,131.0,47.56,Mt Mercer Wind Farm,-37.841111,143.871111,2026-03-27T07:49:22.924273
2026/03/27 17:50:00,MEWF1,15.87,Ergon Energy Queensland Pty Ltd ,Mount Emerald Wind Farm,Wind,178.0,8.92,Mount Emerald Wind Farm,-17.133007,145.380644,2026-03-27T07:49:22.924273
2026/03/27 17:50:00,MRTLSWF1,129.24,Mortlake South Wind Farm Pty Ltd,Mortlake South Wind Farm,Wind,153.0,84.47,Mortlake South Wind Farm,-38.127337,142.857801,2026-03-27T07:49:22.924273
2026/03/27 17:50:00,MTGELWF1,72.16,Mt. Gellibrand Wind Farm Pty Ltd,Mt Gellibrand Wind Farm,Wind,132.0,54.67,Mt Gellibrand Wind Farm,-38.23,143.77,2026-03-27T07:49:22.924273
2026/03/27 17:50:00,MTMILLAR,11.5,Mt Millar Wind Farm Pty Ltd,Mt Millar Wind Farm,Wind,70.0,16.43,Mt Millar Wind Farm,-33.624444,136.703611,2026-03-27T07:49:22.924273
2026/03/27 17:50:00,MUSSELR1,57.0,Hydro-Electric Corporation,Musselroe Wind Farm,Wind,168.0,33.93,Musselroe Wind Farm,-40.780225,148.010799,2026-03-27T07:49:22.924273
2026/03/27 17:50:00,MUWAWF1,162.55,Telstra Energy (Generation) Pty Ltd,Murra Warra Wind Farm,Wind,225.7,72.02,Murra Warra Wind Farm,-36.432404,142.317853,2026-03-27T07:49:22.924273
2026/03/27 17:50:00,MUWAWF2,145.5,Murra Warra II Project Co Pty Ltd ATF The Murra Warra II Project Trust,Murra Warra Wind Farm Stage 2,Wind,203.0,71.67,Murra Warra Wind Farm Stage 2,-36.43,142.32,2026-03-27T07:49:22.924273
2026/03/27 17:50:00,NBHWF1,20.3,AGL SA Generation Pty Limited,North Brown Hill Wind Farm,Wind,132.0,15.38,North Brown Hill Wind Farm,-33.367778,138.728611,2026-03-27T07:49:22.924273
2026/03/27 17:50:00,OAKLAND1,41.0,AGL Hydro Partnership,Oaklands Hill Wind Farm,Wind,63.0,65.08,Oaklands Hill Wind Farm,-37.683078,142.551678,2026-03-27T07:49:22.924273
2026/03/27 17:50:00,PAREPW1,194.6,Iberdrola Australia Energy Markets Pty Limited,Port Augusta Renewable Energy Park,Wind,201.0,96.82,Port Augusta Renewable Energy Park,-32.566944,137.856111,2026-03-27T07:49:22.924273
2026/03/27 17:50:00,RYANCWF1,29.78,Ryan Corner Development Pty Ltd,Ryan Corner Wind Farm,Wind,205.0,14.53,Ryan Corner Wind Farm,-38.271017,142.140647,2026-03-27T07:49:22.924273
2026/03/27 17:50:00,RYEPARK1,320.62,Rye Park Renewable Energy Pty Ltd as trustee for Rye Park Wind Farm Trust,Rye Park Renewable Energy,Wind,384.0,83.49,Rye Park Renewable Energy,-32.138333,148.972778,2026-03-27T07:49:22.924273
2026/03/27 17:50:00,SALTCRK1,29.14,Salt Creek Wind Farm Pty Ltd,Salt Creek Wind Farm,Wind,54.0,53.96,Salt Creek Wind Farm,-37.95,142.63,2026-03-27T07:49:22.924273
2026/03/27 17:50:00,SAPHWF1,229.57,The Trustee For The SWF1 Operations Trust,Sapphire Wind Farm,Wind,270.0,85.03,Sapphire Wind Farm,-29.7,151.41,2026-03-27T07:49:22.924273
2026/03/27 17:50:00,SNOWNTH1,84.9,Snowtown Wind Farm Stage 2 Pty Ltd,Snowtown Wind Farm Stage 2 North,Wind,144.0,58.96,Snowtown Wind Farm Stage 2 North,-33.83,138.118611,2026-03-27T07:49:22.924273
2026/03/27 17:50:00,SNOWSTH1,78.9,Snowtown Wind Farm Stage 2 Pty Ltd,Snowtown South Wind Farm,Wind,126.0,62.62,Snowtown South Wind Farm,-33.83,138.118611,2026-03-27T07:49:22.924273
2026/03/27 17:50:00,SNOWTWN1,52.11,Snowtown Wind Farm Pty Ltd,Snowtown Wind Farm Units 1 And 47,Wind,99.0,52.64,Snowtown Wind Farm Units 1 And 47,-33.83,138.118611,2026-03-27T07:49:22.924273
2026/03/27 17:50:00,STARHLWF,8.9,Starfish Hill Wind Farm Pty Ltd,Starfish Hill Wind Farm,Wind,35.0,25.43,Starfish Hill Wind Farm,-35.58,138.14,2026-03-27T07:49:22.924273
2026/03/27 17:50:00,STOCKYD1,488.59,Stockyard Hill Wind Farm Pty Ltd,Stockyard Hill Wind Farm,Wind,511.0,95.61,Stockyard Hill Wind Farm,-37.535833,143.251389,2026-03-27T07:49:22.924273
2026/03/27 17:50:00,STWF1,100.76,PARF Company 8 Pty Ltd as The Trustee for Silverton Project Trust,Silverton Wind Farm,Wind,198.0,50.89,Silverton Wind Farm,-37.683168,142.551678,2026-03-27T07:49:22.924273
2026/03/27 17:50:00,TARALGA1,98.37,Taralga Wind Farm Nominees No 2 Pty Ltd (ATF Taralga Wind Farm Operating Trust),Taralga Wind Farm,Wind,106.0,92.8,Taralga Wind Farm,-34.42352,149.826267,2026-03-27T07:49:22.924273
2026/03/27 17:50:00,WAMBOWF1,221.21,Stanwell Corporation Limited,Wambo Wind Farm 1,Wind,245.0,90.29,Wambo Wind Farm 1,-35.187301,149.524945,2026-03-27T07:49:22.924273
2026/03/27 17:50:00,WATERLWF,29.2,Waterloo Wind Farm Pty Ltd,Waterloo Wind Farm,Wind,130.0,22.46,Waterloo Wind Farm,-34.00094,138.911567,2026-03-27T07:49:22.924273
2026/03/27 17:50:00,WGWF1,22.5,Willogoleche Power Pty Ltd As The Trustee For The Willogoleche Operating Trust,Willogoleche Wind Farm,Wind,119.0,18.91,Willogoleche Wind Farm,-33.39,138.85,2026-03-27T07:49:22.924273
2026/03/27 17:50:00,WOODLWN1,38.62,Woodlawn Wind Pty Ltd,Woodlawn Wind Farm,Wind,48.0,80.46,Woodlawn Wind Farm,-35.08,149.62,2026-03-27T07:49:22.924273
2026/03/27 17:50:00,WPWF,51.1,AGL SA Generation Pty Limited,Wattle Point Wind Farm,Wind,91.0,56.15,Wattle Point Wind Farm,-35.111624,137.7219,2026-03-27T07:49:22.924273
2026/03/27 17:50:00,WRWF1,158.52,White Rock Wind Farm Pty Ltd,White Rock Wind Farm,Wind,172.0,92.16,White Rock Wind Farm,-29.79,151.54,2026-03-27T07:49:22.924273
2026/03/27 17:50:00,YENDWF1,64.94,Lal Lal Wind Farms Nom Co Pty Ltd,Yendon Wind Farm,Wind,142.0,45.73,Yendon Wind Farm,-37.629987,144.022717,2026-03-27T07:49:22.924273
