SETTLEMENTDATE,DUID,SCADAVALUE,Participant,Station Name,Fuel Source - Primary,MAX_CAP,utilisation_pct,Plant,Latitude,Longitude,timestamp_utc
2026/04/21 04:40:00,CAPTL_WF,8.06,Iberdrola Australia Holdings Pty Limited,Capital Wind Farm,Wind,140.0,5.76,Capital Wind Farm,-35.1,149.31,2026-04-20T18:46:39.164273
2026/04/21 04:40:00,CHALLHWF,12.4,Pacific Hydro Challicum Hills Pty Ltd,Challicum Hills Wind Farm,Wind,52.0,23.85,Challicum Hills Wind Farm,-37.38,143.11,2026-04-20T18:46:39.164273
2026/04/21 04:40:00,CULLRGWF,10.3,Cullerin Range Wind Farm Pty Ltd,Cullerin Range Wind Farm,Wind,30.0,34.33,Cullerin Range Wind Farm,-34.81,149.4,2026-04-20T18:46:39.164273
2026/04/21 04:40:00,DIAPURWF1,0.1,Y.E.S. Energy (SA) Pty Ltd,Diapur Wind Farm,Wind,7.0,1.43,Diapur Wind Farm,-36.3425,141.43,2026-04-20T18:46:39.164273
2026/04/21 04:40:00,MLWF1,5.79,Mortons Lane Windfarm Pty Limited,Mortons Lane Wind Farm,Wind,20.0,28.95,Mortons Lane Wind Farm,-37.84,142.45,2026-04-20T18:46:39.164273
2026/04/21 04:40:00,WAUBRAWF,44.51,Pyrenees Wind Energy Developments Pty Ltd,Waubra Wind Farm,Wind,192.0,23.18,Waubra Wind Farm,-37.394498,143.638982,2026-04-20T18:46:39.164273
2026/04/21 04:40:00,WOOLNTH1,82.76,Hydro-Electric Corporation,Woolnorth Studland Bay / Bluff Point Wind Farm,Wind,140.0,59.11,Woolnorth Studland Bay / Bluff Point Wind Farm,-40.69,144.72,2026-04-20T18:46:39.164273
2026/04/21 04:40:00,YAMBUKWF,5.0,Energy Pacific (Vic) Pty Ltd,Yambuk Wind Farm,Wind,30.0,16.67,Yambuk Wind Farm,-38.299083,142.027577,2026-04-20T18:46:39.164273
2026/04/21 04:40:00,YSWF1,1.2,Pacific Hydro Yaloak South Pty Ltd,Yaloak South Wind Farm,Wind,28.0,4.29,Yaloak South Wind Farm,-37.7163,144.242853,2026-04-20T18:46:39.164273
2026/04/21 04:40:00,ARWF1,29.0,Ararat Wind Farm Pty Ltd,Ararat Wind Farm,Wind,241.0,12.03,Ararat Wind Farm,-37.232778,143.031389,2026-04-20T18:46:39.164273
2026/04/21 04:40:00,BALDHWF1,75.28,Alinta Energy Retail Sales Pty Ltd,Bald Hills Wind Farm,Wind,106.0,71.02,Bald Hills Wind Farm,-38.79,145.93,2026-04-20T18:46:39.164273
2026/04/21 04:40:00,BANGOWF1,49.2,BWF Nominees Pty Ltd as The Trustee for BWF Trust,Bango 973 Wind Farm,Wind,155.0,31.74,Bango 973 Wind Farm,-34.551582,148.732808,2026-04-20T18:46:39.164273
2026/04/21 04:40:00,BANGOWF2,46.1,BWF Nominees Pty Ltd as The Trustee for BWF Trust,Bango 999 Wind Farm,Wind,82.0,56.22,Bango 999 Wind Farm,-34.551582,148.732808,2026-04-20T18:46:39.164273
2026/04/21 04:40:00,BLUFF1,17.0,AGL SA Generation Pty Limited,The Bluff Wind Farm,Wind,53.0,32.08,The Bluff Wind Farm,-33.367778,138.728611,2026-04-20T18:46:39.164273
2026/04/21 04:40:00,BOCORWF1,0.0,Boco Rock Wind Farm Pty Ltd,Boco Rock Wind Farm,Wind,111.0,0.0,Boco Rock Wind Farm,-36.578611,149.103333,2026-04-20T18:46:39.164273
2026/04/21 04:40:00,BRYB1WF1,6.3,Berrybank Development Pty Ltd,Berrybank Wind Farm,Wind,175.9,3.58,Berrybank Wind Farm,-37.94,143.52,2026-04-20T18:46:39.164273
2026/04/21 04:40:00,BRYB2WF2,8.19,Berrybank 2 Asset Pty Ltd as trustee for Berrybank 2 Asset Trust,Berrybank 2 Wind Farm,Wind,105.0,7.8,Berrybank 2 Wind Farm,-37.94,143.52,2026-04-20T18:46:39.164273
2026/04/21 04:40:00,BULGANA1,59.52,Bulgana Wind Farm Pty Ltd,Bulgana Green Power Hub,Wind,204.0,29.18,Bulgana Green Power Hub,-37.0975,142.973611,2026-04-20T18:46:39.164273
2026/04/21 04:40:00,CATHROCK,55.3,Cathedral Rocks Wind Farm Pty Ltd,Cathedral Rocks,Wind,66.0,83.79,Cathedral Rocks,-34.51,135.35,2026-04-20T18:46:39.164273
2026/04/21 04:40:00,CHYTWF1,0.0,Cherry Tree Wind Farm Pty Ltd as trustee for The Cherry Tree Project trust ,Cherry Tree Wind Farm,Wind,57.0,0.0,Cherry Tree Wind Farm,-37.1,145.26,2026-04-20T18:46:39.164273
2026/04/21 04:40:00,CLEMGPWF,13.61,Pacific Hydro Clements Gap Pty Ltd,Clements Gap Wind Farm,Wind,57.0,23.88,Clements Gap Wind Farm,-33.48,138.1,2026-04-20T18:46:39.164273
2026/04/21 04:40:00,CLRKCWF1,65.43,Stanwell Corporation Limited ,Clarke Creek Wind Farm,Wind,338.0,19.36,Clarke Creek Wind Farm,-22.85,149.45,2026-04-20T18:46:39.164273
2026/04/21 04:40:00,CLRKCWF2,16.75,Stanwell Corporation Limited ,Clarke Creek Wind Farm,Wind,101.0,16.58,Clarke Creek Wind Farm,-22.85,149.45,2026-04-20T18:46:39.164273
2026/04/21 04:40:00,CNUNDAWF,1.6,Canunda Power Pty Ltd,Canunda Wind Farm,Wind,46.0,3.48,Canunda Wind Farm,-37.73,140.39,2026-04-20T18:46:39.164273
2026/04/21 04:40:00,COLWF01,62.35,Collector Wind Farm Pty Ltd,Collector Wind Farm 1,Wind,219.0,28.47,Collector Wind Farm 1,-34.8719,149.3967,2026-04-20T18:46:39.164273
2026/04/21 04:40:00,COOPGWF1,113.52,PARF Company 10 Pty Limited as The Trustee for Coopers Gap Project Trust,Coopers Gap Wind Farm,Wind,440.0,25.8,Coopers Gap Wind Farm,-26.74,151.45,2026-04-20T18:46:39.164273
2026/04/21 04:40:00,CROOKWF2,17.35,Crookwell Development Pty Ltd ,Crookwell 2 Wind Farm,Wind,91.0,19.07,Crookwell 2 Wind Farm,-34.52,149.54,2026-04-20T18:46:39.164273
2026/04/21 04:40:00,CROOKWF3,10.27,Crookwell 3 Development Pty Ltd,Crookwell 3 Wind Farm,Wind,56.0,18.34,Crookwell 3 Wind Farm,-34.52,149.54,2026-04-20T18:46:39.164273
2026/04/21 04:40:00,CROWLWF1,41.83,Pacific Hydro Crowlands Pty Ltd ,Crowlands Wind Farm,Wind,79.0,52.95,Crowlands Wind Farm,-37.13,143.16,2026-04-20T18:46:39.164273
2026/04/21 04:40:00,CRURWF1,62.5,CRWF Nominees Pty Ltd As Trustee For The CRWF Trust,Crudine Ridge Wind Farm,Wind,138.0,45.29,Crudine Ridge Wind Farm,-32.97,149.64,2026-04-20T18:46:39.164273
2026/04/21 04:40:00,CTHLWF1,5.47,Wild Cattle Hill Pty Ltd,Cattle Hill Wind Farm,Wind,144.0,3.8,Cattle Hill Wind Farm,-42.15,146.69,2026-04-20T18:46:39.164273
2026/04/21 04:40:00,DULAWF1,126.7,Dulacca Energy Project Co Pty Ltd,Dulacca Wind Farm,Wind,173.0,73.24,Dulacca Wind Farm,-26.63,149.87,2026-04-20T18:46:39.164273
2026/04/21 04:40:00,DUNDWF1,9.33,Dundonnell Wind Farm Pty Ltd,Dundonnell Wind Farm,Wind,168.0,5.55,Dundonnell Wind Farm,-37.52,142.58,2026-04-20T18:46:39.164273
2026/04/21 04:40:00,DUNDWF2,2.69,Dundonnell Wind Farm Pty Ltd,Dundonnell Wind Farm,Wind,46.0,5.85,Dundonnell Wind Farm,-37.52,142.58,2026-04-20T18:46:39.164273
2026/04/21 04:40:00,DUNDWF3,4.66,Dundonnell Wind Farm Pty Ltd,Dundonnell Wind Farm,Wind,122.0,3.82,Dundonnell Wind Farm,-37.52,142.58,2026-04-20T18:46:39.164273
2026/04/21 04:40:00,ELAINWF1,7.55,Lal Lal Wind Farms Nom Co Pty Ltd,Elaine Wind Farm,Wind,82.0,9.21,Elaine Wind Farm,-37.36,144.0,2026-04-20T18:46:39.164273
2026/04/21 04:40:00,FLYCRKWF,69.27,Iberdrola Australia Energy Markets Pty Limited,Flyers Creek Wind Farm,Wind,140.0,49.48,Flyers Creek Wind Farm,-33.365556,148.981944,2026-04-20T18:46:39.164273
2026/04/21 04:40:00,GPWFEST1,30.66,Golden Plains WF1 Pty Ltd as Trustee for the Golden Plains WF1 Unit Trust,Golden Plains Wind Farm East,Wind,240.0,12.78,Golden Plains Wind Farm East,-37.945091,143.752614,2026-04-20T18:46:39.164273
2026/04/21 04:40:00,GPWFEST2,31.58,Golden Plains WF1 Pty Ltd as Trustee for the Golden Plains WF1 Unit Trust,Golden Plains Wind Farm East,Wind,253.0,12.48,Golden Plains Wind Farm East,-37.945091,143.752614,2026-04-20T18:46:39.164273
2026/04/21 04:40:00,GPWFEST3,9.76,Golden Plains WF1 Pty Ltd as Trustee for the Golden Plains WF1 Unit Trust,Golden Plains Wind Farm East,Wind,240.0,4.07,Golden Plains Wind Farm East,-37.945091,143.752614,2026-04-20T18:46:39.164273
2026/04/21 04:40:00,GRANWF1,8.07,Granville Harbour Operations Pty Ltd as The Trustee for Granville Harbour Operations Trust,Granville Harbour Wind Farm,Wind,111.0,7.27,Granville Harbour Wind Farm,-41.8,145.06,2026-04-20T18:46:39.164273
2026/04/21 04:40:00,GSWF1A,101.97,Goyder Wind Farm 1 Pty Ltd as the Trustee for Goyder Wind Farm 1 Trust,Goyder South Wind Farm 1A,Wind,201.0,50.73,Goyder South Wind Farm 1A,-33.679758,138.937597,2026-04-20T18:46:39.164273
2026/04/21 04:40:00,GSWF1B1,75.85,Goyder Wind Farm 1B Pty Ltd as the Trustee for the Goyder Wind Farm 1B Trust,Goyder South Wind Farm 1B,Wind,196.0,38.7,Goyder South Wind Farm 1B,-33.679758,138.937597,2026-04-20T18:46:39.164273
2026/04/21 04:40:00,GULLRWF1,41.04,New Gullen Range Wind Farm Pty Ltd,Gullen Range Wind Farm,Wind,161.0,25.49,Gullen Range Wind Farm,-34.34,149.27,2026-04-20T18:46:39.164273
2026/04/21 04:40:00,GULLRWF2,84.89,New Gullen Range Wind Farm Pty Ltd,Gullen Range Wind Farm,Wind,107.0,79.34,Gullen Range Wind Farm,-34.34,149.27,2026-04-20T18:46:39.164273
2026/04/21 04:40:00,GUNNING1,25.04,Gunning Wind Energy Developments Pty Ltd,Gunning Wind Farm,Wind,47.0,53.28,Gunning Wind Farm,-34.813333,149.4,2026-04-20T18:46:39.164273
2026/04/21 04:40:00,HALLWF1,50.05,AGL SA Generation Pty Limited,Hallett 1 Wind Farm,Wind,95.0,52.68,Hallett 1 Wind Farm,-33.367778,138.728611,2026-04-20T18:46:39.164273
2026/04/21 04:40:00,HALLWF2,29.71,AGL SA Generation Pty Limited,Hallett 2 Wind Farm,Wind,71.0,41.85,Hallett 2 Wind Farm,-33.367778,138.728611,2026-04-20T18:46:39.164273
2026/04/21 04:40:00,HD1WF1,41.85,Hawkesdale Asset Pty Ltd as trustee for Hawkesdale Asset Trust,Hawkesdale Wind Farm,Wind,89.0,47.02,Hawkesdale Wind Farm,-38.147894,142.361381,2026-04-20T18:46:39.164273
2026/04/21 04:40:00,HDWF1,72.5,HWF1 Pty Ltd,Hornsdale Wind Farm,Wind,102.0,71.08,Hornsdale Wind Farm,-33.050556,138.543611,2026-04-20T18:46:39.164273
2026/04/21 04:40:00,HDWF2,68.6,HWF 2 Pty Ltd,Hornsdale Wind Farm 2,Wind,102.0,67.25,Hornsdale Wind Farm 2,-33.06,138.54,2026-04-20T18:46:39.164273
2026/04/21 04:40:00,HDWF3,64.8,HWF3 Pty Ltd,Hornsdale Wind Farm 3,Wind,109.0,59.45,Hornsdale Wind Farm 3,-33.06,138.54,2026-04-20T18:46:39.164273
2026/04/21 04:40:00,KABANWF1,86.01,Kaban Wind Farm Pty Ltd as trustee for Kaban Wind Farm Trust,Kaban Wind Farm,Wind,152.0,56.59,Kaban Wind Farm,-17.56,145.41,2026-04-20T18:46:39.164273
2026/04/21 04:40:00,KEPWF1,27.1,Kennedy Energy Park Pty Ltd,Kennedy Energy Park,Wind,43.0,63.02,Kennedy Energy Park,-20.88,144.42,2026-04-20T18:46:39.164273
2026/04/21 04:40:00,KIATAWF1,1.6,Kiata ProjectCo Pty Ltd Atf Kiata Project Trust,Kiata Wind Farm,Wind,31.0,5.16,Kiata Wind Farm,-36.4,141.75,2026-04-20T18:46:39.164273
2026/04/21 04:40:00,LGAPWF1,75.39,Lincoln Gap Wind Farm (Operations) Pty Ltd,Lincoln Gap Wind Farm,Wind,123.0,61.29,Lincoln Gap Wind Farm,-32.564279,137.557328,2026-04-20T18:46:39.164273
2026/04/21 04:40:00,LGAPWF1,75.39,Lincoln Gap Wind Farm (Operations) Pty Ltd,Lincoln Gap Wind Farm,Wind,123.0,61.29,Lincoln Gap Wind Farm,-32.564279,137.557328,2026-04-20T18:46:39.164273
2026/04/21 04:40:00,LGAPWF2,81.38,Lincoln Gap Wind Farm (Operations) Pty Ltd,Lincoln Gap Wind Farm,Wind,85.0,95.74,Lincoln Gap Wind Farm,-32.564279,137.557328,2026-04-20T18:46:39.164273
2026/04/21 04:40:00,LGAPWF2,81.38,Lincoln Gap Wind Farm (Operations) Pty Ltd,Lincoln Gap Wind Farm,Wind,85.0,95.74,Lincoln Gap Wind Farm,-32.564279,137.557328,2026-04-20T18:46:39.164273
2026/04/21 04:40:00,LKBONNY1,1.96,Lake Bonney Wind Power Pty Ltd,Lake Bonney Wind Farm Stage 1,Wind,81.0,2.42,Lake Bonney Wind Farm Stage 1,-37.76,140.4,2026-04-20T18:46:39.164273
2026/04/21 04:40:00,LKBONNY2,8.1,Lake Bonney Wind Power Pty Ltd,Lake Bonney Stage 2 Windfarm,Wind,159.0,5.09,Lake Bonney Stage 2 Windfarm,-37.76,140.4,2026-04-20T18:46:39.164273
2026/04/21 04:40:00,LKBONNY3,4.08,Lake Bonney Wind Power Pty Ltd,Lake Bonney Stage 3 Wind Farm,Wind,39.0,10.46,Lake Bonney Stage 3 Wind Farm,-37.737781,140.388137,2026-04-20T18:46:39.164273
2026/04/21 04:40:00,MACARTH1,64.9,AGL Hydro Partnership,Macarthur Wind Farm,Wind,420.0,15.45,Macarthur Wind Farm,-38.048957,142.192112,2026-04-20T18:46:39.164273
2026/04/21 04:40:00,MCINTYR1,285.43,MacIntyre UJV Operator Pty Ltd,MacIntyre Wind Farm,Wind,890.0,32.07,MacIntyre Wind Farm,-28.32,151.54,2026-04-20T18:46:39.164273
2026/04/21 04:40:00,MERCER01,23.8,Mt Mercer Windfarm Pty Ltd,Mt Mercer Wind Farm,Wind,131.0,18.17,Mt Mercer Wind Farm,-37.841111,143.871111,2026-04-20T18:46:39.164273
2026/04/21 04:40:00,MEWF1,135.82,Ergon Energy Queensland Pty Ltd ,Mount Emerald Wind Farm,Wind,178.0,76.3,Mount Emerald Wind Farm,-17.133007,145.380644,2026-04-20T18:46:39.164273
2026/04/21 04:40:00,MRTLSWF1,49.13,Mortlake South Wind Farm Pty Ltd,Mortlake South Wind Farm,Wind,153.0,32.11,Mortlake South Wind Farm,-38.127337,142.857801,2026-04-20T18:46:39.164273
2026/04/21 04:40:00,MTGELWF1,31.99,Mt. Gellibrand Wind Farm Pty Ltd,Mt Gellibrand Wind Farm,Wind,132.0,24.23,Mt Gellibrand Wind Farm,-38.23,143.77,2026-04-20T18:46:39.164273
2026/04/21 04:40:00,MTMILLAR,53.7,Mt Millar Wind Farm Pty Ltd,Mt Millar Wind Farm,Wind,70.0,76.71,Mt Millar Wind Farm,-33.624444,136.703611,2026-04-20T18:46:39.164273
2026/04/21 04:40:00,MUSSELR1,10.1,Hydro-Electric Corporation,Musselroe Wind Farm,Wind,168.0,6.01,Musselroe Wind Farm,-40.780225,148.010799,2026-04-20T18:46:39.164273
2026/04/21 04:40:00,MUWAWF1,11.98,Telstra Energy (Generation) Pty Ltd,Murra Warra Wind Farm,Wind,225.7,5.31,Murra Warra Wind Farm,-36.432404,142.317853,2026-04-20T18:46:39.164273
2026/04/21 04:40:00,MUWAWF2,8.0,Murra Warra II Project Co Pty Ltd ATF The Murra Warra II Project Trust,Murra Warra Wind Farm Stage 2,Wind,203.0,3.94,Murra Warra Wind Farm Stage 2,-36.43,142.32,2026-04-20T18:46:39.164273
2026/04/21 04:40:00,NBHWF1,83.3,AGL SA Generation Pty Limited,North Brown Hill Wind Farm,Wind,132.0,63.11,North Brown Hill Wind Farm,-33.367778,138.728611,2026-04-20T18:46:39.164273
2026/04/21 04:40:00,OAKLAND1,8.7,AGL Hydro Partnership,Oaklands Hill Wind Farm,Wind,63.0,13.81,Oaklands Hill Wind Farm,-37.683078,142.551678,2026-04-20T18:46:39.164273
2026/04/21 04:40:00,PAREPW1,15.4,Iberdrola Australia Energy Markets Pty Limited,Port Augusta Renewable Energy Park,Wind,201.0,7.66,Port Augusta Renewable Energy Park,-32.566944,137.856111,2026-04-20T18:46:39.164273
2026/04/21 04:40:00,RYANCWF1,53.94,Ryan Corner Development Pty Ltd,Ryan Corner Wind Farm,Wind,205.0,26.31,Ryan Corner Wind Farm,-38.271017,142.140647,2026-04-20T18:46:39.164273
2026/04/21 04:40:00,RYEPARK1,217.36,Rye Park Renewable Energy Pty Ltd as trustee for Rye Park Wind Farm Trust,Rye Park Renewable Energy,Wind,384.0,56.6,Rye Park Renewable Energy,-32.138333,148.972778,2026-04-20T18:46:39.164273
2026/04/21 04:40:00,SALTCRK1,11.34,Salt Creek Wind Farm Pty Ltd,Salt Creek Wind Farm,Wind,54.0,21.0,Salt Creek Wind Farm,-37.95,142.63,2026-04-20T18:46:39.164273
2026/04/21 04:40:00,SAPHWF1,102.55,The Trustee For The SWF1 Operations Trust,Sapphire Wind Farm,Wind,270.0,37.98,Sapphire Wind Farm,-29.7,151.41,2026-04-20T18:46:39.164273
2026/04/21 04:40:00,SNOWNTH1,49.7,Snowtown Wind Farm Stage 2 Pty Ltd,Snowtown Wind Farm Stage 2 North,Wind,144.0,34.51,Snowtown Wind Farm Stage 2 North,-33.83,138.118611,2026-04-20T18:46:39.164273
2026/04/21 04:40:00,SNOWSTH1,25.8,Snowtown Wind Farm Stage 2 Pty Ltd,Snowtown South Wind Farm,Wind,126.0,20.48,Snowtown South Wind Farm,-33.83,138.118611,2026-04-20T18:46:39.164273
2026/04/21 04:40:00,SNOWTWN1,38.13,Snowtown Wind Farm Pty Ltd,Snowtown Wind Farm Units 1 And 47,Wind,99.0,38.52,Snowtown Wind Farm Units 1 And 47,-33.83,138.118611,2026-04-20T18:46:39.164273
2026/04/21 04:40:00,STARHLWF,2.5,Starfish Hill Wind Farm Pty Ltd,Starfish Hill Wind Farm,Wind,35.0,7.14,Starfish Hill Wind Farm,-35.58,138.14,2026-04-20T18:46:39.164273
2026/04/21 04:40:00,STOCKYD1,161.34,Stockyard Hill Wind Farm Pty Ltd,Stockyard Hill Wind Farm,Wind,511.0,31.57,Stockyard Hill Wind Farm,-37.535833,143.251389,2026-04-20T18:46:39.164273
2026/04/21 04:40:00,STWF1,75.78,PARF Company 8 Pty Ltd as The Trustee for Silverton Project Trust,Silverton Wind Farm,Wind,198.0,38.27,Silverton Wind Farm,-37.683168,142.551678,2026-04-20T18:46:39.164273
2026/04/21 04:40:00,TARALGA1,10.27,Taralga Wind Farm Nominees No 2 Pty Ltd (ATF Taralga Wind Farm Operating Trust),Taralga Wind Farm,Wind,106.0,9.69,Taralga Wind Farm,-34.42352,149.826267,2026-04-20T18:46:39.164273
2026/04/21 04:40:00,WAMBOWF1,42.07,Stanwell Corporation Limited,Wambo Wind Farm 1,Wind,245.0,17.17,Wambo Wind Farm 1,-35.187301,149.524945,2026-04-20T18:46:39.164273
2026/04/21 04:40:00,WATERLWF,0.0,Waterloo Wind Farm Pty Ltd,Waterloo Wind Farm,Wind,130.0,0.0,Waterloo Wind Farm,-34.00094,138.911567,2026-04-20T18:46:39.164273
2026/04/21 04:40:00,WGWF1,43.5,Willogoleche Power Pty Ltd As The Trustee For The Willogoleche Operating Trust,Willogoleche Wind Farm,Wind,119.0,36.55,Willogoleche Wind Farm,-33.39,138.85,2026-04-20T18:46:39.164273
2026/04/21 04:40:00,WOODLWN1,8.36,Woodlawn Wind Pty Ltd,Woodlawn Wind Farm,Wind,48.0,17.42,Woodlawn Wind Farm,-35.08,149.62,2026-04-20T18:46:39.164273
2026/04/21 04:40:00,WPWF,4.73,AGL SA Generation Pty Limited,Wattle Point Wind Farm,Wind,91.0,5.2,Wattle Point Wind Farm,-35.111624,137.7219,2026-04-20T18:46:39.164273
2026/04/21 04:40:00,WRWF1,141.7,White Rock Wind Farm Pty Ltd,White Rock Wind Farm,Wind,172.0,82.38,White Rock Wind Farm,-29.79,151.54,2026-04-20T18:46:39.164273
2026/04/21 04:40:00,YENDWF1,34.92,Lal Lal Wind Farms Nom Co Pty Ltd,Yendon Wind Farm,Wind,142.0,24.59,Yendon Wind Farm,-37.629987,144.022717,2026-04-20T18:46:39.164273
