SETTLEMENTDATE,DUID,SCADAVALUE,Participant,Station Name,Fuel Source - Primary,MAX_CAP,utilisation_pct,Plant,Latitude,Longitude,timestamp_utc
2026/02/16 15:10:00,CAPTL_WF,11.4,Iberdrola Australia Holdings Pty Limited,Capital Wind Farm,Wind,140.0,8.14,Capital Wind Farm,-35.1,149.31,2026-02-16T05:07:53.275276
2026/02/16 15:10:00,CHALLHWF,5.6,Pacific Hydro Challicum Hills Pty Ltd,Challicum Hills Wind Farm,Wind,52.0,10.77,Challicum Hills Wind Farm,-37.38,143.11,2026-02-16T05:07:53.275276
2026/02/16 15:10:00,CULLRGWF,5.02,Cullerin Range Wind Farm Pty Ltd,Cullerin Range Wind Farm,Wind,30.0,16.73,Cullerin Range Wind Farm,-34.81,149.4,2026-02-16T05:07:53.275276
2026/02/16 15:10:00,DIAPURWF1,3.2,Y.E.S. Energy (SA) Pty Ltd,Diapur Wind Farm,Wind,7.0,45.71,Diapur Wind Farm,-36.3425,141.43,2026-02-16T05:07:53.275276
2026/02/16 15:10:00,MLWF1,1.59,Mortons Lane Windfarm Pty Limited,Mortons Lane Wind Farm,Wind,20.0,7.95,Mortons Lane Wind Farm,-37.84,142.45,2026-02-16T05:07:53.275276
2026/02/16 15:10:00,WAUBRAWF,7.1,Pyrenees Wind Energy Developments Pty Ltd,Waubra Wind Farm,Wind,192.0,3.7,Waubra Wind Farm,-37.394498,143.638982,2026-02-16T05:07:53.275276
2026/02/16 15:10:00,WOOLNTH1,97.46,Hydro-Electric Corporation,Woolnorth Studland Bay / Bluff Point Wind Farm,Wind,140.0,69.61,Woolnorth Studland Bay / Bluff Point Wind Farm,-40.69,144.72,2026-02-16T05:07:53.275276
2026/02/16 15:10:00,YAMBUKWF,9.3,Energy Pacific (Vic) Pty Ltd,Yambuk Wind Farm,Wind,30.0,31.0,Yambuk Wind Farm,-38.299083,142.027577,2026-02-16T05:07:53.275276
2026/02/16 15:10:00,YSWF1,0.6,Pacific Hydro Yaloak South Pty Ltd,Yaloak South Wind Farm,Wind,28.0,2.14,Yaloak South Wind Farm,-37.7163,144.242853,2026-02-16T05:07:53.275276
2026/02/16 15:10:00,ARWF1,11.3,Ararat Wind Farm Pty Ltd,Ararat Wind Farm,Wind,241.0,4.69,Ararat Wind Farm,-37.232778,143.031389,2026-02-16T05:07:53.275276
2026/02/16 15:10:00,BALDHWF1,90.7,Alinta Energy Retail Sales Pty Ltd,Bald Hills Wind Farm,Wind,106.0,85.57,Bald Hills Wind Farm,-38.79,145.93,2026-02-16T05:07:53.275276
2026/02/16 15:10:00,BANGOWF1,37.8,BWF Nominees Pty Ltd as The Trustee for BWF Trust,Bango 973 Wind Farm,Wind,155.0,24.39,Bango 973 Wind Farm,-34.551582,148.732808,2026-02-16T05:07:53.275276
2026/02/16 15:10:00,BANGOWF2,28.1,BWF Nominees Pty Ltd as The Trustee for BWF Trust,Bango 999 Wind Farm,Wind,82.0,34.27,Bango 999 Wind Farm,-34.551582,148.732808,2026-02-16T05:07:53.275276
2026/02/16 15:10:00,BLUFF1,31.6,AGL SA Generation Pty Limited,The Bluff Wind Farm,Wind,53.0,59.62,The Bluff Wind Farm,-33.367778,138.728611,2026-02-16T05:07:53.275276
2026/02/16 15:10:00,BOCORWF1,8.66,Boco Rock Wind Farm Pty Ltd,Boco Rock Wind Farm,Wind,111.0,7.8,Boco Rock Wind Farm,-36.578611,149.103333,2026-02-16T05:07:53.275276
2026/02/16 15:10:00,BRYB1WF1,17.35,Berrybank Development Pty Ltd,Berrybank Wind Farm,Wind,175.9,9.86,Berrybank Wind Farm,-37.94,143.52,2026-02-16T05:07:53.275276
2026/02/16 15:10:00,BRYB2WF2,8.28,Berrybank 2 Asset Pty Ltd as trustee for Berrybank 2 Asset Trust,Berrybank 2 Wind Farm,Wind,105.0,7.89,Berrybank 2 Wind Farm,-37.94,143.52,2026-02-16T05:07:53.275276
2026/02/16 15:10:00,BULGANA1,11.62,Bulgana Wind Farm Pty Ltd,Bulgana Green Power Hub,Wind,204.0,5.7,Bulgana Green Power Hub,-37.0975,142.973611,2026-02-16T05:07:53.275276
2026/02/16 15:10:00,CATHROCK,0.0,Cathedral Rocks Wind Farm Pty Ltd,Cathedral Rocks,Wind,66.0,0.0,Cathedral Rocks,-34.51,135.35,2026-02-16T05:07:53.275276
2026/02/16 15:10:00,CHYTWF1,0.3,Cherry Tree Wind Farm Pty Ltd as trustee for The Cherry Tree Project trust ,Cherry Tree Wind Farm,Wind,57.0,0.53,Cherry Tree Wind Farm,-37.1,145.26,2026-02-16T05:07:53.275276
2026/02/16 15:10:00,CLEMGPWF,27.37,Pacific Hydro Clements Gap Pty Ltd,Clements Gap Wind Farm,Wind,57.0,48.02,Clements Gap Wind Farm,-33.48,138.1,2026-02-16T05:07:53.275276
2026/02/16 15:10:00,CLRKCWF1,74.24,Stanwell Corporation Limited ,Clarke Creek Wind Farm,Wind,338.0,21.96,Clarke Creek Wind Farm,-22.85,149.45,2026-02-16T05:07:53.275276
2026/02/16 15:10:00,CLRKCWF2,19.34,Stanwell Corporation Limited ,Clarke Creek Wind Farm,Wind,101.0,19.15,Clarke Creek Wind Farm,-22.85,149.45,2026-02-16T05:07:53.275276
2026/02/16 15:10:00,CNUNDAWF,0.6,Canunda Power Pty Ltd,Canunda Wind Farm,Wind,46.0,1.3,Canunda Wind Farm,-37.73,140.39,2026-02-16T05:07:53.275276
2026/02/16 15:10:00,COLWF01,29.37,Collector Wind Farm Pty Ltd,Collector Wind Farm 1,Wind,219.0,13.41,Collector Wind Farm 1,-34.8719,149.3967,2026-02-16T05:07:53.275276
2026/02/16 15:10:00,COOPGWF1,188.32,PARF Company 10 Pty Limited as The Trustee for Coopers Gap Project Trust,Coopers Gap Wind Farm,Wind,440.0,42.8,Coopers Gap Wind Farm,-26.74,151.45,2026-02-16T05:07:53.275276
2026/02/16 15:10:00,CROOKWF2,19.99,Crookwell Development Pty Ltd ,Crookwell 2 Wind Farm,Wind,91.0,21.97,Crookwell 2 Wind Farm,-34.52,149.54,2026-02-16T05:07:53.275276
2026/02/16 15:10:00,CROOKWF3,11.98,Crookwell 3 Development Pty Ltd,Crookwell 3 Wind Farm,Wind,56.0,21.39,Crookwell 3 Wind Farm,-34.52,149.54,2026-02-16T05:07:53.275276
2026/02/16 15:10:00,CROWLWF1,4.02,Pacific Hydro Crowlands Pty Ltd ,Crowlands Wind Farm,Wind,79.0,5.09,Crowlands Wind Farm,-37.13,143.16,2026-02-16T05:07:53.275276
2026/02/16 15:10:00,CRURWF1,43.9,CRWF Nominees Pty Ltd As Trustee For The CRWF Trust,Crudine Ridge Wind Farm,Wind,138.0,31.81,Crudine Ridge Wind Farm,-32.97,149.64,2026-02-16T05:07:53.275276
2026/02/16 15:10:00,CTHLWF1,58.92,Wild Cattle Hill Pty Ltd,Cattle Hill Wind Farm,Wind,144.0,40.92,Cattle Hill Wind Farm,-42.15,146.69,2026-02-16T05:07:53.275276
2026/02/16 15:10:00,DULAWF1,35.0,Dulacca Energy Project Co Pty Ltd,Dulacca Wind Farm,Wind,173.0,20.23,Dulacca Wind Farm,-26.63,149.87,2026-02-16T05:07:53.275276
2026/02/16 15:10:00,DUNDWF1,28.35,Dundonnell Wind Farm Pty Ltd,Dundonnell Wind Farm,Wind,168.0,16.88,Dundonnell Wind Farm,-37.52,142.58,2026-02-16T05:07:53.275276
2026/02/16 15:10:00,DUNDWF2,4.65,Dundonnell Wind Farm Pty Ltd,Dundonnell Wind Farm,Wind,46.0,10.11,Dundonnell Wind Farm,-37.52,142.58,2026-02-16T05:07:53.275276
2026/02/16 15:10:00,DUNDWF3,16.63,Dundonnell Wind Farm Pty Ltd,Dundonnell Wind Farm,Wind,122.0,13.63,Dundonnell Wind Farm,-37.52,142.58,2026-02-16T05:07:53.275276
2026/02/16 15:10:00,ELAINWF1,3.89,Lal Lal Wind Farms Nom Co Pty Ltd,Elaine Wind Farm,Wind,82.0,4.74,Elaine Wind Farm,-37.36,144.0,2026-02-16T05:07:53.275276
2026/02/16 15:10:00,FLYCRKWF,14.07,Iberdrola Australia Energy Markets Pty Limited,Flyers Creek Wind Farm,Wind,140.0,10.05,Flyers Creek Wind Farm,-33.365556,148.981944,2026-02-16T05:07:53.275276
2026/02/16 15:10:00,GPWFEST1,8.8,Golden Plains WF1 Pty Ltd as Trustee for the Golden Plains WF1 Unit Trust,Golden Plains Wind Farm East,Wind,240.0,3.67,Golden Plains Wind Farm East,-37.945091,143.752614,2026-02-16T05:07:53.275276
2026/02/16 15:10:00,GPWFEST2,5.23,Golden Plains WF1 Pty Ltd as Trustee for the Golden Plains WF1 Unit Trust,Golden Plains Wind Farm East,Wind,253.0,2.07,Golden Plains Wind Farm East,-37.945091,143.752614,2026-02-16T05:07:53.275276
2026/02/16 15:10:00,GPWFEST3,12.65,Golden Plains WF1 Pty Ltd as Trustee for the Golden Plains WF1 Unit Trust,Golden Plains Wind Farm East,Wind,240.0,5.27,Golden Plains Wind Farm East,-37.945091,143.752614,2026-02-16T05:07:53.275276
2026/02/16 15:10:00,GRANWF1,0.0,Granville Harbour Operations Pty Ltd as The Trustee for Granville Harbour Operations Trust,Granville Harbour Wind Farm,Wind,111.0,0.0,Granville Harbour Wind Farm,-41.8,145.06,2026-02-16T05:07:53.275276
2026/02/16 15:10:00,GSWF1A,106.53,Goyder Wind Farm 1 Pty Ltd as the Trustee for Goyder Wind Farm 1 Trust,Goyder South Wind Farm 1A,Wind,201.0,53.0,Goyder South Wind Farm 1A,-33.679758,138.937597,2026-02-16T05:07:53.275276
2026/02/16 15:10:00,GSWF1B1,94.52,Goyder Wind Farm 1B Pty Ltd as the Trustee for the Goyder Wind Farm 1B Trust,Goyder South Wind Farm 1B,Wind,196.0,48.22,Goyder South Wind Farm 1B,-33.679758,138.937597,2026-02-16T05:07:53.275276
2026/02/16 15:10:00,GULLRWF1,23.43,New Gullen Range Wind Farm Pty Ltd,Gullen Range Wind Farm,Wind,161.0,14.55,Gullen Range Wind Farm,-34.34,149.27,2026-02-16T05:07:53.275276
2026/02/16 15:10:00,GULLRWF2,30.63,New Gullen Range Wind Farm Pty Ltd,Gullen Range Wind Farm,Wind,107.0,28.63,Gullen Range Wind Farm,-34.34,149.27,2026-02-16T05:07:53.275276
2026/02/16 15:10:00,GUNNING1,10.87,Gunning Wind Energy Developments Pty Ltd,Gunning Wind Farm,Wind,47.0,23.13,Gunning Wind Farm,-34.813333,149.4,2026-02-16T05:07:53.275276
2026/02/16 15:10:00,HALLWF1,39.81,AGL SA Generation Pty Limited,Hallett 1 Wind Farm,Wind,95.0,41.91,Hallett 1 Wind Farm,-33.367778,138.728611,2026-02-16T05:07:53.275276
2026/02/16 15:10:00,HALLWF2,40.24,AGL SA Generation Pty Limited,Hallett 2 Wind Farm,Wind,71.0,56.68,Hallett 2 Wind Farm,-33.367778,138.728611,2026-02-16T05:07:53.275276
2026/02/16 15:10:00,HD1WF1,8.04,Hawkesdale Asset Pty Ltd as trustee for Hawkesdale Asset Trust,Hawkesdale Wind Farm,Wind,89.0,9.03,Hawkesdale Wind Farm,-38.147894,142.361381,2026-02-16T05:07:53.275276
2026/02/16 15:10:00,HDWF1,51.9,HWF1 Pty Ltd,Hornsdale Wind Farm,Wind,102.0,50.88,Hornsdale Wind Farm,-33.050556,138.543611,2026-02-16T05:07:53.275276
2026/02/16 15:10:00,HDWF2,44.1,HWF 2 Pty Ltd,Hornsdale Wind Farm 2,Wind,102.0,43.24,Hornsdale Wind Farm 2,-33.06,138.54,2026-02-16T05:07:53.275276
2026/02/16 15:10:00,HDWF3,63.1,HWF3 Pty Ltd,Hornsdale Wind Farm 3,Wind,109.0,57.89,Hornsdale Wind Farm 3,-33.06,138.54,2026-02-16T05:07:53.275276
2026/02/16 15:10:00,KABANWF1,20.14,Kaban Wind Farm Pty Ltd as trustee for Kaban Wind Farm Trust,Kaban Wind Farm,Wind,152.0,13.25,Kaban Wind Farm,-17.56,145.41,2026-02-16T05:07:53.275276
2026/02/16 15:10:00,KEPWF1,1.7,Kennedy Energy Park Pty Ltd,Kennedy Energy Park,Wind,43.0,3.95,Kennedy Energy Park,-20.88,144.42,2026-02-16T05:07:53.275276
2026/02/16 15:10:00,KIATAWF1,6.8,Kiata ProjectCo Pty Ltd Atf Kiata Project Trust,Kiata Wind Farm,Wind,31.0,21.94,Kiata Wind Farm,-36.4,141.75,2026-02-16T05:07:53.275276
2026/02/16 15:10:00,LGAPWF1,3.36,Lincoln Gap Wind Farm (Operations) Pty Ltd,Lincoln Gap Wind Farm,Wind,123.0,2.73,Lincoln Gap Wind Farm,-32.564279,137.557328,2026-02-16T05:07:53.275276
2026/02/16 15:10:00,LGAPWF1,3.36,Lincoln Gap Wind Farm (Operations) Pty Ltd,Lincoln Gap Wind Farm,Wind,123.0,2.73,Lincoln Gap Wind Farm,-32.564279,137.557328,2026-02-16T05:07:53.275276
2026/02/16 15:10:00,LGAPWF2,15.19,Lincoln Gap Wind Farm (Operations) Pty Ltd,Lincoln Gap Wind Farm,Wind,85.0,17.87,Lincoln Gap Wind Farm,-32.564279,137.557328,2026-02-16T05:07:53.275276
2026/02/16 15:10:00,LGAPWF2,15.19,Lincoln Gap Wind Farm (Operations) Pty Ltd,Lincoln Gap Wind Farm,Wind,85.0,17.87,Lincoln Gap Wind Farm,-32.564279,137.557328,2026-02-16T05:07:53.275276
2026/02/16 15:10:00,LKBONNY1,2.14,Lake Bonney Wind Power Pty Ltd,Lake Bonney Wind Farm Stage 1,Wind,81.0,2.64,Lake Bonney Wind Farm Stage 1,-37.76,140.4,2026-02-16T05:07:53.275276
2026/02/16 15:10:00,LKBONNY2,0.0,Lake Bonney Wind Power Pty Ltd,Lake Bonney Stage 2 Windfarm,Wind,159.0,0.0,Lake Bonney Stage 2 Windfarm,-37.76,140.4,2026-02-16T05:07:53.275276
2026/02/16 15:10:00,LKBONNY3,0.0,Lake Bonney Wind Power Pty Ltd,Lake Bonney Stage 3 Wind Farm,Wind,39.0,0.0,Lake Bonney Stage 3 Wind Farm,-37.737781,140.388137,2026-02-16T05:07:53.275276
2026/02/16 15:10:00,MACARTH1,53.3,AGL Hydro Partnership,Macarthur Wind Farm,Wind,420.0,12.69,Macarthur Wind Farm,-38.048957,142.192112,2026-02-16T05:07:53.275276
2026/02/16 15:10:00,MCINTYR1,126.2,MacIntyre UJV Operator Pty Ltd,MacIntyre Wind Farm,Wind,890.0,14.18,MacIntyre Wind Farm,-28.32,151.54,2026-02-16T05:07:53.275276
2026/02/16 15:10:00,MERCER01,1.1,Mt Mercer Windfarm Pty Ltd,Mt Mercer Wind Farm,Wind,131.0,0.84,Mt Mercer Wind Farm,-37.841111,143.871111,2026-02-16T05:07:53.275276
2026/02/16 15:10:00,MEWF1,22.24,Ergon Energy Queensland Pty Ltd ,Mount Emerald Wind Farm,Wind,178.0,12.49,Mount Emerald Wind Farm,-17.133007,145.380644,2026-02-16T05:07:53.275276
2026/02/16 15:10:00,MRTLSWF1,20.6,Mortlake South Wind Farm Pty Ltd,Mortlake South Wind Farm,Wind,153.0,13.46,Mortlake South Wind Farm,-38.127337,142.857801,2026-02-16T05:07:53.275276
2026/02/16 15:10:00,MTGELWF1,4.24,Mt. Gellibrand Wind Farm Pty Ltd,Mt Gellibrand Wind Farm,Wind,132.0,3.21,Mt Gellibrand Wind Farm,-38.23,143.77,2026-02-16T05:07:53.275276
2026/02/16 15:10:00,MTMILLAR,5.2,Mt Millar Wind Farm Pty Ltd,Mt Millar Wind Farm,Wind,70.0,7.43,Mt Millar Wind Farm,-33.624444,136.703611,2026-02-16T05:07:53.275276
2026/02/16 15:10:00,MUSSELR1,72.4,Hydro-Electric Corporation,Musselroe Wind Farm,Wind,168.0,43.1,Musselroe Wind Farm,-40.780225,148.010799,2026-02-16T05:07:53.275276
2026/02/16 15:10:00,MUWAWF1,15.32,Telstra Energy (Generation) Pty Ltd,Murra Warra Wind Farm,Wind,225.7,6.79,Murra Warra Wind Farm,-36.432404,142.317853,2026-02-16T05:07:53.275276
2026/02/16 15:10:00,MUWAWF2,16.3,Murra Warra II Project Co Pty Ltd ATF The Murra Warra II Project Trust,Murra Warra Wind Farm Stage 2,Wind,203.0,8.03,Murra Warra Wind Farm Stage 2,-36.43,142.32,2026-02-16T05:07:53.275276
2026/02/16 15:10:00,NBHWF1,74.4,AGL SA Generation Pty Limited,North Brown Hill Wind Farm,Wind,132.0,56.36,North Brown Hill Wind Farm,-33.367778,138.728611,2026-02-16T05:07:53.275276
2026/02/16 15:10:00,OAKLAND1,0.8,AGL Hydro Partnership,Oaklands Hill Wind Farm,Wind,63.0,1.27,Oaklands Hill Wind Farm,-37.683078,142.551678,2026-02-16T05:07:53.275276
2026/02/16 15:10:00,PAREPW1,72.1,Iberdrola Australia Energy Markets Pty Limited,Port Augusta Renewable Energy Park,Wind,201.0,35.87,Port Augusta Renewable Energy Park,-32.566944,137.856111,2026-02-16T05:07:53.275276
2026/02/16 15:10:00,RYANCWF1,31.34,Ryan Corner Development Pty Ltd,Ryan Corner Wind Farm,Wind,205.0,15.29,Ryan Corner Wind Farm,-38.271017,142.140647,2026-02-16T05:07:53.275276
2026/02/16 15:10:00,RYEPARK1,66.7,Rye Park Renewable Energy Pty Ltd as trustee for Rye Park Wind Farm Trust,Rye Park Renewable Energy,Wind,384.0,17.37,Rye Park Renewable Energy,-32.138333,148.972778,2026-02-16T05:07:53.275276
2026/02/16 15:10:00,SALTCRK1,9.67,Salt Creek Wind Farm Pty Ltd,Salt Creek Wind Farm,Wind,54.0,17.91,Salt Creek Wind Farm,-37.95,142.63,2026-02-16T05:07:53.275276
2026/02/16 15:10:00,SAPHWF1,64.65,The Trustee For The SWF1 Operations Trust,Sapphire Wind Farm,Wind,270.0,23.94,Sapphire Wind Farm,-29.7,151.41,2026-02-16T05:07:53.275276
2026/02/16 15:10:00,SNOWNTH1,53.3,Snowtown Wind Farm Stage 2 Pty Ltd,Snowtown Wind Farm Stage 2 North,Wind,144.0,37.01,Snowtown Wind Farm Stage 2 North,-33.83,138.118611,2026-02-16T05:07:53.275276
2026/02/16 15:10:00,SNOWSTH1,63.0,Snowtown Wind Farm Stage 2 Pty Ltd,Snowtown South Wind Farm,Wind,126.0,50.0,Snowtown South Wind Farm,-33.83,138.118611,2026-02-16T05:07:53.275276
2026/02/16 15:10:00,SNOWTWN1,47.76,Snowtown Wind Farm Pty Ltd,Snowtown Wind Farm Units 1 And 47,Wind,99.0,48.24,Snowtown Wind Farm Units 1 And 47,-33.83,138.118611,2026-02-16T05:07:53.275276
2026/02/16 15:10:00,STARHLWF,4.1,Starfish Hill Wind Farm Pty Ltd,Starfish Hill Wind Farm,Wind,35.0,11.71,Starfish Hill Wind Farm,-35.58,138.14,2026-02-16T05:07:53.275276
2026/02/16 15:10:00,STOCKYD1,41.99,Stockyard Hill Wind Farm Pty Ltd,Stockyard Hill Wind Farm,Wind,511.0,8.22,Stockyard Hill Wind Farm,-37.535833,143.251389,2026-02-16T05:07:53.275276
2026/02/16 15:10:00,STWF1,63.0,PARF Company 8 Pty Ltd as The Trustee for Silverton Project Trust,Silverton Wind Farm,Wind,198.0,31.82,Silverton Wind Farm,-37.683168,142.551678,2026-02-16T05:07:53.275276
2026/02/16 15:10:00,TARALGA1,15.25,Taralga Wind Farm Nominees No 2 Pty Ltd (ATF Taralga Wind Farm Operating Trust),Taralga Wind Farm,Wind,106.0,14.39,Taralga Wind Farm,-34.42352,149.826267,2026-02-16T05:07:53.275276
2026/02/16 15:10:00,WAMBOWF1,62.81,Stanwell Corporation Limited,Wambo Wind Farm 1,Wind,245.0,25.64,Wambo Wind Farm 1,-35.187301,149.524945,2026-02-16T05:07:53.275276
2026/02/16 15:10:00,WATERLWF,82.5,Waterloo Wind Farm Pty Ltd,Waterloo Wind Farm,Wind,130.0,63.46,Waterloo Wind Farm,-34.00094,138.911567,2026-02-16T05:07:53.275276
2026/02/16 15:10:00,WGWF1,55.0,Willogoleche Power Pty Ltd As The Trustee For The Willogoleche Operating Trust,Willogoleche Wind Farm,Wind,119.0,46.22,Willogoleche Wind Farm,-33.39,138.85,2026-02-16T05:07:53.275276
2026/02/16 15:10:00,WOODLWN1,9.88,Woodlawn Wind Pty Ltd,Woodlawn Wind Farm,Wind,48.0,20.58,Woodlawn Wind Farm,-35.08,149.62,2026-02-16T05:07:53.275276
2026/02/16 15:10:00,WPWF,0.0,AGL SA Generation Pty Limited,Wattle Point Wind Farm,Wind,91.0,0.0,Wattle Point Wind Farm,-35.111624,137.7219,2026-02-16T05:07:53.275276
2026/02/16 15:10:00,WRWF1,54.67,White Rock Wind Farm Pty Ltd,White Rock Wind Farm,Wind,172.0,31.78,White Rock Wind Farm,-29.79,151.54,2026-02-16T05:07:53.275276
2026/02/16 15:10:00,YENDWF1,4.64,Lal Lal Wind Farms Nom Co Pty Ltd,Yendon Wind Farm,Wind,142.0,3.27,Yendon Wind Farm,-37.629987,144.022717,2026-02-16T05:07:53.275276
