SETTLEMENTDATE,DUID,SCADAVALUE,Participant,Station Name,Fuel Source - Primary,MAX_CAP,utilisation_pct,Plant,Latitude,Longitude,timestamp_utc
2026/04/12 01:00:00,CAPTL_WF,122.09,Iberdrola Australia Holdings Pty Limited,Capital Wind Farm,Wind,140.0,87.21,Capital Wind Farm,-35.1,149.31,2026-04-11T15:00:49.954970
2026/04/12 01:00:00,CHALLHWF,18.2,Pacific Hydro Challicum Hills Pty Ltd,Challicum Hills Wind Farm,Wind,52.0,35.0,Challicum Hills Wind Farm,-37.38,143.11,2026-04-11T15:00:49.954970
2026/04/12 01:00:00,CULLRGWF,26.35,Cullerin Range Wind Farm Pty Ltd,Cullerin Range Wind Farm,Wind,30.0,87.83,Cullerin Range Wind Farm,-34.81,149.4,2026-04-11T15:00:49.954970
2026/04/12 01:00:00,DIAPURWF1,6.2,Y.E.S. Energy (SA) Pty Ltd,Diapur Wind Farm,Wind,7.0,88.57,Diapur Wind Farm,-36.3425,141.43,2026-04-11T15:00:49.954970
2026/04/12 01:00:00,MLWF1,12.86,Mortons Lane Windfarm Pty Limited,Mortons Lane Wind Farm,Wind,20.0,64.3,Mortons Lane Wind Farm,-37.84,142.45,2026-04-11T15:00:49.954970
2026/04/12 01:00:00,WAUBRAWF,119.97,Pyrenees Wind Energy Developments Pty Ltd,Waubra Wind Farm,Wind,192.0,62.48,Waubra Wind Farm,-37.394498,143.638982,2026-04-11T15:00:49.954970
2026/04/12 01:00:00,WOOLNTH1,105.33,Hydro-Electric Corporation,Woolnorth Studland Bay / Bluff Point Wind Farm,Wind,140.0,75.24,Woolnorth Studland Bay / Bluff Point Wind Farm,-40.69,144.72,2026-04-11T15:00:49.954970
2026/04/12 01:00:00,YAMBUKWF,29.3,Energy Pacific (Vic) Pty Ltd,Yambuk Wind Farm,Wind,30.0,97.67,Yambuk Wind Farm,-38.299083,142.027577,2026-04-11T15:00:49.954970
2026/04/12 01:00:00,YSWF1,21.2,Pacific Hydro Yaloak South Pty Ltd,Yaloak South Wind Farm,Wind,28.0,75.71,Yaloak South Wind Farm,-37.7163,144.242853,2026-04-11T15:00:49.954970
2026/04/12 01:00:00,ARWF1,82.2,Ararat Wind Farm Pty Ltd,Ararat Wind Farm,Wind,241.0,34.11,Ararat Wind Farm,-37.232778,143.031389,2026-04-11T15:00:49.954970
2026/04/12 01:00:00,BALDHWF1,98.55,Alinta Energy Retail Sales Pty Ltd,Bald Hills Wind Farm,Wind,106.0,92.97,Bald Hills Wind Farm,-38.79,145.93,2026-04-11T15:00:49.954970
2026/04/12 01:00:00,BANGOWF1,120.1,BWF Nominees Pty Ltd as The Trustee for BWF Trust,Bango 973 Wind Farm,Wind,155.0,77.48,Bango 973 Wind Farm,-34.551582,148.732808,2026-04-11T15:00:49.954970
2026/04/12 01:00:00,BANGOWF2,74.9,BWF Nominees Pty Ltd as The Trustee for BWF Trust,Bango 999 Wind Farm,Wind,82.0,91.34,Bango 999 Wind Farm,-34.551582,148.732808,2026-04-11T15:00:49.954970
2026/04/12 01:00:00,BLUFF1,37.9,AGL SA Generation Pty Limited,The Bluff Wind Farm,Wind,53.0,71.51,The Bluff Wind Farm,-33.367778,138.728611,2026-04-11T15:00:49.954970
2026/04/12 01:00:00,BOCORWF1,67.72,Boco Rock Wind Farm Pty Ltd,Boco Rock Wind Farm,Wind,111.0,61.01,Boco Rock Wind Farm,-36.578611,149.103333,2026-04-11T15:00:49.954970
2026/04/12 01:00:00,BRYB1WF1,155.76,Berrybank Development Pty Ltd,Berrybank Wind Farm,Wind,175.9,88.55,Berrybank Wind Farm,-37.94,143.52,2026-04-11T15:00:49.954970
2026/04/12 01:00:00,BRYB2WF2,93.28,Berrybank 2 Asset Pty Ltd as trustee for Berrybank 2 Asset Trust,Berrybank 2 Wind Farm,Wind,105.0,88.84,Berrybank 2 Wind Farm,-37.94,143.52,2026-04-11T15:00:49.954970
2026/04/12 01:00:00,BULGANA1,19.99,Bulgana Wind Farm Pty Ltd,Bulgana Green Power Hub,Wind,204.0,9.8,Bulgana Green Power Hub,-37.0975,142.973611,2026-04-11T15:00:49.954970
2026/04/12 01:00:00,CATHROCK,42.9,Cathedral Rocks Wind Farm Pty Ltd,Cathedral Rocks,Wind,66.0,65.0,Cathedral Rocks,-34.51,135.35,2026-04-11T15:00:49.954970
2026/04/12 01:00:00,CHYTWF1,27.05,Cherry Tree Wind Farm Pty Ltd as trustee for The Cherry Tree Project trust ,Cherry Tree Wind Farm,Wind,57.0,47.46,Cherry Tree Wind Farm,-37.1,145.26,2026-04-11T15:00:49.954970
2026/04/12 01:00:00,CLEMGPWF,7.56,Pacific Hydro Clements Gap Pty Ltd,Clements Gap Wind Farm,Wind,57.0,13.26,Clements Gap Wind Farm,-33.48,138.1,2026-04-11T15:00:49.954970
2026/04/12 01:00:00,CLRKCWF1,160.45,Stanwell Corporation Limited ,Clarke Creek Wind Farm,Wind,338.0,47.47,Clarke Creek Wind Farm,-22.85,149.45,2026-04-11T15:00:49.954970
2026/04/12 01:00:00,CLRKCWF2,28.44,Stanwell Corporation Limited ,Clarke Creek Wind Farm,Wind,101.0,28.16,Clarke Creek Wind Farm,-22.85,149.45,2026-04-11T15:00:49.954970
2026/04/12 01:00:00,CNUNDAWF,31.94,Canunda Power Pty Ltd,Canunda Wind Farm,Wind,46.0,69.43,Canunda Wind Farm,-37.73,140.39,2026-04-11T15:00:49.954970
2026/04/12 01:00:00,COLWF01,162.15,Collector Wind Farm Pty Ltd,Collector Wind Farm 1,Wind,219.0,74.04,Collector Wind Farm 1,-34.8719,149.3967,2026-04-11T15:00:49.954970
2026/04/12 01:00:00,COOPGWF1,279.65,PARF Company 10 Pty Limited as The Trustee for Coopers Gap Project Trust,Coopers Gap Wind Farm,Wind,440.0,63.56,Coopers Gap Wind Farm,-26.74,151.45,2026-04-11T15:00:49.954970
2026/04/12 01:00:00,CROOKWF2,66.4,Crookwell Development Pty Ltd ,Crookwell 2 Wind Farm,Wind,91.0,72.97,Crookwell 2 Wind Farm,-34.52,149.54,2026-04-11T15:00:49.954970
2026/04/12 01:00:00,CROOKWF3,49.63,Crookwell 3 Development Pty Ltd,Crookwell 3 Wind Farm,Wind,56.0,88.63,Crookwell 3 Wind Farm,-34.52,149.54,2026-04-11T15:00:49.954970
2026/04/12 01:00:00,CROWLWF1,23.97,Pacific Hydro Crowlands Pty Ltd ,Crowlands Wind Farm,Wind,79.0,30.34,Crowlands Wind Farm,-37.13,143.16,2026-04-11T15:00:49.954970
2026/04/12 01:00:00,CRURWF1,61.3,CRWF Nominees Pty Ltd As Trustee For The CRWF Trust,Crudine Ridge Wind Farm,Wind,138.0,44.42,Crudine Ridge Wind Farm,-32.97,149.64,2026-04-11T15:00:49.954970
2026/04/12 01:00:00,CTHLWF1,129.61,Wild Cattle Hill Pty Ltd,Cattle Hill Wind Farm,Wind,144.0,90.01,Cattle Hill Wind Farm,-42.15,146.69,2026-04-11T15:00:49.954970
2026/04/12 01:00:00,DULAWF1,109.2,Dulacca Energy Project Co Pty Ltd,Dulacca Wind Farm,Wind,173.0,63.12,Dulacca Wind Farm,-26.63,149.87,2026-04-11T15:00:49.954970
2026/04/12 01:00:00,DUNDWF1,84.05,Dundonnell Wind Farm Pty Ltd,Dundonnell Wind Farm,Wind,168.0,50.03,Dundonnell Wind Farm,-37.52,142.58,2026-04-11T15:00:49.954970
2026/04/12 01:00:00,DUNDWF2,23.15,Dundonnell Wind Farm Pty Ltd,Dundonnell Wind Farm,Wind,46.0,50.33,Dundonnell Wind Farm,-37.52,142.58,2026-04-11T15:00:49.954970
2026/04/12 01:00:00,DUNDWF3,60.96,Dundonnell Wind Farm Pty Ltd,Dundonnell Wind Farm,Wind,122.0,49.97,Dundonnell Wind Farm,-37.52,142.58,2026-04-11T15:00:49.954970
2026/04/12 01:00:00,ELAINWF1,57.85,Lal Lal Wind Farms Nom Co Pty Ltd,Elaine Wind Farm,Wind,82.0,70.55,Elaine Wind Farm,-37.36,144.0,2026-04-11T15:00:49.954970
2026/04/12 01:00:00,FLYCRKWF,49.37,Iberdrola Australia Energy Markets Pty Limited,Flyers Creek Wind Farm,Wind,140.0,35.26,Flyers Creek Wind Farm,-33.365556,148.981944,2026-04-11T15:00:49.954970
2026/04/12 01:00:00,GPWFEST1,0.0,Golden Plains WF1 Pty Ltd as Trustee for the Golden Plains WF1 Unit Trust,Golden Plains Wind Farm East,Wind,240.0,0.0,Golden Plains Wind Farm East,-37.945091,143.752614,2026-04-11T15:00:49.954970
2026/04/12 01:00:00,GPWFEST2,0.0,Golden Plains WF1 Pty Ltd as Trustee for the Golden Plains WF1 Unit Trust,Golden Plains Wind Farm East,Wind,253.0,0.0,Golden Plains Wind Farm East,-37.945091,143.752614,2026-04-11T15:00:49.954970
2026/04/12 01:00:00,GPWFEST3,235.14,Golden Plains WF1 Pty Ltd as Trustee for the Golden Plains WF1 Unit Trust,Golden Plains Wind Farm East,Wind,240.0,97.98,Golden Plains Wind Farm East,-37.945091,143.752614,2026-04-11T15:00:49.954970
2026/04/12 01:00:00,GRANWF1,107.95,Granville Harbour Operations Pty Ltd as The Trustee for Granville Harbour Operations Trust,Granville Harbour Wind Farm,Wind,111.0,97.25,Granville Harbour Wind Farm,-41.8,145.06,2026-04-11T15:00:49.954970
2026/04/12 01:00:00,GSWF1A,195.75,Goyder Wind Farm 1 Pty Ltd as the Trustee for Goyder Wind Farm 1 Trust,Goyder South Wind Farm 1A,Wind,201.0,97.39,Goyder South Wind Farm 1A,-33.679758,138.937597,2026-04-11T15:00:49.954970
2026/04/12 01:00:00,GSWF1B1,7.32,Goyder Wind Farm 1B Pty Ltd as the Trustee for the Goyder Wind Farm 1B Trust,Goyder South Wind Farm 1B,Wind,196.0,3.73,Goyder South Wind Farm 1B,-33.679758,138.937597,2026-04-11T15:00:49.954970
2026/04/12 01:00:00,GULLRWF1,118.43,New Gullen Range Wind Farm Pty Ltd,Gullen Range Wind Farm,Wind,161.0,73.56,Gullen Range Wind Farm,-34.34,149.27,2026-04-11T15:00:49.954970
2026/04/12 01:00:00,GULLRWF2,106.29,New Gullen Range Wind Farm Pty Ltd,Gullen Range Wind Farm,Wind,107.0,99.34,Gullen Range Wind Farm,-34.34,149.27,2026-04-11T15:00:49.954970
2026/04/12 01:00:00,GUNNING1,41.34,Gunning Wind Energy Developments Pty Ltd,Gunning Wind Farm,Wind,47.0,87.96,Gunning Wind Farm,-34.813333,149.4,2026-04-11T15:00:49.954970
2026/04/12 01:00:00,HALLWF1,66.61,AGL SA Generation Pty Limited,Hallett 1 Wind Farm,Wind,95.0,70.12,Hallett 1 Wind Farm,-33.367778,138.728611,2026-04-11T15:00:49.954970
2026/04/12 01:00:00,HALLWF2,55.35,AGL SA Generation Pty Limited,Hallett 2 Wind Farm,Wind,71.0,77.96,Hallett 2 Wind Farm,-33.367778,138.728611,2026-04-11T15:00:49.954970
2026/04/12 01:00:00,HD1WF1,0.0,Hawkesdale Asset Pty Ltd as trustee for Hawkesdale Asset Trust,Hawkesdale Wind Farm,Wind,89.0,0.0,Hawkesdale Wind Farm,-38.147894,142.361381,2026-04-11T15:00:49.954970
2026/04/12 01:00:00,HDWF1,45.8,HWF1 Pty Ltd,Hornsdale Wind Farm,Wind,102.0,44.9,Hornsdale Wind Farm,-33.050556,138.543611,2026-04-11T15:00:49.954970
2026/04/12 01:00:00,HDWF2,44.7,HWF 2 Pty Ltd,Hornsdale Wind Farm 2,Wind,102.0,43.82,Hornsdale Wind Farm 2,-33.06,138.54,2026-04-11T15:00:49.954970
2026/04/12 01:00:00,HDWF3,50.4,HWF3 Pty Ltd,Hornsdale Wind Farm 3,Wind,109.0,46.24,Hornsdale Wind Farm 3,-33.06,138.54,2026-04-11T15:00:49.954970
2026/04/12 01:00:00,KABANWF1,55.85,Kaban Wind Farm Pty Ltd as trustee for Kaban Wind Farm Trust,Kaban Wind Farm,Wind,152.0,36.74,Kaban Wind Farm,-17.56,145.41,2026-04-11T15:00:49.954970
2026/04/12 01:00:00,KEPWF1,1.4,Kennedy Energy Park Pty Ltd,Kennedy Energy Park,Wind,43.0,3.26,Kennedy Energy Park,-20.88,144.42,2026-04-11T15:00:49.954970
2026/04/12 01:00:00,KIATAWF1,0.0,Kiata ProjectCo Pty Ltd Atf Kiata Project Trust,Kiata Wind Farm,Wind,31.0,0.0,Kiata Wind Farm,-36.4,141.75,2026-04-11T15:00:49.954970
2026/04/12 01:00:00,LGAPWF1,10.39,Lincoln Gap Wind Farm (Operations) Pty Ltd,Lincoln Gap Wind Farm,Wind,123.0,8.45,Lincoln Gap Wind Farm,-32.564279,137.557328,2026-04-11T15:00:49.954970
2026/04/12 01:00:00,LGAPWF1,10.39,Lincoln Gap Wind Farm (Operations) Pty Ltd,Lincoln Gap Wind Farm,Wind,123.0,8.45,Lincoln Gap Wind Farm,-32.564279,137.557328,2026-04-11T15:00:49.954970
2026/04/12 01:00:00,LGAPWF2,15.03,Lincoln Gap Wind Farm (Operations) Pty Ltd,Lincoln Gap Wind Farm,Wind,85.0,17.68,Lincoln Gap Wind Farm,-32.564279,137.557328,2026-04-11T15:00:49.954970
2026/04/12 01:00:00,LGAPWF2,15.03,Lincoln Gap Wind Farm (Operations) Pty Ltd,Lincoln Gap Wind Farm,Wind,85.0,17.68,Lincoln Gap Wind Farm,-32.564279,137.557328,2026-04-11T15:00:49.954970
2026/04/12 01:00:00,LKBONNY1,0.0,Lake Bonney Wind Power Pty Ltd,Lake Bonney Wind Farm Stage 1,Wind,81.0,0.0,Lake Bonney Wind Farm Stage 1,-37.76,140.4,2026-04-11T15:00:49.954970
2026/04/12 01:00:00,LKBONNY2,59.79,Lake Bonney Wind Power Pty Ltd,Lake Bonney Stage 2 Windfarm,Wind,159.0,37.6,Lake Bonney Stage 2 Windfarm,-37.76,140.4,2026-04-11T15:00:49.954970
2026/04/12 01:00:00,LKBONNY3,10.05,Lake Bonney Wind Power Pty Ltd,Lake Bonney Stage 3 Wind Farm,Wind,39.0,25.77,Lake Bonney Stage 3 Wind Farm,-37.737781,140.388137,2026-04-11T15:00:49.954970
2026/04/12 01:00:00,MACARTH1,143.3,AGL Hydro Partnership,Macarthur Wind Farm,Wind,420.0,34.12,Macarthur Wind Farm,-38.048957,142.192112,2026-04-11T15:00:49.954970
2026/04/12 01:00:00,MCINTYR1,181.72,MacIntyre UJV Operator Pty Ltd,MacIntyre Wind Farm,Wind,890.0,20.42,MacIntyre Wind Farm,-28.32,151.54,2026-04-11T15:00:49.954970
2026/04/12 01:00:00,MERCER01,112.5,Mt Mercer Windfarm Pty Ltd,Mt Mercer Wind Farm,Wind,131.0,85.88,Mt Mercer Wind Farm,-37.841111,143.871111,2026-04-11T15:00:49.954970
2026/04/12 01:00:00,MEWF1,9.67,Ergon Energy Queensland Pty Ltd ,Mount Emerald Wind Farm,Wind,178.0,5.43,Mount Emerald Wind Farm,-17.133007,145.380644,2026-04-11T15:00:49.954970
2026/04/12 01:00:00,MRTLSWF1,112.94,Mortlake South Wind Farm Pty Ltd,Mortlake South Wind Farm,Wind,153.0,73.82,Mortlake South Wind Farm,-38.127337,142.857801,2026-04-11T15:00:49.954970
2026/04/12 01:00:00,MTGELWF1,100.01,Mt. Gellibrand Wind Farm Pty Ltd,Mt Gellibrand Wind Farm,Wind,132.0,75.77,Mt Gellibrand Wind Farm,-38.23,143.77,2026-04-11T15:00:49.954970
2026/04/12 01:00:00,MTMILLAR,22.0,Mt Millar Wind Farm Pty Ltd,Mt Millar Wind Farm,Wind,70.0,31.43,Mt Millar Wind Farm,-33.624444,136.703611,2026-04-11T15:00:49.954970
2026/04/12 01:00:00,MUSSELR1,151.8,Hydro-Electric Corporation,Musselroe Wind Farm,Wind,168.0,90.36,Musselroe Wind Farm,-40.780225,148.010799,2026-04-11T15:00:49.954970
2026/04/12 01:00:00,MUWAWF1,0.0,Telstra Energy (Generation) Pty Ltd,Murra Warra Wind Farm,Wind,225.7,0.0,Murra Warra Wind Farm,-36.432404,142.317853,2026-04-11T15:00:49.954970
2026/04/12 01:00:00,MUWAWF2,90.9,Murra Warra II Project Co Pty Ltd ATF The Murra Warra II Project Trust,Murra Warra Wind Farm Stage 2,Wind,203.0,44.78,Murra Warra Wind Farm Stage 2,-36.43,142.32,2026-04-11T15:00:49.954970
2026/04/12 01:00:00,NBHWF1,65.3,AGL SA Generation Pty Limited,North Brown Hill Wind Farm,Wind,132.0,49.47,North Brown Hill Wind Farm,-33.367778,138.728611,2026-04-11T15:00:49.954970
2026/04/12 01:00:00,OAKLAND1,38.5,AGL Hydro Partnership,Oaklands Hill Wind Farm,Wind,63.0,61.11,Oaklands Hill Wind Farm,-37.683078,142.551678,2026-04-11T15:00:49.954970
2026/04/12 01:00:00,PAREPW1,41.07,Iberdrola Australia Energy Markets Pty Limited,Port Augusta Renewable Energy Park,Wind,201.0,20.43,Port Augusta Renewable Energy Park,-32.566944,137.856111,2026-04-11T15:00:49.954970
2026/04/12 01:00:00,RYANCWF1,150.15,Ryan Corner Development Pty Ltd,Ryan Corner Wind Farm,Wind,205.0,73.24,Ryan Corner Wind Farm,-38.271017,142.140647,2026-04-11T15:00:49.954970
2026/04/12 01:00:00,RYEPARK1,277.33,Rye Park Renewable Energy Pty Ltd as trustee for Rye Park Wind Farm Trust,Rye Park Renewable Energy,Wind,384.0,72.22,Rye Park Renewable Energy,-32.138333,148.972778,2026-04-11T15:00:49.954970
2026/04/12 01:00:00,SALTCRK1,0.0,Salt Creek Wind Farm Pty Ltd,Salt Creek Wind Farm,Wind,54.0,0.0,Salt Creek Wind Farm,-37.95,142.63,2026-04-11T15:00:49.954970
2026/04/12 01:00:00,SAPHWF1,36.86,The Trustee For The SWF1 Operations Trust,Sapphire Wind Farm,Wind,270.0,13.65,Sapphire Wind Farm,-29.7,151.41,2026-04-11T15:00:49.954970
2026/04/12 01:00:00,SNOWNTH1,49.0,Snowtown Wind Farm Stage 2 Pty Ltd,Snowtown Wind Farm Stage 2 North,Wind,144.0,34.03,Snowtown Wind Farm Stage 2 North,-33.83,138.118611,2026-04-11T15:00:49.954970
2026/04/12 01:00:00,SNOWSTH1,78.7,Snowtown Wind Farm Stage 2 Pty Ltd,Snowtown South Wind Farm,Wind,126.0,62.46,Snowtown South Wind Farm,-33.83,138.118611,2026-04-11T15:00:49.954970
2026/04/12 01:00:00,SNOWTWN1,0.0,Snowtown Wind Farm Pty Ltd,Snowtown Wind Farm Units 1 And 47,Wind,99.0,0.0,Snowtown Wind Farm Units 1 And 47,-33.83,138.118611,2026-04-11T15:00:49.954970
2026/04/12 01:00:00,STARHLWF,7.4,Starfish Hill Wind Farm Pty Ltd,Starfish Hill Wind Farm,Wind,35.0,21.14,Starfish Hill Wind Farm,-35.58,138.14,2026-04-11T15:00:49.954970
2026/04/12 01:00:00,STOCKYD1,402.73,Stockyard Hill Wind Farm Pty Ltd,Stockyard Hill Wind Farm,Wind,511.0,78.81,Stockyard Hill Wind Farm,-37.535833,143.251389,2026-04-11T15:00:49.954970
2026/04/12 01:00:00,STWF1,84.79,PARF Company 8 Pty Ltd as The Trustee for Silverton Project Trust,Silverton Wind Farm,Wind,198.0,42.82,Silverton Wind Farm,-37.683168,142.551678,2026-04-11T15:00:49.954970
2026/04/12 01:00:00,TARALGA1,73.46,Taralga Wind Farm Nominees No 2 Pty Ltd (ATF Taralga Wind Farm Operating Trust),Taralga Wind Farm,Wind,106.0,69.3,Taralga Wind Farm,-34.42352,149.826267,2026-04-11T15:00:49.954970
2026/04/12 01:00:00,WAMBOWF1,111.71,Stanwell Corporation Limited,Wambo Wind Farm 1,Wind,245.0,45.6,Wambo Wind Farm 1,-35.187301,149.524945,2026-04-11T15:00:49.954970
2026/04/12 01:00:00,WATERLWF,97.6,Waterloo Wind Farm Pty Ltd,Waterloo Wind Farm,Wind,130.0,75.08,Waterloo Wind Farm,-34.00094,138.911567,2026-04-11T15:00:49.954970
2026/04/12 01:00:00,WGWF1,76.7,Willogoleche Power Pty Ltd As The Trustee For The Willogoleche Operating Trust,Willogoleche Wind Farm,Wind,119.0,64.45,Willogoleche Wind Farm,-33.39,138.85,2026-04-11T15:00:49.954970
2026/04/12 01:00:00,WOODLWN1,44.89,Woodlawn Wind Pty Ltd,Woodlawn Wind Farm,Wind,48.0,93.52,Woodlawn Wind Farm,-35.08,149.62,2026-04-11T15:00:49.954970
2026/04/12 01:00:00,WPWF,56.21,AGL SA Generation Pty Limited,Wattle Point Wind Farm,Wind,91.0,61.77,Wattle Point Wind Farm,-35.111624,137.7219,2026-04-11T15:00:49.954970
2026/04/12 01:00:00,WRWF1,22.45,White Rock Wind Farm Pty Ltd,White Rock Wind Farm,Wind,172.0,13.05,White Rock Wind Farm,-29.79,151.54,2026-04-11T15:00:49.954970
2026/04/12 01:00:00,YENDWF1,86.75,Lal Lal Wind Farms Nom Co Pty Ltd,Yendon Wind Farm,Wind,142.0,61.09,Yendon Wind Farm,-37.629987,144.022717,2026-04-11T15:00:49.954970
