SETTLEMENTDATE,DUID,SCADAVALUE,Participant,Station Name,Fuel Source - Primary,MAX_CAP,utilisation_pct,Plant,Latitude,Longitude,timestamp_utc
2026/02/23 02:45:00,CAPTL_WF,9.05,Iberdrola Australia Holdings Pty Limited,Capital Wind Farm,Wind,140.0,6.46,Capital Wind Farm,-35.1,149.31,2026-02-22T16:42:20.206858
2026/02/23 02:45:00,CHALLHWF,9.6,Pacific Hydro Challicum Hills Pty Ltd,Challicum Hills Wind Farm,Wind,52.0,18.46,Challicum Hills Wind Farm,-37.38,143.11,2026-02-22T16:42:20.206858
2026/02/23 02:45:00,CULLRGWF,3.86,Cullerin Range Wind Farm Pty Ltd,Cullerin Range Wind Farm,Wind,30.0,12.87,Cullerin Range Wind Farm,-34.81,149.4,2026-02-22T16:42:20.206858
2026/02/23 02:45:00,DIAPURWF1,8.3,Y.E.S. Energy (SA) Pty Ltd,Diapur Wind Farm,Wind,7.0,118.57,Diapur Wind Farm,-36.3425,141.43,2026-02-22T16:42:20.206858
2026/02/23 02:45:00,MLWF1,0.04,Mortons Lane Windfarm Pty Limited,Mortons Lane Wind Farm,Wind,20.0,0.2,Mortons Lane Wind Farm,-37.84,142.45,2026-02-22T16:42:20.206858
2026/02/23 02:45:00,WAUBRAWF,61.4,Pyrenees Wind Energy Developments Pty Ltd,Waubra Wind Farm,Wind,192.0,31.98,Waubra Wind Farm,-37.394498,143.638982,2026-02-22T16:42:20.206858
2026/02/23 02:45:00,WOOLNTH1,88.78,Hydro-Electric Corporation,Woolnorth Studland Bay / Bluff Point Wind Farm,Wind,140.0,63.41,Woolnorth Studland Bay / Bluff Point Wind Farm,-40.69,144.72,2026-02-22T16:42:20.206858
2026/02/23 02:45:00,YAMBUKWF,1.7,Energy Pacific (Vic) Pty Ltd,Yambuk Wind Farm,Wind,30.0,5.67,Yambuk Wind Farm,-38.299083,142.027577,2026-02-22T16:42:20.206858
2026/02/23 02:45:00,YSWF1,3.8,Pacific Hydro Yaloak South Pty Ltd,Yaloak South Wind Farm,Wind,28.0,13.57,Yaloak South Wind Farm,-37.7163,144.242853,2026-02-22T16:42:20.206858
2026/02/23 02:45:00,ARWF1,46.9,Ararat Wind Farm Pty Ltd,Ararat Wind Farm,Wind,241.0,19.46,Ararat Wind Farm,-37.232778,143.031389,2026-02-22T16:42:20.206858
2026/02/23 02:45:00,BALDHWF1,18.43,Alinta Energy Retail Sales Pty Ltd,Bald Hills Wind Farm,Wind,106.0,17.39,Bald Hills Wind Farm,-38.79,145.93,2026-02-22T16:42:20.206858
2026/02/23 02:45:00,BANGOWF1,18.3,BWF Nominees Pty Ltd as The Trustee for BWF Trust,Bango 973 Wind Farm,Wind,155.0,11.81,Bango 973 Wind Farm,-34.551582,148.732808,2026-02-22T16:42:20.206858
2026/02/23 02:45:00,BANGOWF2,3.9,BWF Nominees Pty Ltd as The Trustee for BWF Trust,Bango 999 Wind Farm,Wind,82.0,4.76,Bango 999 Wind Farm,-34.551582,148.732808,2026-02-22T16:42:20.206858
2026/02/23 02:45:00,BLUFF1,7.8,AGL SA Generation Pty Limited,The Bluff Wind Farm,Wind,53.0,14.72,The Bluff Wind Farm,-33.367778,138.728611,2026-02-22T16:42:20.206858
2026/02/23 02:45:00,BOCORWF1,19.09,Boco Rock Wind Farm Pty Ltd,Boco Rock Wind Farm,Wind,111.0,17.2,Boco Rock Wind Farm,-36.578611,149.103333,2026-02-22T16:42:20.206858
2026/02/23 02:45:00,BRYB1WF1,0.0,Berrybank Development Pty Ltd,Berrybank Wind Farm,Wind,175.9,0.0,Berrybank Wind Farm,-37.94,143.52,2026-02-22T16:42:20.206858
2026/02/23 02:45:00,BRYB2WF2,0.0,Berrybank 2 Asset Pty Ltd as trustee for Berrybank 2 Asset Trust,Berrybank 2 Wind Farm,Wind,105.0,0.0,Berrybank 2 Wind Farm,-37.94,143.52,2026-02-22T16:42:20.206858
2026/02/23 02:45:00,BULGANA1,62.08,Bulgana Wind Farm Pty Ltd,Bulgana Green Power Hub,Wind,204.0,30.43,Bulgana Green Power Hub,-37.0975,142.973611,2026-02-22T16:42:20.206858
2026/02/23 02:45:00,CATHROCK,8.8,Cathedral Rocks Wind Farm Pty Ltd,Cathedral Rocks,Wind,66.0,13.33,Cathedral Rocks,-34.51,135.35,2026-02-22T16:42:20.206858
2026/02/23 02:45:00,CHYTWF1,52.95,Cherry Tree Wind Farm Pty Ltd as trustee for The Cherry Tree Project trust ,Cherry Tree Wind Farm,Wind,57.0,92.89,Cherry Tree Wind Farm,-37.1,145.26,2026-02-22T16:42:20.206858
2026/02/23 02:45:00,CLEMGPWF,52.95,Pacific Hydro Clements Gap Pty Ltd,Clements Gap Wind Farm,Wind,57.0,92.89,Clements Gap Wind Farm,-33.48,138.1,2026-02-22T16:42:20.206858
2026/02/23 02:45:00,CLRKCWF1,211.8,Stanwell Corporation Limited ,Clarke Creek Wind Farm,Wind,338.0,62.66,Clarke Creek Wind Farm,-22.85,149.45,2026-02-22T16:42:20.206858
2026/02/23 02:45:00,CLRKCWF2,58.4,Stanwell Corporation Limited ,Clarke Creek Wind Farm,Wind,101.0,57.82,Clarke Creek Wind Farm,-22.85,149.45,2026-02-22T16:42:20.206858
2026/02/23 02:45:00,CNUNDAWF,2.4,Canunda Power Pty Ltd,Canunda Wind Farm,Wind,46.0,5.22,Canunda Wind Farm,-37.73,140.39,2026-02-22T16:42:20.206858
2026/02/23 02:45:00,COLWF01,16.15,Collector Wind Farm Pty Ltd,Collector Wind Farm 1,Wind,219.0,7.37,Collector Wind Farm 1,-34.8719,149.3967,2026-02-22T16:42:20.206858
2026/02/23 02:45:00,COOPGWF1,335.85,PARF Company 10 Pty Limited as The Trustee for Coopers Gap Project Trust,Coopers Gap Wind Farm,Wind,440.0,76.33,Coopers Gap Wind Farm,-26.74,151.45,2026-02-22T16:42:20.206858
2026/02/23 02:45:00,CROOKWF2,0.27,Crookwell Development Pty Ltd ,Crookwell 2 Wind Farm,Wind,91.0,0.3,Crookwell 2 Wind Farm,-34.52,149.54,2026-02-22T16:42:20.206858
2026/02/23 02:45:00,CROOKWF3,0.0,Crookwell 3 Development Pty Ltd,Crookwell 3 Wind Farm,Wind,56.0,0.0,Crookwell 3 Wind Farm,-34.52,149.54,2026-02-22T16:42:20.206858
2026/02/23 02:45:00,CROWLWF1,32.0,Pacific Hydro Crowlands Pty Ltd ,Crowlands Wind Farm,Wind,79.0,40.51,Crowlands Wind Farm,-37.13,143.16,2026-02-22T16:42:20.206858
2026/02/23 02:45:00,CRURWF1,54.5,CRWF Nominees Pty Ltd As Trustee For The CRWF Trust,Crudine Ridge Wind Farm,Wind,138.0,39.49,Crudine Ridge Wind Farm,-32.97,149.64,2026-02-22T16:42:20.206858
2026/02/23 02:45:00,CTHLWF1,126.37,Wild Cattle Hill Pty Ltd,Cattle Hill Wind Farm,Wind,144.0,87.76,Cattle Hill Wind Farm,-42.15,146.69,2026-02-22T16:42:20.206858
2026/02/23 02:45:00,DULAWF1,62.4,Dulacca Energy Project Co Pty Ltd,Dulacca Wind Farm,Wind,173.0,36.07,Dulacca Wind Farm,-26.63,149.87,2026-02-22T16:42:20.206858
2026/02/23 02:45:00,DUNDWF1,0.0,Dundonnell Wind Farm Pty Ltd,Dundonnell Wind Farm,Wind,168.0,0.0,Dundonnell Wind Farm,-37.52,142.58,2026-02-22T16:42:20.206858
2026/02/23 02:45:00,DUNDWF2,0.0,Dundonnell Wind Farm Pty Ltd,Dundonnell Wind Farm,Wind,46.0,0.0,Dundonnell Wind Farm,-37.52,142.58,2026-02-22T16:42:20.206858
2026/02/23 02:45:00,DUNDWF3,0.0,Dundonnell Wind Farm Pty Ltd,Dundonnell Wind Farm,Wind,122.0,0.0,Dundonnell Wind Farm,-37.52,142.58,2026-02-22T16:42:20.206858
2026/02/23 02:45:00,ELAINWF1,5.68,Lal Lal Wind Farms Nom Co Pty Ltd,Elaine Wind Farm,Wind,82.0,6.93,Elaine Wind Farm,-37.36,144.0,2026-02-22T16:42:20.206858
2026/02/23 02:45:00,FLYCRKWF,30.12,Iberdrola Australia Energy Markets Pty Limited,Flyers Creek Wind Farm,Wind,140.0,21.51,Flyers Creek Wind Farm,-33.365556,148.981944,2026-02-22T16:42:20.206858
2026/02/23 02:45:00,GPWFEST1,0.0,Golden Plains WF1 Pty Ltd as Trustee for the Golden Plains WF1 Unit Trust,Golden Plains Wind Farm East,Wind,240.0,0.0,Golden Plains Wind Farm East,-37.945091,143.752614,2026-02-22T16:42:20.206858
2026/02/23 02:45:00,GPWFEST2,0.0,Golden Plains WF1 Pty Ltd as Trustee for the Golden Plains WF1 Unit Trust,Golden Plains Wind Farm East,Wind,253.0,0.0,Golden Plains Wind Farm East,-37.945091,143.752614,2026-02-22T16:42:20.206858
2026/02/23 02:45:00,GPWFEST3,0.0,Golden Plains WF1 Pty Ltd as Trustee for the Golden Plains WF1 Unit Trust,Golden Plains Wind Farm East,Wind,240.0,0.0,Golden Plains Wind Farm East,-37.945091,143.752614,2026-02-22T16:42:20.206858
2026/02/23 02:45:00,GRANWF1,55.37,Granville Harbour Operations Pty Ltd as The Trustee for Granville Harbour Operations Trust,Granville Harbour Wind Farm,Wind,111.0,49.88,Granville Harbour Wind Farm,-41.8,145.06,2026-02-22T16:42:20.206858
2026/02/23 02:45:00,GSWF1A,168.04,Goyder Wind Farm 1 Pty Ltd as the Trustee for Goyder Wind Farm 1 Trust,Goyder South Wind Farm 1A,Wind,201.0,83.6,Goyder South Wind Farm 1A,-33.679758,138.937597,2026-02-22T16:42:20.206858
2026/02/23 02:45:00,GSWF1B1,115.88,Goyder Wind Farm 1B Pty Ltd as the Trustee for the Goyder Wind Farm 1B Trust,Goyder South Wind Farm 1B,Wind,196.0,59.12,Goyder South Wind Farm 1B,-33.679758,138.937597,2026-02-22T16:42:20.206858
2026/02/23 02:45:00,GULLRWF1,16.91,New Gullen Range Wind Farm Pty Ltd,Gullen Range Wind Farm,Wind,161.0,10.5,Gullen Range Wind Farm,-34.34,149.27,2026-02-22T16:42:20.206858
2026/02/23 02:45:00,GULLRWF2,29.51,New Gullen Range Wind Farm Pty Ltd,Gullen Range Wind Farm,Wind,107.0,27.58,Gullen Range Wind Farm,-34.34,149.27,2026-02-22T16:42:20.206858
2026/02/23 02:45:00,GUNNING1,0.79,Gunning Wind Energy Developments Pty Ltd,Gunning Wind Farm,Wind,47.0,1.68,Gunning Wind Farm,-34.813333,149.4,2026-02-22T16:42:20.206858
2026/02/23 02:45:00,HALLWF1,51.43,AGL SA Generation Pty Limited,Hallett 1 Wind Farm,Wind,95.0,54.14,Hallett 1 Wind Farm,-33.367778,138.728611,2026-02-22T16:42:20.206858
2026/02/23 02:45:00,HALLWF2,53.79,AGL SA Generation Pty Limited,Hallett 2 Wind Farm,Wind,71.0,75.76,Hallett 2 Wind Farm,-33.367778,138.728611,2026-02-22T16:42:20.206858
2026/02/23 02:45:00,HD1WF1,3.09,Hawkesdale Asset Pty Ltd as trustee for Hawkesdale Asset Trust,Hawkesdale Wind Farm,Wind,89.0,3.47,Hawkesdale Wind Farm,-38.147894,142.361381,2026-02-22T16:42:20.206858
2026/02/23 02:45:00,HDWF1,83.0,HWF1 Pty Ltd,Hornsdale Wind Farm,Wind,102.0,81.37,Hornsdale Wind Farm,-33.050556,138.543611,2026-02-22T16:42:20.206858
2026/02/23 02:45:00,HDWF2,85.0,HWF 2 Pty Ltd,Hornsdale Wind Farm 2,Wind,102.0,83.33,Hornsdale Wind Farm 2,-33.06,138.54,2026-02-22T16:42:20.206858
2026/02/23 02:45:00,HDWF3,70.5,HWF3 Pty Ltd,Hornsdale Wind Farm 3,Wind,109.0,64.68,Hornsdale Wind Farm 3,-33.06,138.54,2026-02-22T16:42:20.206858
2026/02/23 02:45:00,KABANWF1,6.09,Kaban Wind Farm Pty Ltd as trustee for Kaban Wind Farm Trust,Kaban Wind Farm,Wind,152.0,4.01,Kaban Wind Farm,-17.56,145.41,2026-02-22T16:42:20.206858
2026/02/23 02:45:00,KEPWF1,31.1,Kennedy Energy Park Pty Ltd,Kennedy Energy Park,Wind,43.0,72.33,Kennedy Energy Park,-20.88,144.42,2026-02-22T16:42:20.206858
2026/02/23 02:45:00,KIATAWF1,28.6,Kiata ProjectCo Pty Ltd Atf Kiata Project Trust,Kiata Wind Farm,Wind,31.0,92.26,Kiata Wind Farm,-36.4,141.75,2026-02-22T16:42:20.206858
2026/02/23 02:45:00,LGAPWF1,15.53,Lincoln Gap Wind Farm (Operations) Pty Ltd,Lincoln Gap Wind Farm,Wind,123.0,12.63,Lincoln Gap Wind Farm,-32.564279,137.557328,2026-02-22T16:42:20.206858
2026/02/23 02:45:00,LGAPWF1,15.53,Lincoln Gap Wind Farm (Operations) Pty Ltd,Lincoln Gap Wind Farm,Wind,123.0,12.63,Lincoln Gap Wind Farm,-32.564279,137.557328,2026-02-22T16:42:20.206858
2026/02/23 02:45:00,LGAPWF2,75.72,Lincoln Gap Wind Farm (Operations) Pty Ltd,Lincoln Gap Wind Farm,Wind,85.0,89.08,Lincoln Gap Wind Farm,-32.564279,137.557328,2026-02-22T16:42:20.206858
2026/02/23 02:45:00,LGAPWF2,75.72,Lincoln Gap Wind Farm (Operations) Pty Ltd,Lincoln Gap Wind Farm,Wind,85.0,89.08,Lincoln Gap Wind Farm,-32.564279,137.557328,2026-02-22T16:42:20.206858
2026/02/23 02:45:00,LKBONNY1,0.45,Lake Bonney Wind Power Pty Ltd,Lake Bonney Wind Farm Stage 1,Wind,81.0,0.56,Lake Bonney Wind Farm Stage 1,-37.76,140.4,2026-02-22T16:42:20.206858
2026/02/23 02:45:00,LKBONNY2,11.89,Lake Bonney Wind Power Pty Ltd,Lake Bonney Stage 2 Windfarm,Wind,159.0,7.48,Lake Bonney Stage 2 Windfarm,-37.76,140.4,2026-02-22T16:42:20.206858
2026/02/23 02:45:00,LKBONNY3,5.25,Lake Bonney Wind Power Pty Ltd,Lake Bonney Stage 3 Wind Farm,Wind,39.0,13.46,Lake Bonney Stage 3 Wind Farm,-37.737781,140.388137,2026-02-22T16:42:20.206858
2026/02/23 02:45:00,MACARTH1,2.3,AGL Hydro Partnership,Macarthur Wind Farm,Wind,420.0,0.55,Macarthur Wind Farm,-38.048957,142.192112,2026-02-22T16:42:20.206858
2026/02/23 02:45:00,MCINTYR1,187.42,MacIntyre UJV Operator Pty Ltd,MacIntyre Wind Farm,Wind,890.0,21.06,MacIntyre Wind Farm,-28.32,151.54,2026-02-22T16:42:20.206858
2026/02/23 02:45:00,MERCER01,0.6,Mt Mercer Windfarm Pty Ltd,Mt Mercer Wind Farm,Wind,131.0,0.46,Mt Mercer Wind Farm,-37.841111,143.871111,2026-02-22T16:42:20.206858
2026/02/23 02:45:00,MEWF1,30.48,Ergon Energy Queensland Pty Ltd ,Mount Emerald Wind Farm,Wind,178.0,17.12,Mount Emerald Wind Farm,-17.133007,145.380644,2026-02-22T16:42:20.206858
2026/02/23 02:45:00,MRTLSWF1,0.0,Mortlake South Wind Farm Pty Ltd,Mortlake South Wind Farm,Wind,153.0,0.0,Mortlake South Wind Farm,-38.127337,142.857801,2026-02-22T16:42:20.206858
2026/02/23 02:45:00,MTGELWF1,0.0,Mt. Gellibrand Wind Farm Pty Ltd,Mt Gellibrand Wind Farm,Wind,132.0,0.0,Mt Gellibrand Wind Farm,-38.23,143.77,2026-02-22T16:42:20.206858
2026/02/23 02:45:00,MTMILLAR,51.3,Mt Millar Wind Farm Pty Ltd,Mt Millar Wind Farm,Wind,70.0,73.29,Mt Millar Wind Farm,-33.624444,136.703611,2026-02-22T16:42:20.206858
2026/02/23 02:45:00,MUSSELR1,77.7,Hydro-Electric Corporation,Musselroe Wind Farm,Wind,168.0,46.25,Musselroe Wind Farm,-40.780225,148.010799,2026-02-22T16:42:20.206858
2026/02/23 02:45:00,MUWAWF1,97.08,Telstra Energy (Generation) Pty Ltd,Murra Warra Wind Farm,Wind,225.7,43.01,Murra Warra Wind Farm,-36.432404,142.317853,2026-02-22T16:42:20.206858
2026/02/23 02:45:00,MUWAWF2,96.9,Murra Warra II Project Co Pty Ltd ATF The Murra Warra II Project Trust,Murra Warra Wind Farm Stage 2,Wind,203.0,47.73,Murra Warra Wind Farm Stage 2,-36.43,142.32,2026-02-22T16:42:20.206858
2026/02/23 02:45:00,NBHWF1,90.4,AGL SA Generation Pty Limited,North Brown Hill Wind Farm,Wind,132.0,68.48,North Brown Hill Wind Farm,-33.367778,138.728611,2026-02-22T16:42:20.206858
2026/02/23 02:45:00,OAKLAND1,0.0,AGL Hydro Partnership,Oaklands Hill Wind Farm,Wind,63.0,0.0,Oaklands Hill Wind Farm,-37.683078,142.551678,2026-02-22T16:42:20.206858
2026/02/23 02:45:00,PAREPW1,110.61,Iberdrola Australia Energy Markets Pty Limited,Port Augusta Renewable Energy Park,Wind,201.0,55.03,Port Augusta Renewable Energy Park,-32.566944,137.856111,2026-02-22T16:42:20.206858
2026/02/23 02:45:00,RYANCWF1,7.42,Ryan Corner Development Pty Ltd,Ryan Corner Wind Farm,Wind,205.0,3.62,Ryan Corner Wind Farm,-38.271017,142.140647,2026-02-22T16:42:20.206858
2026/02/23 02:45:00,RYEPARK1,30.06,Rye Park Renewable Energy Pty Ltd as trustee for Rye Park Wind Farm Trust,Rye Park Renewable Energy,Wind,384.0,7.83,Rye Park Renewable Energy,-32.138333,148.972778,2026-02-22T16:42:20.206858
2026/02/23 02:45:00,SALTCRK1,0.0,Salt Creek Wind Farm Pty Ltd,Salt Creek Wind Farm,Wind,54.0,0.0,Salt Creek Wind Farm,-37.95,142.63,2026-02-22T16:42:20.206858
2026/02/23 02:45:00,SAPHWF1,207.45,The Trustee For The SWF1 Operations Trust,Sapphire Wind Farm,Wind,270.0,76.83,Sapphire Wind Farm,-29.7,151.41,2026-02-22T16:42:20.206858
2026/02/23 02:45:00,SNOWNTH1,121.9,Snowtown Wind Farm Stage 2 Pty Ltd,Snowtown Wind Farm Stage 2 North,Wind,144.0,84.65,Snowtown Wind Farm Stage 2 North,-33.83,138.118611,2026-02-22T16:42:20.206858
2026/02/23 02:45:00,SNOWSTH1,112.9,Snowtown Wind Farm Stage 2 Pty Ltd,Snowtown South Wind Farm,Wind,126.0,89.6,Snowtown South Wind Farm,-33.83,138.118611,2026-02-22T16:42:20.206858
2026/02/23 02:45:00,SNOWTWN1,85.09,Snowtown Wind Farm Pty Ltd,Snowtown Wind Farm Units 1 And 47,Wind,99.0,85.95,Snowtown Wind Farm Units 1 And 47,-33.83,138.118611,2026-02-22T16:42:20.206858
2026/02/23 02:45:00,STARHLWF,8.4,Starfish Hill Wind Farm Pty Ltd,Starfish Hill Wind Farm,Wind,35.0,24.0,Starfish Hill Wind Farm,-35.58,138.14,2026-02-22T16:42:20.206858
2026/02/23 02:45:00,STOCKYD1,74.34,Stockyard Hill Wind Farm Pty Ltd,Stockyard Hill Wind Farm,Wind,511.0,14.55,Stockyard Hill Wind Farm,-37.535833,143.251389,2026-02-22T16:42:20.206858
2026/02/23 02:45:00,STWF1,75.2,PARF Company 8 Pty Ltd as The Trustee for Silverton Project Trust,Silverton Wind Farm,Wind,198.0,37.98,Silverton Wind Farm,-37.683168,142.551678,2026-02-22T16:42:20.206858
2026/02/23 02:45:00,TARALGA1,0.76,Taralga Wind Farm Nominees No 2 Pty Ltd (ATF Taralga Wind Farm Operating Trust),Taralga Wind Farm,Wind,106.0,0.72,Taralga Wind Farm,-34.42352,149.826267,2026-02-22T16:42:20.206858
2026/02/23 02:45:00,WAMBOWF1,193.59,Stanwell Corporation Limited,Wambo Wind Farm 1,Wind,245.0,79.02,Wambo Wind Farm 1,-35.187301,149.524945,2026-02-22T16:42:20.206858
2026/02/23 02:45:00,WATERLWF,95.4,Waterloo Wind Farm Pty Ltd,Waterloo Wind Farm,Wind,130.0,73.38,Waterloo Wind Farm,-34.00094,138.911567,2026-02-22T16:42:20.206858
2026/02/23 02:45:00,WGWF1,113.4,Willogoleche Power Pty Ltd As The Trustee For The Willogoleche Operating Trust,Willogoleche Wind Farm,Wind,119.0,95.29,Willogoleche Wind Farm,-33.39,138.85,2026-02-22T16:42:20.206858
2026/02/23 02:45:00,WOODLWN1,4.46,Woodlawn Wind Pty Ltd,Woodlawn Wind Farm,Wind,48.0,9.29,Woodlawn Wind Farm,-35.08,149.62,2026-02-22T16:42:20.206858
2026/02/23 02:45:00,WPWF,54.46,AGL SA Generation Pty Limited,Wattle Point Wind Farm,Wind,91.0,59.85,Wattle Point Wind Farm,-35.111624,137.7219,2026-02-22T16:42:20.206858
2026/02/23 02:45:00,WRWF1,124.1,White Rock Wind Farm Pty Ltd,White Rock Wind Farm,Wind,172.0,72.15,White Rock Wind Farm,-29.79,151.54,2026-02-22T16:42:20.206858
2026/02/23 02:45:00,YENDWF1,14.87,Lal Lal Wind Farms Nom Co Pty Ltd,Yendon Wind Farm,Wind,142.0,10.47,Yendon Wind Farm,-37.629987,144.022717,2026-02-22T16:42:20.206858
