SETTLEMENTDATE,DUID,SCADAVALUE,Participant,Station Name,Fuel Source - Primary,MAX_CAP,utilisation_pct,Plant,Latitude,Longitude,timestamp_utc
2026/02/16 05:25:00,CAPTL_WF,0.0,Iberdrola Australia Holdings Pty Limited,Capital Wind Farm,Wind,140.0,0.0,Capital Wind Farm,-35.1,149.31,2026-02-15T19:22:14.087354
2026/02/16 05:25:00,CHALLHWF,14.7,Pacific Hydro Challicum Hills Pty Ltd,Challicum Hills Wind Farm,Wind,52.0,28.27,Challicum Hills Wind Farm,-37.38,143.11,2026-02-15T19:22:14.087354
2026/02/16 05:25:00,CULLRGWF,12.52,Cullerin Range Wind Farm Pty Ltd,Cullerin Range Wind Farm,Wind,30.0,41.73,Cullerin Range Wind Farm,-34.81,149.4,2026-02-15T19:22:14.087354
2026/02/16 05:25:00,DIAPURWF1,8.1,Y.E.S. Energy (SA) Pty Ltd,Diapur Wind Farm,Wind,7.0,115.71,Diapur Wind Farm,-36.3425,141.43,2026-02-15T19:22:14.087354
2026/02/16 05:25:00,MLWF1,8.37,Mortons Lane Windfarm Pty Limited,Mortons Lane Wind Farm,Wind,20.0,41.85,Mortons Lane Wind Farm,-37.84,142.45,2026-02-15T19:22:14.087354
2026/02/16 05:25:00,WAUBRAWF,115.34,Pyrenees Wind Energy Developments Pty Ltd,Waubra Wind Farm,Wind,192.0,60.07,Waubra Wind Farm,-37.394498,143.638982,2026-02-15T19:22:14.087354
2026/02/16 05:25:00,WOOLNTH1,94.04,Hydro-Electric Corporation,Woolnorth Studland Bay / Bluff Point Wind Farm,Wind,140.0,67.17,Woolnorth Studland Bay / Bluff Point Wind Farm,-40.69,144.72,2026-02-15T19:22:14.087354
2026/02/16 05:25:00,YAMBUKWF,9.8,Energy Pacific (Vic) Pty Ltd,Yambuk Wind Farm,Wind,30.0,32.67,Yambuk Wind Farm,-38.299083,142.027577,2026-02-15T19:22:14.087354
2026/02/16 05:25:00,YSWF1,3.9,Pacific Hydro Yaloak South Pty Ltd,Yaloak South Wind Farm,Wind,28.0,13.93,Yaloak South Wind Farm,-37.7163,144.242853,2026-02-15T19:22:14.087354
2026/02/16 05:25:00,ARWF1,59.5,Ararat Wind Farm Pty Ltd,Ararat Wind Farm,Wind,241.0,24.69,Ararat Wind Farm,-37.232778,143.031389,2026-02-15T19:22:14.087354
2026/02/16 05:25:00,BALDHWF1,95.89,Alinta Energy Retail Sales Pty Ltd,Bald Hills Wind Farm,Wind,106.0,90.46,Bald Hills Wind Farm,-38.79,145.93,2026-02-15T19:22:14.087354
2026/02/16 05:25:00,BANGOWF1,55.5,BWF Nominees Pty Ltd as The Trustee for BWF Trust,Bango 973 Wind Farm,Wind,155.0,35.81,Bango 973 Wind Farm,-34.551582,148.732808,2026-02-15T19:22:14.087354
2026/02/16 05:25:00,BANGOWF2,47.4,BWF Nominees Pty Ltd as The Trustee for BWF Trust,Bango 999 Wind Farm,Wind,82.0,57.8,Bango 999 Wind Farm,-34.551582,148.732808,2026-02-15T19:22:14.087354
2026/02/16 05:25:00,BLUFF1,32.4,AGL SA Generation Pty Limited,The Bluff Wind Farm,Wind,53.0,61.13,The Bluff Wind Farm,-33.367778,138.728611,2026-02-15T19:22:14.087354
2026/02/16 05:25:00,BOCORWF1,33.59,Boco Rock Wind Farm Pty Ltd,Boco Rock Wind Farm,Wind,111.0,30.26,Boco Rock Wind Farm,-36.578611,149.103333,2026-02-15T19:22:14.087354
2026/02/16 05:25:00,BRYB1WF1,7.02,Berrybank Development Pty Ltd,Berrybank Wind Farm,Wind,175.9,3.99,Berrybank Wind Farm,-37.94,143.52,2026-02-15T19:22:14.087354
2026/02/16 05:25:00,BRYB2WF2,12.45,Berrybank 2 Asset Pty Ltd as trustee for Berrybank 2 Asset Trust,Berrybank 2 Wind Farm,Wind,105.0,11.86,Berrybank 2 Wind Farm,-37.94,143.52,2026-02-15T19:22:14.087354
2026/02/16 05:25:00,BULGANA1,57.36,Bulgana Wind Farm Pty Ltd,Bulgana Green Power Hub,Wind,204.0,28.12,Bulgana Green Power Hub,-37.0975,142.973611,2026-02-15T19:22:14.087354
2026/02/16 05:25:00,CATHROCK,51.3,Cathedral Rocks Wind Farm Pty Ltd,Cathedral Rocks,Wind,66.0,77.73,Cathedral Rocks,-34.51,135.35,2026-02-15T19:22:14.087354
2026/02/16 05:25:00,CHYTWF1,15.22,Cherry Tree Wind Farm Pty Ltd as trustee for The Cherry Tree Project trust ,Cherry Tree Wind Farm,Wind,57.0,26.7,Cherry Tree Wind Farm,-37.1,145.26,2026-02-15T19:22:14.087354
2026/02/16 05:25:00,CLEMGPWF,16.21,Pacific Hydro Clements Gap Pty Ltd,Clements Gap Wind Farm,Wind,57.0,28.44,Clements Gap Wind Farm,-33.48,138.1,2026-02-15T19:22:14.087354
2026/02/16 05:25:00,CLRKCWF1,144.08,Stanwell Corporation Limited ,Clarke Creek Wind Farm,Wind,338.0,42.63,Clarke Creek Wind Farm,-22.85,149.45,2026-02-15T19:22:14.087354
2026/02/16 05:25:00,CLRKCWF2,60.16,Stanwell Corporation Limited ,Clarke Creek Wind Farm,Wind,101.0,59.56,Clarke Creek Wind Farm,-22.85,149.45,2026-02-15T19:22:14.087354
2026/02/16 05:25:00,CNUNDAWF,28.03,Canunda Power Pty Ltd,Canunda Wind Farm,Wind,46.0,60.93,Canunda Wind Farm,-37.73,140.39,2026-02-15T19:22:14.087354
2026/02/16 05:25:00,COLWF01,39.68,Collector Wind Farm Pty Ltd,Collector Wind Farm 1,Wind,219.0,18.12,Collector Wind Farm 1,-34.8719,149.3967,2026-02-15T19:22:14.087354
2026/02/16 05:25:00,COOPGWF1,269.89,PARF Company 10 Pty Limited as The Trustee for Coopers Gap Project Trust,Coopers Gap Wind Farm,Wind,440.0,61.34,Coopers Gap Wind Farm,-26.74,151.45,2026-02-15T19:22:14.087354
2026/02/16 05:25:00,CROOKWF2,15.77,Crookwell Development Pty Ltd ,Crookwell 2 Wind Farm,Wind,91.0,17.33,Crookwell 2 Wind Farm,-34.52,149.54,2026-02-15T19:22:14.087354
2026/02/16 05:25:00,CROOKWF3,8.28,Crookwell 3 Development Pty Ltd,Crookwell 3 Wind Farm,Wind,56.0,14.79,Crookwell 3 Wind Farm,-34.52,149.54,2026-02-15T19:22:14.087354
2026/02/16 05:25:00,CROWLWF1,32.55,Pacific Hydro Crowlands Pty Ltd ,Crowlands Wind Farm,Wind,79.0,41.2,Crowlands Wind Farm,-37.13,143.16,2026-02-15T19:22:14.087354
2026/02/16 05:25:00,CRURWF1,58.3,CRWF Nominees Pty Ltd As Trustee For The CRWF Trust,Crudine Ridge Wind Farm,Wind,138.0,42.25,Crudine Ridge Wind Farm,-32.97,149.64,2026-02-15T19:22:14.087354
2026/02/16 05:25:00,CTHLWF1,6.61,Wild Cattle Hill Pty Ltd,Cattle Hill Wind Farm,Wind,144.0,4.59,Cattle Hill Wind Farm,-42.15,146.69,2026-02-15T19:22:14.087354
2026/02/16 05:25:00,DULAWF1,118.3,Dulacca Energy Project Co Pty Ltd,Dulacca Wind Farm,Wind,173.0,68.38,Dulacca Wind Farm,-26.63,149.87,2026-02-15T19:22:14.087354
2026/02/16 05:25:00,DUNDWF1,120.01,Dundonnell Wind Farm Pty Ltd,Dundonnell Wind Farm,Wind,168.0,71.43,Dundonnell Wind Farm,-37.52,142.58,2026-02-15T19:22:14.087354
2026/02/16 05:25:00,DUNDWF2,23.68,Dundonnell Wind Farm Pty Ltd,Dundonnell Wind Farm,Wind,46.0,51.48,Dundonnell Wind Farm,-37.52,142.58,2026-02-15T19:22:14.087354
2026/02/16 05:25:00,DUNDWF3,46.42,Dundonnell Wind Farm Pty Ltd,Dundonnell Wind Farm,Wind,122.0,38.05,Dundonnell Wind Farm,-37.52,142.58,2026-02-15T19:22:14.087354
2026/02/16 05:25:00,ELAINWF1,39.45,Lal Lal Wind Farms Nom Co Pty Ltd,Elaine Wind Farm,Wind,82.0,48.11,Elaine Wind Farm,-37.36,144.0,2026-02-15T19:22:14.087354
2026/02/16 05:25:00,FLYCRKWF,61.0,Iberdrola Australia Energy Markets Pty Limited,Flyers Creek Wind Farm,Wind,140.0,43.57,Flyers Creek Wind Farm,-33.365556,148.981944,2026-02-15T19:22:14.087354
2026/02/16 05:25:00,GPWFEST1,14.38,Golden Plains WF1 Pty Ltd as Trustee for the Golden Plains WF1 Unit Trust,Golden Plains Wind Farm East,Wind,240.0,5.99,Golden Plains Wind Farm East,-37.945091,143.752614,2026-02-15T19:22:14.087354
2026/02/16 05:25:00,GPWFEST2,7.21,Golden Plains WF1 Pty Ltd as Trustee for the Golden Plains WF1 Unit Trust,Golden Plains Wind Farm East,Wind,253.0,2.85,Golden Plains Wind Farm East,-37.945091,143.752614,2026-02-15T19:22:14.087354
2026/02/16 05:25:00,GPWFEST3,0.0,Golden Plains WF1 Pty Ltd as Trustee for the Golden Plains WF1 Unit Trust,Golden Plains Wind Farm East,Wind,240.0,0.0,Golden Plains Wind Farm East,-37.945091,143.752614,2026-02-15T19:22:14.087354
2026/02/16 05:25:00,GRANWF1,0.0,Granville Harbour Operations Pty Ltd as The Trustee for Granville Harbour Operations Trust,Granville Harbour Wind Farm,Wind,111.0,0.0,Granville Harbour Wind Farm,-41.8,145.06,2026-02-15T19:22:14.087354
2026/02/16 05:25:00,GSWF1A,114.72,Goyder Wind Farm 1 Pty Ltd as the Trustee for Goyder Wind Farm 1 Trust,Goyder South Wind Farm 1A,Wind,201.0,57.07,Goyder South Wind Farm 1A,-33.679758,138.937597,2026-02-15T19:22:14.087354
2026/02/16 05:25:00,GSWF1B1,126.17,Goyder Wind Farm 1B Pty Ltd as the Trustee for the Goyder Wind Farm 1B Trust,Goyder South Wind Farm 1B,Wind,196.0,64.37,Goyder South Wind Farm 1B,-33.679758,138.937597,2026-02-15T19:22:14.087354
2026/02/16 05:25:00,GULLRWF1,39.41,New Gullen Range Wind Farm Pty Ltd,Gullen Range Wind Farm,Wind,161.0,24.48,Gullen Range Wind Farm,-34.34,149.27,2026-02-15T19:22:14.087354
2026/02/16 05:25:00,GULLRWF2,79.64,New Gullen Range Wind Farm Pty Ltd,Gullen Range Wind Farm,Wind,107.0,74.43,Gullen Range Wind Farm,-34.34,149.27,2026-02-15T19:22:14.087354
2026/02/16 05:25:00,GUNNING1,24.66,Gunning Wind Energy Developments Pty Ltd,Gunning Wind Farm,Wind,47.0,52.47,Gunning Wind Farm,-34.813333,149.4,2026-02-15T19:22:14.087354
2026/02/16 05:25:00,HALLWF1,58.54,AGL SA Generation Pty Limited,Hallett 1 Wind Farm,Wind,95.0,61.62,Hallett 1 Wind Farm,-33.367778,138.728611,2026-02-15T19:22:14.087354
2026/02/16 05:25:00,HALLWF2,54.87,AGL SA Generation Pty Limited,Hallett 2 Wind Farm,Wind,71.0,77.28,Hallett 2 Wind Farm,-33.367778,138.728611,2026-02-15T19:22:14.087354
2026/02/16 05:25:00,HD1WF1,67.07,Hawkesdale Asset Pty Ltd as trustee for Hawkesdale Asset Trust,Hawkesdale Wind Farm,Wind,89.0,75.36,Hawkesdale Wind Farm,-38.147894,142.361381,2026-02-15T19:22:14.087354
2026/02/16 05:25:00,HDWF1,62.8,HWF1 Pty Ltd,Hornsdale Wind Farm,Wind,102.0,61.57,Hornsdale Wind Farm,-33.050556,138.543611,2026-02-15T19:22:14.087354
2026/02/16 05:25:00,HDWF2,48.2,HWF 2 Pty Ltd,Hornsdale Wind Farm 2,Wind,102.0,47.25,Hornsdale Wind Farm 2,-33.06,138.54,2026-02-15T19:22:14.087354
2026/02/16 05:25:00,HDWF3,54.4,HWF3 Pty Ltd,Hornsdale Wind Farm 3,Wind,109.0,49.91,Hornsdale Wind Farm 3,-33.06,138.54,2026-02-15T19:22:14.087354
2026/02/16 05:25:00,KABANWF1,0.0,Kaban Wind Farm Pty Ltd as trustee for Kaban Wind Farm Trust,Kaban Wind Farm,Wind,152.0,0.0,Kaban Wind Farm,-17.56,145.41,2026-02-15T19:22:14.087354
2026/02/16 05:25:00,KEPWF1,7.7,Kennedy Energy Park Pty Ltd,Kennedy Energy Park,Wind,43.0,17.91,Kennedy Energy Park,-20.88,144.42,2026-02-15T19:22:14.087354
2026/02/16 05:25:00,KIATAWF1,25.2,Kiata ProjectCo Pty Ltd Atf Kiata Project Trust,Kiata Wind Farm,Wind,31.0,81.29,Kiata Wind Farm,-36.4,141.75,2026-02-15T19:22:14.087354
2026/02/16 05:25:00,LGAPWF1,81.65,Lincoln Gap Wind Farm (Operations) Pty Ltd,Lincoln Gap Wind Farm,Wind,123.0,66.38,Lincoln Gap Wind Farm,-32.564279,137.557328,2026-02-15T19:22:14.087354
2026/02/16 05:25:00,LGAPWF1,81.65,Lincoln Gap Wind Farm (Operations) Pty Ltd,Lincoln Gap Wind Farm,Wind,123.0,66.38,Lincoln Gap Wind Farm,-32.564279,137.557328,2026-02-15T19:22:14.087354
2026/02/16 05:25:00,LGAPWF2,75.77,Lincoln Gap Wind Farm (Operations) Pty Ltd,Lincoln Gap Wind Farm,Wind,85.0,89.14,Lincoln Gap Wind Farm,-32.564279,137.557328,2026-02-15T19:22:14.087354
2026/02/16 05:25:00,LGAPWF2,75.77,Lincoln Gap Wind Farm (Operations) Pty Ltd,Lincoln Gap Wind Farm,Wind,85.0,89.14,Lincoln Gap Wind Farm,-32.564279,137.557328,2026-02-15T19:22:14.087354
2026/02/16 05:25:00,LKBONNY1,49.48,Lake Bonney Wind Power Pty Ltd,Lake Bonney Wind Farm Stage 1,Wind,81.0,61.09,Lake Bonney Wind Farm Stage 1,-37.76,140.4,2026-02-15T19:22:14.087354
2026/02/16 05:25:00,LKBONNY2,92.7,Lake Bonney Wind Power Pty Ltd,Lake Bonney Stage 2 Windfarm,Wind,159.0,58.3,Lake Bonney Stage 2 Windfarm,-37.76,140.4,2026-02-15T19:22:14.087354
2026/02/16 05:25:00,LKBONNY3,15.18,Lake Bonney Wind Power Pty Ltd,Lake Bonney Stage 3 Wind Farm,Wind,39.0,38.92,Lake Bonney Stage 3 Wind Farm,-37.737781,140.388137,2026-02-15T19:22:14.087354
2026/02/16 05:25:00,MACARTH1,91.7,AGL Hydro Partnership,Macarthur Wind Farm,Wind,420.0,21.83,Macarthur Wind Farm,-38.048957,142.192112,2026-02-15T19:22:14.087354
2026/02/16 05:25:00,MCINTYR1,361.14,MacIntyre UJV Operator Pty Ltd,MacIntyre Wind Farm,Wind,890.0,40.58,MacIntyre Wind Farm,-28.32,151.54,2026-02-15T19:22:14.087354
2026/02/16 05:25:00,MERCER01,76.3,Mt Mercer Windfarm Pty Ltd,Mt Mercer Wind Farm,Wind,131.0,58.24,Mt Mercer Wind Farm,-37.841111,143.871111,2026-02-15T19:22:14.087354
2026/02/16 05:25:00,MEWF1,1.0,Ergon Energy Queensland Pty Ltd ,Mount Emerald Wind Farm,Wind,178.0,0.56,Mount Emerald Wind Farm,-17.133007,145.380644,2026-02-15T19:22:14.087354
2026/02/16 05:25:00,MRTLSWF1,62.96,Mortlake South Wind Farm Pty Ltd,Mortlake South Wind Farm,Wind,153.0,41.15,Mortlake South Wind Farm,-38.127337,142.857801,2026-02-15T19:22:14.087354
2026/02/16 05:25:00,MTGELWF1,47.38,Mt. Gellibrand Wind Farm Pty Ltd,Mt Gellibrand Wind Farm,Wind,132.0,35.89,Mt Gellibrand Wind Farm,-38.23,143.77,2026-02-15T19:22:14.087354
2026/02/16 05:25:00,MTMILLAR,53.7,Mt Millar Wind Farm Pty Ltd,Mt Millar Wind Farm,Wind,70.0,76.71,Mt Millar Wind Farm,-33.624444,136.703611,2026-02-15T19:22:14.087354
2026/02/16 05:25:00,MUSSELR1,72.3,Hydro-Electric Corporation,Musselroe Wind Farm,Wind,168.0,43.04,Musselroe Wind Farm,-40.780225,148.010799,2026-02-15T19:22:14.087354
2026/02/16 05:25:00,MUWAWF1,86.06,Telstra Energy (Generation) Pty Ltd,Murra Warra Wind Farm,Wind,225.7,38.13,Murra Warra Wind Farm,-36.432404,142.317853,2026-02-15T19:22:14.087354
2026/02/16 05:25:00,MUWAWF2,69.5,Murra Warra II Project Co Pty Ltd ATF The Murra Warra II Project Trust,Murra Warra Wind Farm Stage 2,Wind,203.0,34.24,Murra Warra Wind Farm Stage 2,-36.43,142.32,2026-02-15T19:22:14.087354
2026/02/16 05:25:00,NBHWF1,96.5,AGL SA Generation Pty Limited,North Brown Hill Wind Farm,Wind,132.0,73.11,North Brown Hill Wind Farm,-33.367778,138.728611,2026-02-15T19:22:14.087354
2026/02/16 05:25:00,OAKLAND1,38.2,AGL Hydro Partnership,Oaklands Hill Wind Farm,Wind,63.0,60.63,Oaklands Hill Wind Farm,-37.683078,142.551678,2026-02-15T19:22:14.087354
2026/02/16 05:25:00,PAREPW1,118.9,Iberdrola Australia Energy Markets Pty Limited,Port Augusta Renewable Energy Park,Wind,201.0,59.15,Port Augusta Renewable Energy Park,-32.566944,137.856111,2026-02-15T19:22:14.087354
2026/02/16 05:25:00,RYANCWF1,113.5,Ryan Corner Development Pty Ltd,Ryan Corner Wind Farm,Wind,205.0,55.37,Ryan Corner Wind Farm,-38.271017,142.140647,2026-02-15T19:22:14.087354
2026/02/16 05:25:00,RYEPARK1,197.76,Rye Park Renewable Energy Pty Ltd as trustee for Rye Park Wind Farm Trust,Rye Park Renewable Energy,Wind,384.0,51.5,Rye Park Renewable Energy,-32.138333,148.972778,2026-02-15T19:22:14.087354
2026/02/16 05:25:00,SALTCRK1,8.29,Salt Creek Wind Farm Pty Ltd,Salt Creek Wind Farm,Wind,54.0,15.35,Salt Creek Wind Farm,-37.95,142.63,2026-02-15T19:22:14.087354
2026/02/16 05:25:00,SAPHWF1,258.79,The Trustee For The SWF1 Operations Trust,Sapphire Wind Farm,Wind,270.0,95.85,Sapphire Wind Farm,-29.7,151.41,2026-02-15T19:22:14.087354
2026/02/16 05:25:00,SNOWNTH1,60.5,Snowtown Wind Farm Stage 2 Pty Ltd,Snowtown Wind Farm Stage 2 North,Wind,144.0,42.01,Snowtown Wind Farm Stage 2 North,-33.83,138.118611,2026-02-15T19:22:14.087354
2026/02/16 05:25:00,SNOWSTH1,35.5,Snowtown Wind Farm Stage 2 Pty Ltd,Snowtown South Wind Farm,Wind,126.0,28.17,Snowtown South Wind Farm,-33.83,138.118611,2026-02-15T19:22:14.087354
2026/02/16 05:25:00,SNOWTWN1,43.74,Snowtown Wind Farm Pty Ltd,Snowtown Wind Farm Units 1 And 47,Wind,99.0,44.18,Snowtown Wind Farm Units 1 And 47,-33.83,138.118611,2026-02-15T19:22:14.087354
2026/02/16 05:25:00,STARHLWF,12.8,Starfish Hill Wind Farm Pty Ltd,Starfish Hill Wind Farm,Wind,35.0,36.57,Starfish Hill Wind Farm,-35.58,138.14,2026-02-15T19:22:14.087354
2026/02/16 05:25:00,STOCKYD1,373.81,Stockyard Hill Wind Farm Pty Ltd,Stockyard Hill Wind Farm,Wind,511.0,73.15,Stockyard Hill Wind Farm,-37.535833,143.251389,2026-02-15T19:22:14.087354
2026/02/16 05:25:00,STWF1,13.08,PARF Company 8 Pty Ltd as The Trustee for Silverton Project Trust,Silverton Wind Farm,Wind,198.0,6.61,Silverton Wind Farm,-37.683168,142.551678,2026-02-15T19:22:14.087354
2026/02/16 05:25:00,TARALGA1,10.48,Taralga Wind Farm Nominees No 2 Pty Ltd (ATF Taralga Wind Farm Operating Trust),Taralga Wind Farm,Wind,106.0,9.89,Taralga Wind Farm,-34.42352,149.826267,2026-02-15T19:22:14.087354
2026/02/16 05:25:00,WAMBOWF1,126.71,Stanwell Corporation Limited,Wambo Wind Farm 1,Wind,245.0,51.72,Wambo Wind Farm 1,-35.187301,149.524945,2026-02-15T19:22:14.087354
2026/02/16 05:25:00,WATERLWF,59.6,Waterloo Wind Farm Pty Ltd,Waterloo Wind Farm,Wind,130.0,45.85,Waterloo Wind Farm,-34.00094,138.911567,2026-02-15T19:22:14.087354
2026/02/16 05:25:00,WGWF1,88.5,Willogoleche Power Pty Ltd As The Trustee For The Willogoleche Operating Trust,Willogoleche Wind Farm,Wind,119.0,74.37,Willogoleche Wind Farm,-33.39,138.85,2026-02-15T19:22:14.087354
2026/02/16 05:25:00,WOODLWN1,2.21,Woodlawn Wind Pty Ltd,Woodlawn Wind Farm,Wind,48.0,4.6,Woodlawn Wind Farm,-35.08,149.62,2026-02-15T19:22:14.087354
2026/02/16 05:25:00,WPWF,36.13,AGL SA Generation Pty Limited,Wattle Point Wind Farm,Wind,91.0,39.7,Wattle Point Wind Farm,-35.111624,137.7219,2026-02-15T19:22:14.087354
2026/02/16 05:25:00,WRWF1,161.22,White Rock Wind Farm Pty Ltd,White Rock Wind Farm,Wind,172.0,93.73,White Rock Wind Farm,-29.79,151.54,2026-02-15T19:22:14.087354
2026/02/16 05:25:00,YENDWF1,106.98,Lal Lal Wind Farms Nom Co Pty Ltd,Yendon Wind Farm,Wind,142.0,75.34,Yendon Wind Farm,-37.629987,144.022717,2026-02-15T19:22:14.087354
