SETTLEMENTDATE,DUID,SCADAVALUE,Participant,Station Name,Fuel Source - Primary,MAX_CAP,utilisation_pct,Plant,Latitude,Longitude,timestamp_utc
2026/04/03 02:40:00,CAPTL_WF,0.0,Iberdrola Australia Holdings Pty Limited,Capital Wind Farm,Wind,140.0,0.0,Capital Wind Farm,-35.1,149.31,2026-04-02T16:41:23.142012
2026/04/03 02:40:00,CHALLHWF,7.3,Pacific Hydro Challicum Hills Pty Ltd,Challicum Hills Wind Farm,Wind,52.0,14.04,Challicum Hills Wind Farm,-37.38,143.11,2026-04-02T16:41:23.142012
2026/04/03 02:40:00,CULLRGWF,-0.03,Cullerin Range Wind Farm Pty Ltd,Cullerin Range Wind Farm,Wind,30.0,-0.1,Cullerin Range Wind Farm,-34.81,149.4,2026-04-02T16:41:23.142012
2026/04/03 02:40:00,DIAPURWF1,7.3,Y.E.S. Energy (SA) Pty Ltd,Diapur Wind Farm,Wind,7.0,104.29,Diapur Wind Farm,-36.3425,141.43,2026-04-02T16:41:23.142012
2026/04/03 02:40:00,MLWF1,2.37,Mortons Lane Windfarm Pty Limited,Mortons Lane Wind Farm,Wind,20.0,11.85,Mortons Lane Wind Farm,-37.84,142.45,2026-04-02T16:41:23.142012
2026/04/03 02:40:00,WAUBRAWF,72.24,Pyrenees Wind Energy Developments Pty Ltd,Waubra Wind Farm,Wind,192.0,37.62,Waubra Wind Farm,-37.394498,143.638982,2026-04-02T16:41:23.142012
2026/04/03 02:40:00,WOOLNTH1,93.56,Hydro-Electric Corporation,Woolnorth Studland Bay / Bluff Point Wind Farm,Wind,140.0,66.83,Woolnorth Studland Bay / Bluff Point Wind Farm,-40.69,144.72,2026-04-02T16:41:23.142012
2026/04/03 02:40:00,YAMBUKWF,12.1,Energy Pacific (Vic) Pty Ltd,Yambuk Wind Farm,Wind,30.0,40.33,Yambuk Wind Farm,-38.299083,142.027577,2026-04-02T16:41:23.142012
2026/04/03 02:40:00,YSWF1,7.5,Pacific Hydro Yaloak South Pty Ltd,Yaloak South Wind Farm,Wind,28.0,26.79,Yaloak South Wind Farm,-37.7163,144.242853,2026-04-02T16:41:23.142012
2026/04/03 02:40:00,ARWF1,69.9,Ararat Wind Farm Pty Ltd,Ararat Wind Farm,Wind,241.0,29.0,Ararat Wind Farm,-37.232778,143.031389,2026-04-02T16:41:23.142012
2026/04/03 02:40:00,BALDHWF1,43.58,Alinta Energy Retail Sales Pty Ltd,Bald Hills Wind Farm,Wind,106.0,41.11,Bald Hills Wind Farm,-38.79,145.93,2026-04-02T16:41:23.142012
2026/04/03 02:40:00,BANGOWF1,36.9,BWF Nominees Pty Ltd as The Trustee for BWF Trust,Bango 973 Wind Farm,Wind,155.0,23.81,Bango 973 Wind Farm,-34.551582,148.732808,2026-04-02T16:41:23.142012
2026/04/03 02:40:00,BANGOWF2,32.1,BWF Nominees Pty Ltd as The Trustee for BWF Trust,Bango 999 Wind Farm,Wind,82.0,39.15,Bango 999 Wind Farm,-34.551582,148.732808,2026-04-02T16:41:23.142012
2026/04/03 02:40:00,BLUFF1,2.9,AGL SA Generation Pty Limited,The Bluff Wind Farm,Wind,53.0,5.47,The Bluff Wind Farm,-33.367778,138.728611,2026-04-02T16:41:23.142012
2026/04/03 02:40:00,BOCORWF1,3.42,Boco Rock Wind Farm Pty Ltd,Boco Rock Wind Farm,Wind,111.0,3.08,Boco Rock Wind Farm,-36.578611,149.103333,2026-04-02T16:41:23.142012
2026/04/03 02:40:00,BRYB1WF1,29.79,Berrybank Development Pty Ltd,Berrybank Wind Farm,Wind,175.9,16.94,Berrybank Wind Farm,-37.94,143.52,2026-04-02T16:41:23.142012
2026/04/03 02:40:00,BRYB2WF2,25.11,Berrybank 2 Asset Pty Ltd as trustee for Berrybank 2 Asset Trust,Berrybank 2 Wind Farm,Wind,105.0,23.91,Berrybank 2 Wind Farm,-37.94,143.52,2026-04-02T16:41:23.142012
2026/04/03 02:40:00,BULGANA1,0.0,Bulgana Wind Farm Pty Ltd,Bulgana Green Power Hub,Wind,204.0,0.0,Bulgana Green Power Hub,-37.0975,142.973611,2026-04-02T16:41:23.142012
2026/04/03 02:40:00,CATHROCK,15.0,Cathedral Rocks Wind Farm Pty Ltd,Cathedral Rocks,Wind,66.0,22.73,Cathedral Rocks,-34.51,135.35,2026-04-02T16:41:23.142012
2026/04/03 02:40:00,CHYTWF1,34.94,Cherry Tree Wind Farm Pty Ltd as trustee for The Cherry Tree Project trust ,Cherry Tree Wind Farm,Wind,57.0,61.3,Cherry Tree Wind Farm,-37.1,145.26,2026-04-02T16:41:23.142012
2026/04/03 02:40:00,CLEMGPWF,55.39,Pacific Hydro Clements Gap Pty Ltd,Clements Gap Wind Farm,Wind,57.0,97.18,Clements Gap Wind Farm,-33.48,138.1,2026-04-02T16:41:23.142012
2026/04/03 02:40:00,CLRKCWF1,281.04,Stanwell Corporation Limited ,Clarke Creek Wind Farm,Wind,338.0,83.15,Clarke Creek Wind Farm,-22.85,149.45,2026-04-02T16:41:23.142012
2026/04/03 02:40:00,CLRKCWF2,82.91,Stanwell Corporation Limited ,Clarke Creek Wind Farm,Wind,101.0,82.09,Clarke Creek Wind Farm,-22.85,149.45,2026-04-02T16:41:23.142012
2026/04/03 02:40:00,CNUNDAWF,9.11,Canunda Power Pty Ltd,Canunda Wind Farm,Wind,46.0,19.8,Canunda Wind Farm,-37.73,140.39,2026-04-02T16:41:23.142012
2026/04/03 02:40:00,COLWF01,2.41,Collector Wind Farm Pty Ltd,Collector Wind Farm 1,Wind,219.0,1.1,Collector Wind Farm 1,-34.8719,149.3967,2026-04-02T16:41:23.142012
2026/04/03 02:40:00,COOPGWF1,188.12,PARF Company 10 Pty Limited as The Trustee for Coopers Gap Project Trust,Coopers Gap Wind Farm,Wind,440.0,42.75,Coopers Gap Wind Farm,-26.74,151.45,2026-04-02T16:41:23.142012
2026/04/03 02:40:00,CROOKWF2,0.18,Crookwell Development Pty Ltd ,Crookwell 2 Wind Farm,Wind,91.0,0.2,Crookwell 2 Wind Farm,-34.52,149.54,2026-04-02T16:41:23.142012
2026/04/03 02:40:00,CROOKWF3,0.0,Crookwell 3 Development Pty Ltd,Crookwell 3 Wind Farm,Wind,56.0,0.0,Crookwell 3 Wind Farm,-34.52,149.54,2026-04-02T16:41:23.142012
2026/04/03 02:40:00,CROWLWF1,36.19,Pacific Hydro Crowlands Pty Ltd ,Crowlands Wind Farm,Wind,79.0,45.81,Crowlands Wind Farm,-37.13,143.16,2026-04-02T16:41:23.142012
2026/04/03 02:40:00,CRURWF1,2.2,CRWF Nominees Pty Ltd As Trustee For The CRWF Trust,Crudine Ridge Wind Farm,Wind,138.0,1.59,Crudine Ridge Wind Farm,-32.97,149.64,2026-04-02T16:41:23.142012
2026/04/03 02:40:00,CTHLWF1,137.32,Wild Cattle Hill Pty Ltd,Cattle Hill Wind Farm,Wind,144.0,95.36,Cattle Hill Wind Farm,-42.15,146.69,2026-04-02T16:41:23.142012
2026/04/03 02:40:00,DULAWF1,110.0,Dulacca Energy Project Co Pty Ltd,Dulacca Wind Farm,Wind,173.0,63.58,Dulacca Wind Farm,-26.63,149.87,2026-04-02T16:41:23.142012
2026/04/03 02:40:00,DUNDWF1,32.48,Dundonnell Wind Farm Pty Ltd,Dundonnell Wind Farm,Wind,168.0,19.33,Dundonnell Wind Farm,-37.52,142.58,2026-04-02T16:41:23.142012
2026/04/03 02:40:00,DUNDWF2,11.75,Dundonnell Wind Farm Pty Ltd,Dundonnell Wind Farm,Wind,46.0,25.54,Dundonnell Wind Farm,-37.52,142.58,2026-04-02T16:41:23.142012
2026/04/03 02:40:00,DUNDWF3,23.16,Dundonnell Wind Farm Pty Ltd,Dundonnell Wind Farm,Wind,122.0,18.98,Dundonnell Wind Farm,-37.52,142.58,2026-04-02T16:41:23.142012
2026/04/03 02:40:00,ELAINWF1,12.14,Lal Lal Wind Farms Nom Co Pty Ltd,Elaine Wind Farm,Wind,82.0,14.8,Elaine Wind Farm,-37.36,144.0,2026-04-02T16:41:23.142012
2026/04/03 02:40:00,FLYCRKWF,1.75,Iberdrola Australia Energy Markets Pty Limited,Flyers Creek Wind Farm,Wind,140.0,1.25,Flyers Creek Wind Farm,-33.365556,148.981944,2026-04-02T16:41:23.142012
2026/04/03 02:40:00,GPWFEST1,46.39,Golden Plains WF1 Pty Ltd as Trustee for the Golden Plains WF1 Unit Trust,Golden Plains Wind Farm East,Wind,240.0,19.33,Golden Plains Wind Farm East,-37.945091,143.752614,2026-04-02T16:41:23.142012
2026/04/03 02:40:00,GPWFEST2,28.07,Golden Plains WF1 Pty Ltd as Trustee for the Golden Plains WF1 Unit Trust,Golden Plains Wind Farm East,Wind,253.0,11.09,Golden Plains Wind Farm East,-37.945091,143.752614,2026-04-02T16:41:23.142012
2026/04/03 02:40:00,GPWFEST3,21.05,Golden Plains WF1 Pty Ltd as Trustee for the Golden Plains WF1 Unit Trust,Golden Plains Wind Farm East,Wind,240.0,8.77,Golden Plains Wind Farm East,-37.945091,143.752614,2026-04-02T16:41:23.142012
2026/04/03 02:40:00,GRANWF1,103.64,Granville Harbour Operations Pty Ltd as The Trustee for Granville Harbour Operations Trust,Granville Harbour Wind Farm,Wind,111.0,93.37,Granville Harbour Wind Farm,-41.8,145.06,2026-04-02T16:41:23.142012
2026/04/03 02:40:00,GSWF1A,148.65,Goyder Wind Farm 1 Pty Ltd as the Trustee for Goyder Wind Farm 1 Trust,Goyder South Wind Farm 1A,Wind,201.0,73.96,Goyder South Wind Farm 1A,-33.679758,138.937597,2026-04-02T16:41:23.142012
2026/04/03 02:40:00,GSWF1B1,78.84,Goyder Wind Farm 1B Pty Ltd as the Trustee for the Goyder Wind Farm 1B Trust,Goyder South Wind Farm 1B,Wind,196.0,40.22,Goyder South Wind Farm 1B,-33.679758,138.937597,2026-04-02T16:41:23.142012
2026/04/03 02:40:00,GULLRWF1,2.26,New Gullen Range Wind Farm Pty Ltd,Gullen Range Wind Farm,Wind,161.0,1.4,Gullen Range Wind Farm,-34.34,149.27,2026-04-02T16:41:23.142012
2026/04/03 02:40:00,GULLRWF2,0.0,New Gullen Range Wind Farm Pty Ltd,Gullen Range Wind Farm,Wind,107.0,0.0,Gullen Range Wind Farm,-34.34,149.27,2026-04-02T16:41:23.142012
2026/04/03 02:40:00,GUNNING1,0.0,Gunning Wind Energy Developments Pty Ltd,Gunning Wind Farm,Wind,47.0,0.0,Gunning Wind Farm,-34.813333,149.4,2026-04-02T16:41:23.142012
2026/04/03 02:40:00,HALLWF1,40.03,AGL SA Generation Pty Limited,Hallett 1 Wind Farm,Wind,95.0,42.14,Hallett 1 Wind Farm,-33.367778,138.728611,2026-04-02T16:41:23.142012
2026/04/03 02:40:00,HALLWF2,32.14,AGL SA Generation Pty Limited,Hallett 2 Wind Farm,Wind,71.0,45.27,Hallett 2 Wind Farm,-33.367778,138.728611,2026-04-02T16:41:23.142012
2026/04/03 02:40:00,HD1WF1,28.77,Hawkesdale Asset Pty Ltd as trustee for Hawkesdale Asset Trust,Hawkesdale Wind Farm,Wind,89.0,32.33,Hawkesdale Wind Farm,-38.147894,142.361381,2026-04-02T16:41:23.142012
2026/04/03 02:40:00,HDWF1,79.0,HWF1 Pty Ltd,Hornsdale Wind Farm,Wind,102.0,77.45,Hornsdale Wind Farm,-33.050556,138.543611,2026-04-02T16:41:23.142012
2026/04/03 02:40:00,HDWF2,76.2,HWF 2 Pty Ltd,Hornsdale Wind Farm 2,Wind,102.0,74.71,Hornsdale Wind Farm 2,-33.06,138.54,2026-04-02T16:41:23.142012
2026/04/03 02:40:00,HDWF3,74.2,HWF3 Pty Ltd,Hornsdale Wind Farm 3,Wind,109.0,68.07,Hornsdale Wind Farm 3,-33.06,138.54,2026-04-02T16:41:23.142012
2026/04/03 02:40:00,KABANWF1,90.66,Kaban Wind Farm Pty Ltd as trustee for Kaban Wind Farm Trust,Kaban Wind Farm,Wind,152.0,59.64,Kaban Wind Farm,-17.56,145.41,2026-04-02T16:41:23.142012
2026/04/03 02:40:00,KEPWF1,27.2,Kennedy Energy Park Pty Ltd,Kennedy Energy Park,Wind,43.0,63.26,Kennedy Energy Park,-20.88,144.42,2026-04-02T16:41:23.142012
2026/04/03 02:40:00,KIATAWF1,30.7,Kiata ProjectCo Pty Ltd Atf Kiata Project Trust,Kiata Wind Farm,Wind,31.0,99.03,Kiata Wind Farm,-36.4,141.75,2026-04-02T16:41:23.142012
2026/04/03 02:40:00,LGAPWF1,44.79,Lincoln Gap Wind Farm (Operations) Pty Ltd,Lincoln Gap Wind Farm,Wind,123.0,36.41,Lincoln Gap Wind Farm,-32.564279,137.557328,2026-04-02T16:41:23.142012
2026/04/03 02:40:00,LGAPWF1,44.79,Lincoln Gap Wind Farm (Operations) Pty Ltd,Lincoln Gap Wind Farm,Wind,123.0,36.41,Lincoln Gap Wind Farm,-32.564279,137.557328,2026-04-02T16:41:23.142012
2026/04/03 02:40:00,LGAPWF2,67.11,Lincoln Gap Wind Farm (Operations) Pty Ltd,Lincoln Gap Wind Farm,Wind,85.0,78.95,Lincoln Gap Wind Farm,-32.564279,137.557328,2026-04-02T16:41:23.142012
2026/04/03 02:40:00,LGAPWF2,67.11,Lincoln Gap Wind Farm (Operations) Pty Ltd,Lincoln Gap Wind Farm,Wind,85.0,78.95,Lincoln Gap Wind Farm,-32.564279,137.557328,2026-04-02T16:41:23.142012
2026/04/03 02:40:00,LKBONNY1,17.68,Lake Bonney Wind Power Pty Ltd,Lake Bonney Wind Farm Stage 1,Wind,81.0,21.83,Lake Bonney Wind Farm Stage 1,-37.76,140.4,2026-04-02T16:41:23.142012
2026/04/03 02:40:00,LKBONNY2,35.06,Lake Bonney Wind Power Pty Ltd,Lake Bonney Stage 2 Windfarm,Wind,159.0,22.05,Lake Bonney Stage 2 Windfarm,-37.76,140.4,2026-04-02T16:41:23.142012
2026/04/03 02:40:00,LKBONNY3,6.48,Lake Bonney Wind Power Pty Ltd,Lake Bonney Stage 3 Wind Farm,Wind,39.0,16.62,Lake Bonney Stage 3 Wind Farm,-37.737781,140.388137,2026-04-02T16:41:23.142012
2026/04/03 02:40:00,MACARTH1,41.9,AGL Hydro Partnership,Macarthur Wind Farm,Wind,420.0,9.98,Macarthur Wind Farm,-38.048957,142.192112,2026-04-02T16:41:23.142012
2026/04/03 02:40:00,MCINTYR1,307.18,MacIntyre UJV Operator Pty Ltd,MacIntyre Wind Farm,Wind,890.0,34.51,MacIntyre Wind Farm,-28.32,151.54,2026-04-02T16:41:23.142012
2026/04/03 02:40:00,MERCER01,11.3,Mt Mercer Windfarm Pty Ltd,Mt Mercer Wind Farm,Wind,131.0,8.63,Mt Mercer Wind Farm,-37.841111,143.871111,2026-04-02T16:41:23.142012
2026/04/03 02:40:00,MEWF1,125.08,Ergon Energy Queensland Pty Ltd ,Mount Emerald Wind Farm,Wind,178.0,70.27,Mount Emerald Wind Farm,-17.133007,145.380644,2026-04-02T16:41:23.142012
2026/04/03 02:40:00,MRTLSWF1,61.51,Mortlake South Wind Farm Pty Ltd,Mortlake South Wind Farm,Wind,153.0,40.2,Mortlake South Wind Farm,-38.127337,142.857801,2026-04-02T16:41:23.142012
2026/04/03 02:40:00,MTGELWF1,15.67,Mt. Gellibrand Wind Farm Pty Ltd,Mt Gellibrand Wind Farm,Wind,132.0,11.87,Mt Gellibrand Wind Farm,-38.23,143.77,2026-04-02T16:41:23.142012
2026/04/03 02:40:00,MTMILLAR,31.2,Mt Millar Wind Farm Pty Ltd,Mt Millar Wind Farm,Wind,70.0,44.57,Mt Millar Wind Farm,-33.624444,136.703611,2026-04-02T16:41:23.142012
2026/04/03 02:40:00,MUSSELR1,152.2,Hydro-Electric Corporation,Musselroe Wind Farm,Wind,168.0,90.6,Musselroe Wind Farm,-40.780225,148.010799,2026-04-02T16:41:23.142012
2026/04/03 02:40:00,MUWAWF1,92.69,Telstra Energy (Generation) Pty Ltd,Murra Warra Wind Farm,Wind,225.7,41.07,Murra Warra Wind Farm,-36.432404,142.317853,2026-04-02T16:41:23.142012
2026/04/03 02:40:00,MUWAWF2,153.9,Murra Warra II Project Co Pty Ltd ATF The Murra Warra II Project Trust,Murra Warra Wind Farm Stage 2,Wind,203.0,75.81,Murra Warra Wind Farm Stage 2,-36.43,142.32,2026-04-02T16:41:23.142012
2026/04/03 02:40:00,NBHWF1,93.0,AGL SA Generation Pty Limited,North Brown Hill Wind Farm,Wind,132.0,70.45,North Brown Hill Wind Farm,-33.367778,138.728611,2026-04-02T16:41:23.142012
2026/04/03 02:40:00,OAKLAND1,10.7,AGL Hydro Partnership,Oaklands Hill Wind Farm,Wind,63.0,16.98,Oaklands Hill Wind Farm,-37.683078,142.551678,2026-04-02T16:41:23.142012
2026/04/03 02:40:00,PAREPW1,59.07,Iberdrola Australia Energy Markets Pty Limited,Port Augusta Renewable Energy Park,Wind,201.0,29.39,Port Augusta Renewable Energy Park,-32.566944,137.856111,2026-04-02T16:41:23.142012
2026/04/03 02:40:00,RYANCWF1,75.1,Ryan Corner Development Pty Ltd,Ryan Corner Wind Farm,Wind,205.0,36.63,Ryan Corner Wind Farm,-38.271017,142.140647,2026-04-02T16:41:23.142012
2026/04/03 02:40:00,RYEPARK1,59.69,Rye Park Renewable Energy Pty Ltd as trustee for Rye Park Wind Farm Trust,Rye Park Renewable Energy,Wind,384.0,15.54,Rye Park Renewable Energy,-32.138333,148.972778,2026-04-02T16:41:23.142012
2026/04/03 02:40:00,SALTCRK1,6.79,Salt Creek Wind Farm Pty Ltd,Salt Creek Wind Farm,Wind,54.0,12.57,Salt Creek Wind Farm,-37.95,142.63,2026-04-02T16:41:23.142012
2026/04/03 02:40:00,SAPHWF1,46.17,The Trustee For The SWF1 Operations Trust,Sapphire Wind Farm,Wind,270.0,17.1,Sapphire Wind Farm,-29.7,151.41,2026-04-02T16:41:23.142012
2026/04/03 02:40:00,SNOWNTH1,69.2,Snowtown Wind Farm Stage 2 Pty Ltd,Snowtown Wind Farm Stage 2 North,Wind,144.0,48.06,Snowtown Wind Farm Stage 2 North,-33.83,138.118611,2026-04-02T16:41:23.142012
2026/04/03 02:40:00,SNOWSTH1,98.1,Snowtown Wind Farm Stage 2 Pty Ltd,Snowtown South Wind Farm,Wind,126.0,77.86,Snowtown South Wind Farm,-33.83,138.118611,2026-04-02T16:41:23.142012
2026/04/03 02:40:00,SNOWTWN1,81.88,Snowtown Wind Farm Pty Ltd,Snowtown Wind Farm Units 1 And 47,Wind,99.0,82.71,Snowtown Wind Farm Units 1 And 47,-33.83,138.118611,2026-04-02T16:41:23.142012
2026/04/03 02:40:00,STARHLWF,6.4,Starfish Hill Wind Farm Pty Ltd,Starfish Hill Wind Farm,Wind,35.0,18.29,Starfish Hill Wind Farm,-35.58,138.14,2026-04-02T16:41:23.142012
2026/04/03 02:40:00,STOCKYD1,88.68,Stockyard Hill Wind Farm Pty Ltd,Stockyard Hill Wind Farm,Wind,511.0,17.35,Stockyard Hill Wind Farm,-37.535833,143.251389,2026-04-02T16:41:23.142012
2026/04/03 02:40:00,STWF1,137.22,PARF Company 8 Pty Ltd as The Trustee for Silverton Project Trust,Silverton Wind Farm,Wind,198.0,69.3,Silverton Wind Farm,-37.683168,142.551678,2026-04-02T16:41:23.142012
2026/04/03 02:40:00,TARALGA1,1.08,Taralga Wind Farm Nominees No 2 Pty Ltd (ATF Taralga Wind Farm Operating Trust),Taralga Wind Farm,Wind,106.0,1.02,Taralga Wind Farm,-34.42352,149.826267,2026-04-02T16:41:23.142012
2026/04/03 02:40:00,WAMBOWF1,123.37,Stanwell Corporation Limited,Wambo Wind Farm 1,Wind,245.0,50.36,Wambo Wind Farm 1,-35.187301,149.524945,2026-04-02T16:41:23.142012
2026/04/03 02:40:00,WATERLWF,32.8,Waterloo Wind Farm Pty Ltd,Waterloo Wind Farm,Wind,130.0,25.23,Waterloo Wind Farm,-34.00094,138.911567,2026-04-02T16:41:23.142012
2026/04/03 02:40:00,WGWF1,103.8,Willogoleche Power Pty Ltd As The Trustee For The Willogoleche Operating Trust,Willogoleche Wind Farm,Wind,119.0,87.23,Willogoleche Wind Farm,-33.39,138.85,2026-04-02T16:41:23.142012
2026/04/03 02:40:00,WOODLWN1,0.0,Woodlawn Wind Pty Ltd,Woodlawn Wind Farm,Wind,48.0,0.0,Woodlawn Wind Farm,-35.08,149.62,2026-04-02T16:41:23.142012
2026/04/03 02:40:00,WPWF,22.49,AGL SA Generation Pty Limited,Wattle Point Wind Farm,Wind,91.0,24.71,Wattle Point Wind Farm,-35.111624,137.7219,2026-04-02T16:41:23.142012
2026/04/03 02:40:00,WRWF1,23.06,White Rock Wind Farm Pty Ltd,White Rock Wind Farm,Wind,172.0,13.41,White Rock Wind Farm,-29.79,151.54,2026-04-02T16:41:23.142012
2026/04/03 02:40:00,YENDWF1,26.37,Lal Lal Wind Farms Nom Co Pty Ltd,Yendon Wind Farm,Wind,142.0,18.57,Yendon Wind Farm,-37.629987,144.022717,2026-04-02T16:41:23.142012
