SETTLEMENTDATE,DUID,SCADAVALUE,Participant,Station Name,Fuel Source - Primary,MAX_CAP,utilisation_pct,Plant,Latitude,Longitude,timestamp_utc
2026/03/08 21:30:00,CAPTL_WF,76.81,Iberdrola Australia Holdings Pty Limited,Capital Wind Farm,Wind,140.0,54.86,Capital Wind Farm,-35.1,149.31,2026-03-08T11:30:36.772903
2026/03/08 21:30:00,CHALLHWF,7.0,Pacific Hydro Challicum Hills Pty Ltd,Challicum Hills Wind Farm,Wind,52.0,13.46,Challicum Hills Wind Farm,-37.38,143.11,2026-03-08T11:30:36.772903
2026/03/08 21:30:00,CULLRGWF,27.64,Cullerin Range Wind Farm Pty Ltd,Cullerin Range Wind Farm,Wind,30.0,92.13,Cullerin Range Wind Farm,-34.81,149.4,2026-03-08T11:30:36.772903
2026/03/08 21:30:00,DIAPURWF1,0.7,Y.E.S. Energy (SA) Pty Ltd,Diapur Wind Farm,Wind,7.0,10.0,Diapur Wind Farm,-36.3425,141.43,2026-03-08T11:30:36.772903
2026/03/08 21:30:00,MLWF1,4.51,Mortons Lane Windfarm Pty Limited,Mortons Lane Wind Farm,Wind,20.0,22.55,Mortons Lane Wind Farm,-37.84,142.45,2026-03-08T11:30:36.772903
2026/03/08 21:30:00,WAUBRAWF,89.32,Pyrenees Wind Energy Developments Pty Ltd,Waubra Wind Farm,Wind,192.0,46.52,Waubra Wind Farm,-37.394498,143.638982,2026-03-08T11:30:36.772903
2026/03/08 21:30:00,WOOLNTH1,18.5,Hydro-Electric Corporation,Woolnorth Studland Bay / Bluff Point Wind Farm,Wind,140.0,13.21,Woolnorth Studland Bay / Bluff Point Wind Farm,-40.69,144.72,2026-03-08T11:30:36.772903
2026/03/08 21:30:00,YAMBUKWF,4.6,Energy Pacific (Vic) Pty Ltd,Yambuk Wind Farm,Wind,30.0,15.33,Yambuk Wind Farm,-38.299083,142.027577,2026-03-08T11:30:36.772903
2026/03/08 21:30:00,YSWF1,4.0,Pacific Hydro Yaloak South Pty Ltd,Yaloak South Wind Farm,Wind,28.0,14.29,Yaloak South Wind Farm,-37.7163,144.242853,2026-03-08T11:30:36.772903
2026/03/08 21:30:00,ARWF1,37.9,Ararat Wind Farm Pty Ltd,Ararat Wind Farm,Wind,241.0,15.73,Ararat Wind Farm,-37.232778,143.031389,2026-03-08T11:30:36.772903
2026/03/08 21:30:00,BALDHWF1,94.77,Alinta Energy Retail Sales Pty Ltd,Bald Hills Wind Farm,Wind,106.0,89.41,Bald Hills Wind Farm,-38.79,145.93,2026-03-08T11:30:36.772903
2026/03/08 21:30:00,BANGOWF1,119.3,BWF Nominees Pty Ltd as The Trustee for BWF Trust,Bango 973 Wind Farm,Wind,155.0,76.97,Bango 973 Wind Farm,-34.551582,148.732808,2026-03-08T11:30:36.772903
2026/03/08 21:30:00,BANGOWF2,69.0,BWF Nominees Pty Ltd as The Trustee for BWF Trust,Bango 999 Wind Farm,Wind,82.0,84.15,Bango 999 Wind Farm,-34.551582,148.732808,2026-03-08T11:30:36.772903
2026/03/08 21:30:00,BLUFF1,4.8,AGL SA Generation Pty Limited,The Bluff Wind Farm,Wind,53.0,9.06,The Bluff Wind Farm,-33.367778,138.728611,2026-03-08T11:30:36.772903
2026/03/08 21:30:00,BOCORWF1,32.39,Boco Rock Wind Farm Pty Ltd,Boco Rock Wind Farm,Wind,111.0,29.18,Boco Rock Wind Farm,-36.578611,149.103333,2026-03-08T11:30:36.772903
2026/03/08 21:30:00,BRYB1WF1,74.97,Berrybank Development Pty Ltd,Berrybank Wind Farm,Wind,175.9,42.62,Berrybank Wind Farm,-37.94,143.52,2026-03-08T11:30:36.772903
2026/03/08 21:30:00,BRYB2WF2,48.46,Berrybank 2 Asset Pty Ltd as trustee for Berrybank 2 Asset Trust,Berrybank 2 Wind Farm,Wind,105.0,46.15,Berrybank 2 Wind Farm,-37.94,143.52,2026-03-08T11:30:36.772903
2026/03/08 21:30:00,BULGANA1,57.9,Bulgana Wind Farm Pty Ltd,Bulgana Green Power Hub,Wind,204.0,28.38,Bulgana Green Power Hub,-37.0975,142.973611,2026-03-08T11:30:36.772903
2026/03/08 21:30:00,CATHROCK,14.4,Cathedral Rocks Wind Farm Pty Ltd,Cathedral Rocks,Wind,66.0,21.82,Cathedral Rocks,-34.51,135.35,2026-03-08T11:30:36.772903
2026/03/08 21:30:00,CHYTWF1,29.46,Cherry Tree Wind Farm Pty Ltd as trustee for The Cherry Tree Project trust ,Cherry Tree Wind Farm,Wind,57.0,51.68,Cherry Tree Wind Farm,-37.1,145.26,2026-03-08T11:30:36.772903
2026/03/08 21:30:00,CLEMGPWF,43.51,Pacific Hydro Clements Gap Pty Ltd,Clements Gap Wind Farm,Wind,57.0,76.33,Clements Gap Wind Farm,-33.48,138.1,2026-03-08T11:30:36.772903
2026/03/08 21:30:00,CLRKCWF1,235.96,Stanwell Corporation Limited ,Clarke Creek Wind Farm,Wind,338.0,69.81,Clarke Creek Wind Farm,-22.85,149.45,2026-03-08T11:30:36.772903
2026/03/08 21:30:00,CLRKCWF2,44.43,Stanwell Corporation Limited ,Clarke Creek Wind Farm,Wind,101.0,43.99,Clarke Creek Wind Farm,-22.85,149.45,2026-03-08T11:30:36.772903
2026/03/08 21:30:00,CNUNDAWF,10.11,Canunda Power Pty Ltd,Canunda Wind Farm,Wind,46.0,21.98,Canunda Wind Farm,-37.73,140.39,2026-03-08T11:30:36.772903
2026/03/08 21:30:00,COLWF01,178.45,Collector Wind Farm Pty Ltd,Collector Wind Farm 1,Wind,219.0,81.48,Collector Wind Farm 1,-34.8719,149.3967,2026-03-08T11:30:36.772903
2026/03/08 21:30:00,COOPGWF1,330.45,PARF Company 10 Pty Limited as The Trustee for Coopers Gap Project Trust,Coopers Gap Wind Farm,Wind,440.0,75.1,Coopers Gap Wind Farm,-26.74,151.45,2026-03-08T11:30:36.772903
2026/03/08 21:30:00,CROOKWF2,65.34,Crookwell Development Pty Ltd ,Crookwell 2 Wind Farm,Wind,91.0,71.8,Crookwell 2 Wind Farm,-34.52,149.54,2026-03-08T11:30:36.772903
2026/03/08 21:30:00,CROOKWF3,28.26,Crookwell 3 Development Pty Ltd,Crookwell 3 Wind Farm,Wind,56.0,50.46,Crookwell 3 Wind Farm,-34.52,149.54,2026-03-08T11:30:36.772903
2026/03/08 21:30:00,CROWLWF1,35.62,Pacific Hydro Crowlands Pty Ltd ,Crowlands Wind Farm,Wind,79.0,45.09,Crowlands Wind Farm,-37.13,143.16,2026-03-08T11:30:36.772903
2026/03/08 21:30:00,CRURWF1,101.3,CRWF Nominees Pty Ltd As Trustee For The CRWF Trust,Crudine Ridge Wind Farm,Wind,138.0,73.41,Crudine Ridge Wind Farm,-32.97,149.64,2026-03-08T11:30:36.772903
2026/03/08 21:30:00,CTHLWF1,6.44,Wild Cattle Hill Pty Ltd,Cattle Hill Wind Farm,Wind,144.0,4.47,Cattle Hill Wind Farm,-42.15,146.69,2026-03-08T11:30:36.772903
2026/03/08 21:30:00,DULAWF1,135.3,Dulacca Energy Project Co Pty Ltd,Dulacca Wind Farm,Wind,173.0,78.21,Dulacca Wind Farm,-26.63,149.87,2026-03-08T11:30:36.772903
2026/03/08 21:30:00,DUNDWF1,53.02,Dundonnell Wind Farm Pty Ltd,Dundonnell Wind Farm,Wind,168.0,31.56,Dundonnell Wind Farm,-37.52,142.58,2026-03-08T11:30:36.772903
2026/03/08 21:30:00,DUNDWF2,17.34,Dundonnell Wind Farm Pty Ltd,Dundonnell Wind Farm,Wind,46.0,37.7,Dundonnell Wind Farm,-37.52,142.58,2026-03-08T11:30:36.772903
2026/03/08 21:30:00,DUNDWF3,28.22,Dundonnell Wind Farm Pty Ltd,Dundonnell Wind Farm,Wind,122.0,23.13,Dundonnell Wind Farm,-37.52,142.58,2026-03-08T11:30:36.772903
2026/03/08 21:30:00,ELAINWF1,20.39,Lal Lal Wind Farms Nom Co Pty Ltd,Elaine Wind Farm,Wind,82.0,24.87,Elaine Wind Farm,-37.36,144.0,2026-03-08T11:30:36.772903
2026/03/08 21:30:00,FLYCRKWF,79.47,Iberdrola Australia Energy Markets Pty Limited,Flyers Creek Wind Farm,Wind,140.0,56.76,Flyers Creek Wind Farm,-33.365556,148.981944,2026-03-08T11:30:36.772903
2026/03/08 21:30:00,GPWFEST1,96.47,Golden Plains WF1 Pty Ltd as Trustee for the Golden Plains WF1 Unit Trust,Golden Plains Wind Farm East,Wind,240.0,40.2,Golden Plains Wind Farm East,-37.945091,143.752614,2026-03-08T11:30:36.772903
2026/03/08 21:30:00,GPWFEST2,110.82,Golden Plains WF1 Pty Ltd as Trustee for the Golden Plains WF1 Unit Trust,Golden Plains Wind Farm East,Wind,253.0,43.8,Golden Plains Wind Farm East,-37.945091,143.752614,2026-03-08T11:30:36.772903
2026/03/08 21:30:00,GPWFEST3,93.89,Golden Plains WF1 Pty Ltd as Trustee for the Golden Plains WF1 Unit Trust,Golden Plains Wind Farm East,Wind,240.0,39.12,Golden Plains Wind Farm East,-37.945091,143.752614,2026-03-08T11:30:36.772903
2026/03/08 21:30:00,GRANWF1,0.0,Granville Harbour Operations Pty Ltd as The Trustee for Granville Harbour Operations Trust,Granville Harbour Wind Farm,Wind,111.0,0.0,Granville Harbour Wind Farm,-41.8,145.06,2026-03-08T11:30:36.772903
2026/03/08 21:30:00,GSWF1A,67.78,Goyder Wind Farm 1 Pty Ltd as the Trustee for Goyder Wind Farm 1 Trust,Goyder South Wind Farm 1A,Wind,201.0,33.72,Goyder South Wind Farm 1A,-33.679758,138.937597,2026-03-08T11:30:36.772903
2026/03/08 21:30:00,GSWF1B1,50.57,Goyder Wind Farm 1B Pty Ltd as the Trustee for the Goyder Wind Farm 1B Trust,Goyder South Wind Farm 1B,Wind,196.0,25.8,Goyder South Wind Farm 1B,-33.679758,138.937597,2026-03-08T11:30:36.772903
2026/03/08 21:30:00,GULLRWF1,110.85,New Gullen Range Wind Farm Pty Ltd,Gullen Range Wind Farm,Wind,161.0,68.85,Gullen Range Wind Farm,-34.34,149.27,2026-03-08T11:30:36.772903
2026/03/08 21:30:00,GULLRWF2,104.87,New Gullen Range Wind Farm Pty Ltd,Gullen Range Wind Farm,Wind,107.0,98.01,Gullen Range Wind Farm,-34.34,149.27,2026-03-08T11:30:36.772903
2026/03/08 21:30:00,GUNNING1,44.09,Gunning Wind Energy Developments Pty Ltd,Gunning Wind Farm,Wind,47.0,93.81,Gunning Wind Farm,-34.813333,149.4,2026-03-08T11:30:36.772903
2026/03/08 21:30:00,HALLWF1,26.37,AGL SA Generation Pty Limited,Hallett 1 Wind Farm,Wind,95.0,27.76,Hallett 1 Wind Farm,-33.367778,138.728611,2026-03-08T11:30:36.772903
2026/03/08 21:30:00,HALLWF2,31.47,AGL SA Generation Pty Limited,Hallett 2 Wind Farm,Wind,71.0,44.32,Hallett 2 Wind Farm,-33.367778,138.728611,2026-03-08T11:30:36.772903
2026/03/08 21:30:00,HD1WF1,10.38,Hawkesdale Asset Pty Ltd as trustee for Hawkesdale Asset Trust,Hawkesdale Wind Farm,Wind,89.0,11.66,Hawkesdale Wind Farm,-38.147894,142.361381,2026-03-08T11:30:36.772903
2026/03/08 21:30:00,HDWF1,31.5,HWF1 Pty Ltd,Hornsdale Wind Farm,Wind,102.0,30.88,Hornsdale Wind Farm,-33.050556,138.543611,2026-03-08T11:30:36.772903
2026/03/08 21:30:00,HDWF2,28.4,HWF 2 Pty Ltd,Hornsdale Wind Farm 2,Wind,102.0,27.84,Hornsdale Wind Farm 2,-33.06,138.54,2026-03-08T11:30:36.772903
2026/03/08 21:30:00,HDWF3,32.5,HWF3 Pty Ltd,Hornsdale Wind Farm 3,Wind,109.0,29.82,Hornsdale Wind Farm 3,-33.06,138.54,2026-03-08T11:30:36.772903
2026/03/08 21:30:00,KABANWF1,91.56,Kaban Wind Farm Pty Ltd as trustee for Kaban Wind Farm Trust,Kaban Wind Farm,Wind,152.0,60.24,Kaban Wind Farm,-17.56,145.41,2026-03-08T11:30:36.772903
2026/03/08 21:30:00,KEPWF1,27.4,Kennedy Energy Park Pty Ltd,Kennedy Energy Park,Wind,43.0,63.72,Kennedy Energy Park,-20.88,144.42,2026-03-08T11:30:36.772903
2026/03/08 21:30:00,KIATAWF1,9.9,Kiata ProjectCo Pty Ltd Atf Kiata Project Trust,Kiata Wind Farm,Wind,31.0,31.94,Kiata Wind Farm,-36.4,141.75,2026-03-08T11:30:36.772903
2026/03/08 21:30:00,LGAPWF1,46.02,Lincoln Gap Wind Farm (Operations) Pty Ltd,Lincoln Gap Wind Farm,Wind,123.0,37.41,Lincoln Gap Wind Farm,-32.564279,137.557328,2026-03-08T11:30:36.772903
2026/03/08 21:30:00,LGAPWF1,46.02,Lincoln Gap Wind Farm (Operations) Pty Ltd,Lincoln Gap Wind Farm,Wind,123.0,37.41,Lincoln Gap Wind Farm,-32.564279,137.557328,2026-03-08T11:30:36.772903
2026/03/08 21:30:00,LGAPWF2,58.57,Lincoln Gap Wind Farm (Operations) Pty Ltd,Lincoln Gap Wind Farm,Wind,85.0,68.91,Lincoln Gap Wind Farm,-32.564279,137.557328,2026-03-08T11:30:36.772903
2026/03/08 21:30:00,LGAPWF2,58.57,Lincoln Gap Wind Farm (Operations) Pty Ltd,Lincoln Gap Wind Farm,Wind,85.0,68.91,Lincoln Gap Wind Farm,-32.564279,137.557328,2026-03-08T11:30:36.772903
2026/03/08 21:30:00,LKBONNY1,14.91,Lake Bonney Wind Power Pty Ltd,Lake Bonney Wind Farm Stage 1,Wind,81.0,18.41,Lake Bonney Wind Farm Stage 1,-37.76,140.4,2026-03-08T11:30:36.772903
2026/03/08 21:30:00,LKBONNY2,30.19,Lake Bonney Wind Power Pty Ltd,Lake Bonney Stage 2 Windfarm,Wind,159.0,18.99,Lake Bonney Stage 2 Windfarm,-37.76,140.4,2026-03-08T11:30:36.772903
2026/03/08 21:30:00,LKBONNY3,7.42,Lake Bonney Wind Power Pty Ltd,Lake Bonney Stage 3 Wind Farm,Wind,39.0,19.03,Lake Bonney Stage 3 Wind Farm,-37.737781,140.388137,2026-03-08T11:30:36.772903
2026/03/08 21:30:00,MACARTH1,26.2,AGL Hydro Partnership,Macarthur Wind Farm,Wind,420.0,6.24,Macarthur Wind Farm,-38.048957,142.192112,2026-03-08T11:30:36.772903
2026/03/08 21:30:00,MCINTYR1,388.86,MacIntyre UJV Operator Pty Ltd,MacIntyre Wind Farm,Wind,890.0,43.69,MacIntyre Wind Farm,-28.32,151.54,2026-03-08T11:30:36.772903
2026/03/08 21:30:00,MERCER01,34.1,Mt Mercer Windfarm Pty Ltd,Mt Mercer Wind Farm,Wind,131.0,26.03,Mt Mercer Wind Farm,-37.841111,143.871111,2026-03-08T11:30:36.772903
2026/03/08 21:30:00,MEWF1,60.08,Ergon Energy Queensland Pty Ltd ,Mount Emerald Wind Farm,Wind,178.0,33.75,Mount Emerald Wind Farm,-17.133007,145.380644,2026-03-08T11:30:36.772903
2026/03/08 21:30:00,MRTLSWF1,11.13,Mortlake South Wind Farm Pty Ltd,Mortlake South Wind Farm,Wind,153.0,7.27,Mortlake South Wind Farm,-38.127337,142.857801,2026-03-08T11:30:36.772903
2026/03/08 21:30:00,MTGELWF1,59.29,Mt. Gellibrand Wind Farm Pty Ltd,Mt Gellibrand Wind Farm,Wind,132.0,44.92,Mt Gellibrand Wind Farm,-38.23,143.77,2026-03-08T11:30:36.772903
2026/03/08 21:30:00,MTMILLAR,14.4,Mt Millar Wind Farm Pty Ltd,Mt Millar Wind Farm,Wind,70.0,20.57,Mt Millar Wind Farm,-33.624444,136.703611,2026-03-08T11:30:36.772903
2026/03/08 21:30:00,MUSSELR1,41.5,Hydro-Electric Corporation,Musselroe Wind Farm,Wind,168.0,24.7,Musselroe Wind Farm,-40.780225,148.010799,2026-03-08T11:30:36.772903
2026/03/08 21:30:00,MUWAWF1,142.61,Telstra Energy (Generation) Pty Ltd,Murra Warra Wind Farm,Wind,225.7,63.19,Murra Warra Wind Farm,-36.432404,142.317853,2026-03-08T11:30:36.772903
2026/03/08 21:30:00,MUWAWF2,133.5,Murra Warra II Project Co Pty Ltd ATF The Murra Warra II Project Trust,Murra Warra Wind Farm Stage 2,Wind,203.0,65.76,Murra Warra Wind Farm Stage 2,-36.43,142.32,2026-03-08T11:30:36.772903
2026/03/08 21:30:00,NBHWF1,33.7,AGL SA Generation Pty Limited,North Brown Hill Wind Farm,Wind,132.0,25.53,North Brown Hill Wind Farm,-33.367778,138.728611,2026-03-08T11:30:36.772903
2026/03/08 21:30:00,OAKLAND1,6.0,AGL Hydro Partnership,Oaklands Hill Wind Farm,Wind,63.0,9.52,Oaklands Hill Wind Farm,-37.683078,142.551678,2026-03-08T11:30:36.772903
2026/03/08 21:30:00,PAREPW1,86.37,Iberdrola Australia Energy Markets Pty Limited,Port Augusta Renewable Energy Park,Wind,201.0,42.97,Port Augusta Renewable Energy Park,-32.566944,137.856111,2026-03-08T11:30:36.772903
2026/03/08 21:30:00,RYANCWF1,48.84,Ryan Corner Development Pty Ltd,Ryan Corner Wind Farm,Wind,205.0,23.82,Ryan Corner Wind Farm,-38.271017,142.140647,2026-03-08T11:30:36.772903
2026/03/08 21:30:00,RYEPARK1,375.2,Rye Park Renewable Energy Pty Ltd as trustee for Rye Park Wind Farm Trust,Rye Park Renewable Energy,Wind,384.0,97.71,Rye Park Renewable Energy,-32.138333,148.972778,2026-03-08T11:30:36.772903
2026/03/08 21:30:00,SALTCRK1,8.66,Salt Creek Wind Farm Pty Ltd,Salt Creek Wind Farm,Wind,54.0,16.04,Salt Creek Wind Farm,-37.95,142.63,2026-03-08T11:30:36.772903
2026/03/08 21:30:00,SAPHWF1,250.75,The Trustee For The SWF1 Operations Trust,Sapphire Wind Farm,Wind,270.0,92.87,Sapphire Wind Farm,-29.7,151.41,2026-03-08T11:30:36.772903
2026/03/08 21:30:00,SNOWNTH1,123.9,Snowtown Wind Farm Stage 2 Pty Ltd,Snowtown Wind Farm Stage 2 North,Wind,144.0,86.04,Snowtown Wind Farm Stage 2 North,-33.83,138.118611,2026-03-08T11:30:36.772903
2026/03/08 21:30:00,SNOWSTH1,103.2,Snowtown Wind Farm Stage 2 Pty Ltd,Snowtown South Wind Farm,Wind,126.0,81.9,Snowtown South Wind Farm,-33.83,138.118611,2026-03-08T11:30:36.772903
2026/03/08 21:30:00,SNOWTWN1,89.64,Snowtown Wind Farm Pty Ltd,Snowtown Wind Farm Units 1 And 47,Wind,99.0,90.55,Snowtown Wind Farm Units 1 And 47,-33.83,138.118611,2026-03-08T11:30:36.772903
2026/03/08 21:30:00,STARHLWF,15.4,Starfish Hill Wind Farm Pty Ltd,Starfish Hill Wind Farm,Wind,35.0,44.0,Starfish Hill Wind Farm,-35.58,138.14,2026-03-08T11:30:36.772903
2026/03/08 21:30:00,STOCKYD1,144.7,Stockyard Hill Wind Farm Pty Ltd,Stockyard Hill Wind Farm,Wind,511.0,28.32,Stockyard Hill Wind Farm,-37.535833,143.251389,2026-03-08T11:30:36.772903
2026/03/08 21:30:00,STWF1,113.09,PARF Company 8 Pty Ltd as The Trustee for Silverton Project Trust,Silverton Wind Farm,Wind,198.0,57.12,Silverton Wind Farm,-37.683168,142.551678,2026-03-08T11:30:36.772903
2026/03/08 21:30:00,TARALGA1,76.56,Taralga Wind Farm Nominees No 2 Pty Ltd (ATF Taralga Wind Farm Operating Trust),Taralga Wind Farm,Wind,106.0,72.23,Taralga Wind Farm,-34.42352,149.826267,2026-03-08T11:30:36.772903
2026/03/08 21:30:00,WAMBOWF1,232.13,Stanwell Corporation Limited,Wambo Wind Farm 1,Wind,245.0,94.75,Wambo Wind Farm 1,-35.187301,149.524945,2026-03-08T11:30:36.772903
2026/03/08 21:30:00,WATERLWF,15.1,Waterloo Wind Farm Pty Ltd,Waterloo Wind Farm,Wind,130.0,11.62,Waterloo Wind Farm,-34.00094,138.911567,2026-03-08T11:30:36.772903
2026/03/08 21:30:00,WGWF1,36.2,Willogoleche Power Pty Ltd As The Trustee For The Willogoleche Operating Trust,Willogoleche Wind Farm,Wind,119.0,30.42,Willogoleche Wind Farm,-33.39,138.85,2026-03-08T11:30:36.772903
2026/03/08 21:30:00,WOODLWN1,32.9,Woodlawn Wind Pty Ltd,Woodlawn Wind Farm,Wind,48.0,68.54,Woodlawn Wind Farm,-35.08,149.62,2026-03-08T11:30:36.772903
2026/03/08 21:30:00,WPWF,50.22,AGL SA Generation Pty Limited,Wattle Point Wind Farm,Wind,91.0,55.19,Wattle Point Wind Farm,-35.111624,137.7219,2026-03-08T11:30:36.772903
2026/03/08 21:30:00,WRWF1,166.38,White Rock Wind Farm Pty Ltd,White Rock Wind Farm,Wind,172.0,96.73,White Rock Wind Farm,-29.79,151.54,2026-03-08T11:30:36.772903
2026/03/08 21:30:00,YENDWF1,22.44,Lal Lal Wind Farms Nom Co Pty Ltd,Yendon Wind Farm,Wind,142.0,15.8,Yendon Wind Farm,-37.629987,144.022717,2026-03-08T11:30:36.772903
