SETTLEMENTDATE,DUID,SCADAVALUE,Participant,Station Name,Fuel Source - Primary,MAX_CAP,utilisation_pct,Plant,Latitude,Longitude,timestamp_utc
2026/02/16 23:40:00,CAPTL_WF,6.42,Iberdrola Australia Holdings Pty Limited,Capital Wind Farm,Wind,140.0,4.59,Capital Wind Farm,-35.1,149.31,2026-02-16T13:36:32.301987
2026/02/16 23:40:00,CHALLHWF,33.4,Pacific Hydro Challicum Hills Pty Ltd,Challicum Hills Wind Farm,Wind,52.0,64.23,Challicum Hills Wind Farm,-37.38,143.11,2026-02-16T13:36:32.301987
2026/02/16 23:40:00,CULLRGWF,7.87,Cullerin Range Wind Farm Pty Ltd,Cullerin Range Wind Farm,Wind,30.0,26.23,Cullerin Range Wind Farm,-34.81,149.4,2026-02-16T13:36:32.301987
2026/02/16 23:40:00,DIAPURWF1,7.9,Y.E.S. Energy (SA) Pty Ltd,Diapur Wind Farm,Wind,7.0,112.86,Diapur Wind Farm,-36.3425,141.43,2026-02-16T13:36:32.301987
2026/02/16 23:40:00,MLWF1,9.74,Mortons Lane Windfarm Pty Limited,Mortons Lane Wind Farm,Wind,20.0,48.7,Mortons Lane Wind Farm,-37.84,142.45,2026-02-16T13:36:32.301987
2026/02/16 23:40:00,WAUBRAWF,98.95,Pyrenees Wind Energy Developments Pty Ltd,Waubra Wind Farm,Wind,192.0,51.54,Waubra Wind Farm,-37.394498,143.638982,2026-02-16T13:36:32.301987
2026/02/16 23:40:00,WOOLNTH1,102.2,Hydro-Electric Corporation,Woolnorth Studland Bay / Bluff Point Wind Farm,Wind,140.0,73.0,Woolnorth Studland Bay / Bluff Point Wind Farm,-40.69,144.72,2026-02-16T13:36:32.301987
2026/02/16 23:40:00,YAMBUKWF,1.6,Energy Pacific (Vic) Pty Ltd,Yambuk Wind Farm,Wind,30.0,5.33,Yambuk Wind Farm,-38.299083,142.027577,2026-02-16T13:36:32.301987
2026/02/16 23:40:00,YSWF1,12.6,Pacific Hydro Yaloak South Pty Ltd,Yaloak South Wind Farm,Wind,28.0,45.0,Yaloak South Wind Farm,-37.7163,144.242853,2026-02-16T13:36:32.301987
2026/02/16 23:40:00,ARWF1,59.8,Ararat Wind Farm Pty Ltd,Ararat Wind Farm,Wind,241.0,24.81,Ararat Wind Farm,-37.232778,143.031389,2026-02-16T13:36:32.301987
2026/02/16 23:40:00,BALDHWF1,68.54,Alinta Energy Retail Sales Pty Ltd,Bald Hills Wind Farm,Wind,106.0,64.66,Bald Hills Wind Farm,-38.79,145.93,2026-02-16T13:36:32.301987
2026/02/16 23:40:00,BANGOWF1,41.6,BWF Nominees Pty Ltd as The Trustee for BWF Trust,Bango 973 Wind Farm,Wind,155.0,26.84,Bango 973 Wind Farm,-34.551582,148.732808,2026-02-16T13:36:32.301987
2026/02/16 23:40:00,BANGOWF2,19.0,BWF Nominees Pty Ltd as The Trustee for BWF Trust,Bango 999 Wind Farm,Wind,82.0,23.17,Bango 999 Wind Farm,-34.551582,148.732808,2026-02-16T13:36:32.301987
2026/02/16 23:40:00,BLUFF1,37.9,AGL SA Generation Pty Limited,The Bluff Wind Farm,Wind,53.0,71.51,The Bluff Wind Farm,-33.367778,138.728611,2026-02-16T13:36:32.301987
2026/02/16 23:40:00,BOCORWF1,19.09,Boco Rock Wind Farm Pty Ltd,Boco Rock Wind Farm,Wind,111.0,17.2,Boco Rock Wind Farm,-36.578611,149.103333,2026-02-16T13:36:32.301987
2026/02/16 23:40:00,BRYB1WF1,143.79,Berrybank Development Pty Ltd,Berrybank Wind Farm,Wind,175.9,81.75,Berrybank Wind Farm,-37.94,143.52,2026-02-16T13:36:32.301987
2026/02/16 23:40:00,BRYB2WF2,91.03,Berrybank 2 Asset Pty Ltd as trustee for Berrybank 2 Asset Trust,Berrybank 2 Wind Farm,Wind,105.0,86.7,Berrybank 2 Wind Farm,-37.94,143.52,2026-02-16T13:36:32.301987
2026/02/16 23:40:00,BULGANA1,128.02,Bulgana Wind Farm Pty Ltd,Bulgana Green Power Hub,Wind,204.0,62.75,Bulgana Green Power Hub,-37.0975,142.973611,2026-02-16T13:36:32.301987
2026/02/16 23:40:00,CATHROCK,8.7,Cathedral Rocks Wind Farm Pty Ltd,Cathedral Rocks,Wind,66.0,13.18,Cathedral Rocks,-34.51,135.35,2026-02-16T13:36:32.301987
2026/02/16 23:40:00,CHYTWF1,7.81,Cherry Tree Wind Farm Pty Ltd as trustee for The Cherry Tree Project trust ,Cherry Tree Wind Farm,Wind,57.0,13.7,Cherry Tree Wind Farm,-37.1,145.26,2026-02-16T13:36:32.301987
2026/02/16 23:40:00,CLEMGPWF,33.35,Pacific Hydro Clements Gap Pty Ltd,Clements Gap Wind Farm,Wind,57.0,58.51,Clements Gap Wind Farm,-33.48,138.1,2026-02-16T13:36:32.301987
2026/02/16 23:40:00,CLRKCWF1,212.24,Stanwell Corporation Limited ,Clarke Creek Wind Farm,Wind,338.0,62.79,Clarke Creek Wind Farm,-22.85,149.45,2026-02-16T13:36:32.301987
2026/02/16 23:40:00,CLRKCWF2,64.65,Stanwell Corporation Limited ,Clarke Creek Wind Farm,Wind,101.0,64.01,Clarke Creek Wind Farm,-22.85,149.45,2026-02-16T13:36:32.301987
2026/02/16 23:40:00,CNUNDAWF,27.63,Canunda Power Pty Ltd,Canunda Wind Farm,Wind,46.0,60.07,Canunda Wind Farm,-37.73,140.39,2026-02-16T13:36:32.301987
2026/02/16 23:40:00,COLWF01,27.39,Collector Wind Farm Pty Ltd,Collector Wind Farm 1,Wind,219.0,12.51,Collector Wind Farm 1,-34.8719,149.3967,2026-02-16T13:36:32.301987
2026/02/16 23:40:00,COOPGWF1,309.33,PARF Company 10 Pty Limited as The Trustee for Coopers Gap Project Trust,Coopers Gap Wind Farm,Wind,440.0,70.3,Coopers Gap Wind Farm,-26.74,151.45,2026-02-16T13:36:32.301987
2026/02/16 23:40:00,CROOKWF2,43.22,Crookwell Development Pty Ltd ,Crookwell 2 Wind Farm,Wind,91.0,47.49,Crookwell 2 Wind Farm,-34.52,149.54,2026-02-16T13:36:32.301987
2026/02/16 23:40:00,CROOKWF3,24.81,Crookwell 3 Development Pty Ltd,Crookwell 3 Wind Farm,Wind,56.0,44.3,Crookwell 3 Wind Farm,-34.52,149.54,2026-02-16T13:36:32.301987
2026/02/16 23:40:00,CROWLWF1,59.23,Pacific Hydro Crowlands Pty Ltd ,Crowlands Wind Farm,Wind,79.0,74.97,Crowlands Wind Farm,-37.13,143.16,2026-02-16T13:36:32.301987
2026/02/16 23:40:00,CRURWF1,87.1,CRWF Nominees Pty Ltd As Trustee For The CRWF Trust,Crudine Ridge Wind Farm,Wind,138.0,63.12,Crudine Ridge Wind Farm,-32.97,149.64,2026-02-16T13:36:32.301987
2026/02/16 23:40:00,CTHLWF1,83.63,Wild Cattle Hill Pty Ltd,Cattle Hill Wind Farm,Wind,144.0,58.08,Cattle Hill Wind Farm,-42.15,146.69,2026-02-16T13:36:32.301987
2026/02/16 23:40:00,DULAWF1,136.5,Dulacca Energy Project Co Pty Ltd,Dulacca Wind Farm,Wind,173.0,78.9,Dulacca Wind Farm,-26.63,149.87,2026-02-16T13:36:32.301987
2026/02/16 23:40:00,DUNDWF1,153.74,Dundonnell Wind Farm Pty Ltd,Dundonnell Wind Farm,Wind,168.0,91.51,Dundonnell Wind Farm,-37.52,142.58,2026-02-16T13:36:32.301987
2026/02/16 23:40:00,DUNDWF2,34.09,Dundonnell Wind Farm Pty Ltd,Dundonnell Wind Farm,Wind,46.0,74.11,Dundonnell Wind Farm,-37.52,142.58,2026-02-16T13:36:32.301987
2026/02/16 23:40:00,DUNDWF3,114.82,Dundonnell Wind Farm Pty Ltd,Dundonnell Wind Farm,Wind,122.0,94.11,Dundonnell Wind Farm,-37.52,142.58,2026-02-16T13:36:32.301987
2026/02/16 23:40:00,ELAINWF1,52.21,Lal Lal Wind Farms Nom Co Pty Ltd,Elaine Wind Farm,Wind,82.0,63.67,Elaine Wind Farm,-37.36,144.0,2026-02-16T13:36:32.301987
2026/02/16 23:40:00,FLYCRKWF,59.67,Iberdrola Australia Energy Markets Pty Limited,Flyers Creek Wind Farm,Wind,140.0,42.62,Flyers Creek Wind Farm,-33.365556,148.981944,2026-02-16T13:36:32.301987
2026/02/16 23:40:00,GPWFEST1,200.67,Golden Plains WF1 Pty Ltd as Trustee for the Golden Plains WF1 Unit Trust,Golden Plains Wind Farm East,Wind,240.0,83.61,Golden Plains Wind Farm East,-37.945091,143.752614,2026-02-16T13:36:32.301987
2026/02/16 23:40:00,GPWFEST2,214.46,Golden Plains WF1 Pty Ltd as Trustee for the Golden Plains WF1 Unit Trust,Golden Plains Wind Farm East,Wind,253.0,84.77,Golden Plains Wind Farm East,-37.945091,143.752614,2026-02-16T13:36:32.301987
2026/02/16 23:40:00,GPWFEST3,199.21,Golden Plains WF1 Pty Ltd as Trustee for the Golden Plains WF1 Unit Trust,Golden Plains Wind Farm East,Wind,240.0,83.0,Golden Plains Wind Farm East,-37.945091,143.752614,2026-02-16T13:36:32.301987
2026/02/16 23:40:00,GRANWF1,0.0,Granville Harbour Operations Pty Ltd as The Trustee for Granville Harbour Operations Trust,Granville Harbour Wind Farm,Wind,111.0,0.0,Granville Harbour Wind Farm,-41.8,145.06,2026-02-16T13:36:32.301987
2026/02/16 23:40:00,GSWF1A,134.6,Goyder Wind Farm 1 Pty Ltd as the Trustee for Goyder Wind Farm 1 Trust,Goyder South Wind Farm 1A,Wind,201.0,66.97,Goyder South Wind Farm 1A,-33.679758,138.937597,2026-02-16T13:36:32.301987
2026/02/16 23:40:00,GSWF1B1,127.51,Goyder Wind Farm 1B Pty Ltd as the Trustee for the Goyder Wind Farm 1B Trust,Goyder South Wind Farm 1B,Wind,196.0,65.06,Goyder South Wind Farm 1B,-33.679758,138.937597,2026-02-16T13:36:32.301987
2026/02/16 23:40:00,GULLRWF1,46.28,New Gullen Range Wind Farm Pty Ltd,Gullen Range Wind Farm,Wind,161.0,28.75,Gullen Range Wind Farm,-34.34,149.27,2026-02-16T13:36:32.301987
2026/02/16 23:40:00,GULLRWF2,49.56,New Gullen Range Wind Farm Pty Ltd,Gullen Range Wind Farm,Wind,107.0,46.32,Gullen Range Wind Farm,-34.34,149.27,2026-02-16T13:36:32.301987
2026/02/16 23:40:00,GUNNING1,22.71,Gunning Wind Energy Developments Pty Ltd,Gunning Wind Farm,Wind,47.0,48.32,Gunning Wind Farm,-34.813333,149.4,2026-02-16T13:36:32.301987
2026/02/16 23:40:00,HALLWF1,59.14,AGL SA Generation Pty Limited,Hallett 1 Wind Farm,Wind,95.0,62.25,Hallett 1 Wind Farm,-33.367778,138.728611,2026-02-16T13:36:32.301987
2026/02/16 23:40:00,HALLWF2,54.1,AGL SA Generation Pty Limited,Hallett 2 Wind Farm,Wind,71.0,76.2,Hallett 2 Wind Farm,-33.367778,138.728611,2026-02-16T13:36:32.301987
2026/02/16 23:40:00,HD1WF1,32.33,Hawkesdale Asset Pty Ltd as trustee for Hawkesdale Asset Trust,Hawkesdale Wind Farm,Wind,89.0,36.33,Hawkesdale Wind Farm,-38.147894,142.361381,2026-02-16T13:36:32.301987
2026/02/16 23:40:00,HDWF1,81.7,HWF1 Pty Ltd,Hornsdale Wind Farm,Wind,102.0,80.1,Hornsdale Wind Farm,-33.050556,138.543611,2026-02-16T13:36:32.301987
2026/02/16 23:40:00,HDWF2,80.1,HWF 2 Pty Ltd,Hornsdale Wind Farm 2,Wind,102.0,78.53,Hornsdale Wind Farm 2,-33.06,138.54,2026-02-16T13:36:32.301987
2026/02/16 23:40:00,HDWF3,84.6,HWF3 Pty Ltd,Hornsdale Wind Farm 3,Wind,109.0,77.61,Hornsdale Wind Farm 3,-33.06,138.54,2026-02-16T13:36:32.301987
2026/02/16 23:40:00,KABANWF1,1.61,Kaban Wind Farm Pty Ltd as trustee for Kaban Wind Farm Trust,Kaban Wind Farm,Wind,152.0,1.06,Kaban Wind Farm,-17.56,145.41,2026-02-16T13:36:32.301987
2026/02/16 23:40:00,KEPWF1,16.6,Kennedy Energy Park Pty Ltd,Kennedy Energy Park,Wind,43.0,38.6,Kennedy Energy Park,-20.88,144.42,2026-02-16T13:36:32.301987
2026/02/16 23:40:00,KIATAWF1,30.8,Kiata ProjectCo Pty Ltd Atf Kiata Project Trust,Kiata Wind Farm,Wind,31.0,99.35,Kiata Wind Farm,-36.4,141.75,2026-02-16T13:36:32.301987
2026/02/16 23:40:00,LGAPWF1,65.53,Lincoln Gap Wind Farm (Operations) Pty Ltd,Lincoln Gap Wind Farm,Wind,123.0,53.28,Lincoln Gap Wind Farm,-32.564279,137.557328,2026-02-16T13:36:32.301987
2026/02/16 23:40:00,LGAPWF1,65.53,Lincoln Gap Wind Farm (Operations) Pty Ltd,Lincoln Gap Wind Farm,Wind,123.0,53.28,Lincoln Gap Wind Farm,-32.564279,137.557328,2026-02-16T13:36:32.301987
2026/02/16 23:40:00,LGAPWF2,73.53,Lincoln Gap Wind Farm (Operations) Pty Ltd,Lincoln Gap Wind Farm,Wind,85.0,86.51,Lincoln Gap Wind Farm,-32.564279,137.557328,2026-02-16T13:36:32.301987
2026/02/16 23:40:00,LGAPWF2,73.53,Lincoln Gap Wind Farm (Operations) Pty Ltd,Lincoln Gap Wind Farm,Wind,85.0,86.51,Lincoln Gap Wind Farm,-32.564279,137.557328,2026-02-16T13:36:32.301987
2026/02/16 23:40:00,LKBONNY1,49.83,Lake Bonney Wind Power Pty Ltd,Lake Bonney Wind Farm Stage 1,Wind,81.0,61.52,Lake Bonney Wind Farm Stage 1,-37.76,140.4,2026-02-16T13:36:32.301987
2026/02/16 23:40:00,LKBONNY2,94.43,Lake Bonney Wind Power Pty Ltd,Lake Bonney Stage 2 Windfarm,Wind,159.0,59.39,Lake Bonney Stage 2 Windfarm,-37.76,140.4,2026-02-16T13:36:32.301987
2026/02/16 23:40:00,LKBONNY3,25.73,Lake Bonney Wind Power Pty Ltd,Lake Bonney Stage 3 Wind Farm,Wind,39.0,65.97,Lake Bonney Stage 3 Wind Farm,-37.737781,140.388137,2026-02-16T13:36:32.301987
2026/02/16 23:40:00,MACARTH1,35.4,AGL Hydro Partnership,Macarthur Wind Farm,Wind,420.0,8.43,Macarthur Wind Farm,-38.048957,142.192112,2026-02-16T13:36:32.301987
2026/02/16 23:40:00,MCINTYR1,367.28,MacIntyre UJV Operator Pty Ltd,MacIntyre Wind Farm,Wind,890.0,41.27,MacIntyre Wind Farm,-28.32,151.54,2026-02-16T13:36:32.301987
2026/02/16 23:40:00,MERCER01,70.3,Mt Mercer Windfarm Pty Ltd,Mt Mercer Wind Farm,Wind,131.0,53.66,Mt Mercer Wind Farm,-37.841111,143.871111,2026-02-16T13:36:32.301987
2026/02/16 23:40:00,MEWF1,0.0,Ergon Energy Queensland Pty Ltd ,Mount Emerald Wind Farm,Wind,178.0,0.0,Mount Emerald Wind Farm,-17.133007,145.380644,2026-02-16T13:36:32.301987
2026/02/16 23:40:00,MRTLSWF1,57.28,Mortlake South Wind Farm Pty Ltd,Mortlake South Wind Farm,Wind,153.0,37.44,Mortlake South Wind Farm,-38.127337,142.857801,2026-02-16T13:36:32.301987
2026/02/16 23:40:00,MTGELWF1,24.74,Mt. Gellibrand Wind Farm Pty Ltd,Mt Gellibrand Wind Farm,Wind,132.0,18.74,Mt Gellibrand Wind Farm,-38.23,143.77,2026-02-16T13:36:32.301987
2026/02/16 23:40:00,MTMILLAR,54.2,Mt Millar Wind Farm Pty Ltd,Mt Millar Wind Farm,Wind,70.0,77.43,Mt Millar Wind Farm,-33.624444,136.703611,2026-02-16T13:36:32.301987
2026/02/16 23:40:00,MUSSELR1,32.9,Hydro-Electric Corporation,Musselroe Wind Farm,Wind,168.0,19.58,Musselroe Wind Farm,-40.780225,148.010799,2026-02-16T13:36:32.301987
2026/02/16 23:40:00,MUWAWF1,203.07,Telstra Energy (Generation) Pty Ltd,Murra Warra Wind Farm,Wind,225.7,89.97,Murra Warra Wind Farm,-36.432404,142.317853,2026-02-16T13:36:32.301987
2026/02/16 23:40:00,MUWAWF2,168.1,Murra Warra II Project Co Pty Ltd ATF The Murra Warra II Project Trust,Murra Warra Wind Farm Stage 2,Wind,203.0,82.81,Murra Warra Wind Farm Stage 2,-36.43,142.32,2026-02-16T13:36:32.301987
2026/02/16 23:40:00,NBHWF1,97.5,AGL SA Generation Pty Limited,North Brown Hill Wind Farm,Wind,132.0,73.86,North Brown Hill Wind Farm,-33.367778,138.728611,2026-02-16T13:36:32.301987
2026/02/16 23:40:00,OAKLAND1,59.7,AGL Hydro Partnership,Oaklands Hill Wind Farm,Wind,63.0,94.76,Oaklands Hill Wind Farm,-37.683078,142.551678,2026-02-16T13:36:32.301987
2026/02/16 23:40:00,PAREPW1,177.21,Iberdrola Australia Energy Markets Pty Limited,Port Augusta Renewable Energy Park,Wind,201.0,88.16,Port Augusta Renewable Energy Park,-32.566944,137.856111,2026-02-16T13:36:32.301987
2026/02/16 23:40:00,RYANCWF1,8.73,Ryan Corner Development Pty Ltd,Ryan Corner Wind Farm,Wind,205.0,4.26,Ryan Corner Wind Farm,-38.271017,142.140647,2026-02-16T13:36:32.301987
2026/02/16 23:40:00,RYEPARK1,112.42,Rye Park Renewable Energy Pty Ltd as trustee for Rye Park Wind Farm Trust,Rye Park Renewable Energy,Wind,384.0,29.28,Rye Park Renewable Energy,-32.138333,148.972778,2026-02-16T13:36:32.301987
2026/02/16 23:40:00,SALTCRK1,42.1,Salt Creek Wind Farm Pty Ltd,Salt Creek Wind Farm,Wind,54.0,77.96,Salt Creek Wind Farm,-37.95,142.63,2026-02-16T13:36:32.301987
2026/02/16 23:40:00,SAPHWF1,261.98,The Trustee For The SWF1 Operations Trust,Sapphire Wind Farm,Wind,270.0,97.03,Sapphire Wind Farm,-29.7,151.41,2026-02-16T13:36:32.301987
2026/02/16 23:40:00,SNOWNTH1,127.5,Snowtown Wind Farm Stage 2 Pty Ltd,Snowtown Wind Farm Stage 2 North,Wind,144.0,88.54,Snowtown Wind Farm Stage 2 North,-33.83,138.118611,2026-02-16T13:36:32.301987
2026/02/16 23:40:00,SNOWSTH1,120.7,Snowtown Wind Farm Stage 2 Pty Ltd,Snowtown South Wind Farm,Wind,126.0,95.79,Snowtown South Wind Farm,-33.83,138.118611,2026-02-16T13:36:32.301987
2026/02/16 23:40:00,SNOWTWN1,86.86,Snowtown Wind Farm Pty Ltd,Snowtown Wind Farm Units 1 And 47,Wind,99.0,87.74,Snowtown Wind Farm Units 1 And 47,-33.83,138.118611,2026-02-16T13:36:32.301987
2026/02/16 23:40:00,STARHLWF,8.0,Starfish Hill Wind Farm Pty Ltd,Starfish Hill Wind Farm,Wind,35.0,22.86,Starfish Hill Wind Farm,-35.58,138.14,2026-02-16T13:36:32.301987
2026/02/16 23:40:00,STOCKYD1,479.1,Stockyard Hill Wind Farm Pty Ltd,Stockyard Hill Wind Farm,Wind,511.0,93.76,Stockyard Hill Wind Farm,-37.535833,143.251389,2026-02-16T13:36:32.301987
2026/02/16 23:40:00,STWF1,52.77,PARF Company 8 Pty Ltd as The Trustee for Silverton Project Trust,Silverton Wind Farm,Wind,198.0,26.65,Silverton Wind Farm,-37.683168,142.551678,2026-02-16T13:36:32.301987
2026/02/16 23:40:00,TARALGA1,15.27,Taralga Wind Farm Nominees No 2 Pty Ltd (ATF Taralga Wind Farm Operating Trust),Taralga Wind Farm,Wind,106.0,14.41,Taralga Wind Farm,-34.42352,149.826267,2026-02-16T13:36:32.301987
2026/02/16 23:40:00,WAMBOWF1,162.52,Stanwell Corporation Limited,Wambo Wind Farm 1,Wind,245.0,66.33,Wambo Wind Farm 1,-35.187301,149.524945,2026-02-16T13:36:32.301987
2026/02/16 23:40:00,WATERLWF,35.6,Waterloo Wind Farm Pty Ltd,Waterloo Wind Farm,Wind,130.0,27.38,Waterloo Wind Farm,-34.00094,138.911567,2026-02-16T13:36:32.301987
2026/02/16 23:40:00,WGWF1,97.9,Willogoleche Power Pty Ltd As The Trustee For The Willogoleche Operating Trust,Willogoleche Wind Farm,Wind,119.0,82.27,Willogoleche Wind Farm,-33.39,138.85,2026-02-16T13:36:32.301987
2026/02/16 23:40:00,WOODLWN1,17.18,Woodlawn Wind Pty Ltd,Woodlawn Wind Farm,Wind,48.0,35.79,Woodlawn Wind Farm,-35.08,149.62,2026-02-16T13:36:32.301987
2026/02/16 23:40:00,WPWF,16.49,AGL SA Generation Pty Limited,Wattle Point Wind Farm,Wind,91.0,18.12,Wattle Point Wind Farm,-35.111624,137.7219,2026-02-16T13:36:32.301987
2026/02/16 23:40:00,WRWF1,162.92,White Rock Wind Farm Pty Ltd,White Rock Wind Farm,Wind,172.0,94.72,White Rock Wind Farm,-29.79,151.54,2026-02-16T13:36:32.301987
2026/02/16 23:40:00,YENDWF1,85.85,Lal Lal Wind Farms Nom Co Pty Ltd,Yendon Wind Farm,Wind,142.0,60.46,Yendon Wind Farm,-37.629987,144.022717,2026-02-16T13:36:32.301987
