SETTLEMENTDATE,DUID,SCADAVALUE,Participant,Station Name,Fuel Source - Primary,MAX_CAP,utilisation_pct,Plant,Latitude,Longitude,timestamp_utc
2026/03/02 06:00:00,CAPTL_WF,6.03,Iberdrola Australia Holdings Pty Limited,Capital Wind Farm,Wind,140.0,4.31,Capital Wind Farm,-35.1,149.31,2026-03-01T20:00:23.252805
2026/03/02 06:00:00,CHALLHWF,2.2,Pacific Hydro Challicum Hills Pty Ltd,Challicum Hills Wind Farm,Wind,52.0,4.23,Challicum Hills Wind Farm,-37.38,143.11,2026-03-01T20:00:23.252805
2026/03/02 06:00:00,CULLRGWF,4.28,Cullerin Range Wind Farm Pty Ltd,Cullerin Range Wind Farm,Wind,30.0,14.27,Cullerin Range Wind Farm,-34.81,149.4,2026-03-01T20:00:23.252805
2026/03/02 06:00:00,DIAPURWF1,4.5,Y.E.S. Energy (SA) Pty Ltd,Diapur Wind Farm,Wind,7.0,64.29,Diapur Wind Farm,-36.3425,141.43,2026-03-01T20:00:23.252805
2026/03/02 06:00:00,MLWF1,8.02,Mortons Lane Windfarm Pty Limited,Mortons Lane Wind Farm,Wind,20.0,40.1,Mortons Lane Wind Farm,-37.84,142.45,2026-03-01T20:00:23.252805
2026/03/02 06:00:00,WAUBRAWF,55.47,Pyrenees Wind Energy Developments Pty Ltd,Waubra Wind Farm,Wind,192.0,28.89,Waubra Wind Farm,-37.394498,143.638982,2026-03-01T20:00:23.252805
2026/03/02 06:00:00,WOOLNTH1,19.39,Hydro-Electric Corporation,Woolnorth Studland Bay / Bluff Point Wind Farm,Wind,140.0,13.85,Woolnorth Studland Bay / Bluff Point Wind Farm,-40.69,144.72,2026-03-01T20:00:23.252805
2026/03/02 06:00:00,YAMBUKWF,13.7,Energy Pacific (Vic) Pty Ltd,Yambuk Wind Farm,Wind,30.0,45.67,Yambuk Wind Farm,-38.299083,142.027577,2026-03-01T20:00:23.252805
2026/03/02 06:00:00,YSWF1,3.2,Pacific Hydro Yaloak South Pty Ltd,Yaloak South Wind Farm,Wind,28.0,11.43,Yaloak South Wind Farm,-37.7163,144.242853,2026-03-01T20:00:23.252805
2026/03/02 06:00:00,ARWF1,49.7,Ararat Wind Farm Pty Ltd,Ararat Wind Farm,Wind,241.0,20.62,Ararat Wind Farm,-37.232778,143.031389,2026-03-01T20:00:23.252805
2026/03/02 06:00:00,BALDHWF1,3.38,Alinta Energy Retail Sales Pty Ltd,Bald Hills Wind Farm,Wind,106.0,3.19,Bald Hills Wind Farm,-38.79,145.93,2026-03-01T20:00:23.252805
2026/03/02 06:00:00,BANGOWF1,13.8,BWF Nominees Pty Ltd as The Trustee for BWF Trust,Bango 973 Wind Farm,Wind,155.0,8.9,Bango 973 Wind Farm,-34.551582,148.732808,2026-03-01T20:00:23.252805
2026/03/02 06:00:00,BANGOWF2,16.9,BWF Nominees Pty Ltd as The Trustee for BWF Trust,Bango 999 Wind Farm,Wind,82.0,20.61,Bango 999 Wind Farm,-34.551582,148.732808,2026-03-01T20:00:23.252805
2026/03/02 06:00:00,BLUFF1,18.9,AGL SA Generation Pty Limited,The Bluff Wind Farm,Wind,53.0,35.66,The Bluff Wind Farm,-33.367778,138.728611,2026-03-01T20:00:23.252805
2026/03/02 06:00:00,BOCORWF1,101.55,Boco Rock Wind Farm Pty Ltd,Boco Rock Wind Farm,Wind,111.0,91.49,Boco Rock Wind Farm,-36.578611,149.103333,2026-03-01T20:00:23.252805
2026/03/02 06:00:00,BRYB1WF1,16.46,Berrybank Development Pty Ltd,Berrybank Wind Farm,Wind,175.9,9.36,Berrybank Wind Farm,-37.94,143.52,2026-03-01T20:00:23.252805
2026/03/02 06:00:00,BRYB2WF2,11.83,Berrybank 2 Asset Pty Ltd as trustee for Berrybank 2 Asset Trust,Berrybank 2 Wind Farm,Wind,105.0,11.27,Berrybank 2 Wind Farm,-37.94,143.52,2026-03-01T20:00:23.252805
2026/03/02 06:00:00,BULGANA1,20.41,Bulgana Wind Farm Pty Ltd,Bulgana Green Power Hub,Wind,204.0,10.0,Bulgana Green Power Hub,-37.0975,142.973611,2026-03-01T20:00:23.252805
2026/03/02 06:00:00,CATHROCK,30.1,Cathedral Rocks Wind Farm Pty Ltd,Cathedral Rocks,Wind,66.0,45.61,Cathedral Rocks,-34.51,135.35,2026-03-01T20:00:23.252805
2026/03/02 06:00:00,CHYTWF1,37.04,Cherry Tree Wind Farm Pty Ltd as trustee for The Cherry Tree Project trust ,Cherry Tree Wind Farm,Wind,57.0,64.98,Cherry Tree Wind Farm,-37.1,145.26,2026-03-01T20:00:23.252805
2026/03/02 06:00:00,CLEMGPWF,40.41,Pacific Hydro Clements Gap Pty Ltd,Clements Gap Wind Farm,Wind,57.0,70.89,Clements Gap Wind Farm,-33.48,138.1,2026-03-01T20:00:23.252805
2026/03/02 06:00:00,CLRKCWF1,252.01,Stanwell Corporation Limited ,Clarke Creek Wind Farm,Wind,338.0,74.56,Clarke Creek Wind Farm,-22.85,149.45,2026-03-01T20:00:23.252805
2026/03/02 06:00:00,CLRKCWF2,81.33,Stanwell Corporation Limited ,Clarke Creek Wind Farm,Wind,101.0,80.52,Clarke Creek Wind Farm,-22.85,149.45,2026-03-01T20:00:23.252805
2026/03/02 06:00:00,CNUNDAWF,23.93,Canunda Power Pty Ltd,Canunda Wind Farm,Wind,46.0,52.02,Canunda Wind Farm,-37.73,140.39,2026-03-01T20:00:23.252805
2026/03/02 06:00:00,COLWF01,12.38,Collector Wind Farm Pty Ltd,Collector Wind Farm 1,Wind,219.0,5.65,Collector Wind Farm 1,-34.8719,149.3967,2026-03-01T20:00:23.252805
2026/03/02 06:00:00,COOPGWF1,311.12,PARF Company 10 Pty Limited as The Trustee for Coopers Gap Project Trust,Coopers Gap Wind Farm,Wind,440.0,70.71,Coopers Gap Wind Farm,-26.74,151.45,2026-03-01T20:00:23.252805
2026/03/02 06:00:00,CROOKWF2,24.07,Crookwell Development Pty Ltd ,Crookwell 2 Wind Farm,Wind,91.0,26.45,Crookwell 2 Wind Farm,-34.52,149.54,2026-03-01T20:00:23.252805
2026/03/02 06:00:00,CROOKWF3,16.64,Crookwell 3 Development Pty Ltd,Crookwell 3 Wind Farm,Wind,56.0,29.71,Crookwell 3 Wind Farm,-34.52,149.54,2026-03-01T20:00:23.252805
2026/03/02 06:00:00,CROWLWF1,5.67,Pacific Hydro Crowlands Pty Ltd ,Crowlands Wind Farm,Wind,79.0,7.18,Crowlands Wind Farm,-37.13,143.16,2026-03-01T20:00:23.252805
2026/03/02 06:00:00,CRURWF1,26.0,CRWF Nominees Pty Ltd As Trustee For The CRWF Trust,Crudine Ridge Wind Farm,Wind,138.0,18.84,Crudine Ridge Wind Farm,-32.97,149.64,2026-03-01T20:00:23.252805
2026/03/02 06:00:00,CTHLWF1,39.44,Wild Cattle Hill Pty Ltd,Cattle Hill Wind Farm,Wind,144.0,27.39,Cattle Hill Wind Farm,-42.15,146.69,2026-03-01T20:00:23.252805
2026/03/02 06:00:00,DULAWF1,170.1,Dulacca Energy Project Co Pty Ltd,Dulacca Wind Farm,Wind,173.0,98.32,Dulacca Wind Farm,-26.63,149.87,2026-03-01T20:00:23.252805
2026/03/02 06:00:00,DUNDWF1,7.87,Dundonnell Wind Farm Pty Ltd,Dundonnell Wind Farm,Wind,168.0,4.68,Dundonnell Wind Farm,-37.52,142.58,2026-03-01T20:00:23.252805
2026/03/02 06:00:00,DUNDWF2,2.11,Dundonnell Wind Farm Pty Ltd,Dundonnell Wind Farm,Wind,46.0,4.59,Dundonnell Wind Farm,-37.52,142.58,2026-03-01T20:00:23.252805
2026/03/02 06:00:00,DUNDWF3,10.84,Dundonnell Wind Farm Pty Ltd,Dundonnell Wind Farm,Wind,122.0,8.89,Dundonnell Wind Farm,-37.52,142.58,2026-03-01T20:00:23.252805
2026/03/02 06:00:00,ELAINWF1,52.18,Lal Lal Wind Farms Nom Co Pty Ltd,Elaine Wind Farm,Wind,82.0,63.63,Elaine Wind Farm,-37.36,144.0,2026-03-01T20:00:23.252805
2026/03/02 06:00:00,FLYCRKWF,63.78,Iberdrola Australia Energy Markets Pty Limited,Flyers Creek Wind Farm,Wind,140.0,45.56,Flyers Creek Wind Farm,-33.365556,148.981944,2026-03-01T20:00:23.252805
2026/03/02 06:00:00,GPWFEST1,12.71,Golden Plains WF1 Pty Ltd as Trustee for the Golden Plains WF1 Unit Trust,Golden Plains Wind Farm East,Wind,240.0,5.3,Golden Plains Wind Farm East,-37.945091,143.752614,2026-03-01T20:00:23.252805
2026/03/02 06:00:00,GPWFEST2,25.34,Golden Plains WF1 Pty Ltd as Trustee for the Golden Plains WF1 Unit Trust,Golden Plains Wind Farm East,Wind,253.0,10.02,Golden Plains Wind Farm East,-37.945091,143.752614,2026-03-01T20:00:23.252805
2026/03/02 06:00:00,GPWFEST3,26.78,Golden Plains WF1 Pty Ltd as Trustee for the Golden Plains WF1 Unit Trust,Golden Plains Wind Farm East,Wind,240.0,11.16,Golden Plains Wind Farm East,-37.945091,143.752614,2026-03-01T20:00:23.252805
2026/03/02 06:00:00,GRANWF1,42.73,Granville Harbour Operations Pty Ltd as The Trustee for Granville Harbour Operations Trust,Granville Harbour Wind Farm,Wind,111.0,38.5,Granville Harbour Wind Farm,-41.8,145.06,2026-03-01T20:00:23.252805
2026/03/02 06:00:00,GSWF1A,116.45,Goyder Wind Farm 1 Pty Ltd as the Trustee for Goyder Wind Farm 1 Trust,Goyder South Wind Farm 1A,Wind,201.0,57.94,Goyder South Wind Farm 1A,-33.679758,138.937597,2026-03-01T20:00:23.252805
2026/03/02 06:00:00,GSWF1B1,132.56,Goyder Wind Farm 1B Pty Ltd as the Trustee for the Goyder Wind Farm 1B Trust,Goyder South Wind Farm 1B,Wind,196.0,67.63,Goyder South Wind Farm 1B,-33.679758,138.937597,2026-03-01T20:00:23.252805
2026/03/02 06:00:00,GULLRWF1,18.25,New Gullen Range Wind Farm Pty Ltd,Gullen Range Wind Farm,Wind,161.0,11.34,Gullen Range Wind Farm,-34.34,149.27,2026-03-01T20:00:23.252805
2026/03/02 06:00:00,GULLRWF2,9.83,New Gullen Range Wind Farm Pty Ltd,Gullen Range Wind Farm,Wind,107.0,9.19,Gullen Range Wind Farm,-34.34,149.27,2026-03-01T20:00:23.252805
2026/03/02 06:00:00,GUNNING1,7.85,Gunning Wind Energy Developments Pty Ltd,Gunning Wind Farm,Wind,47.0,16.7,Gunning Wind Farm,-34.813333,149.4,2026-03-01T20:00:23.252805
2026/03/02 06:00:00,HALLWF1,42.06,AGL SA Generation Pty Limited,Hallett 1 Wind Farm,Wind,95.0,44.27,Hallett 1 Wind Farm,-33.367778,138.728611,2026-03-01T20:00:23.252805
2026/03/02 06:00:00,HALLWF2,35.81,AGL SA Generation Pty Limited,Hallett 2 Wind Farm,Wind,71.0,50.44,Hallett 2 Wind Farm,-33.367778,138.728611,2026-03-01T20:00:23.252805
2026/03/02 06:00:00,HD1WF1,37.59,Hawkesdale Asset Pty Ltd as trustee for Hawkesdale Asset Trust,Hawkesdale Wind Farm,Wind,89.0,42.24,Hawkesdale Wind Farm,-38.147894,142.361381,2026-03-01T20:00:23.252805
2026/03/02 06:00:00,HDWF1,47.4,HWF1 Pty Ltd,Hornsdale Wind Farm,Wind,102.0,46.47,Hornsdale Wind Farm,-33.050556,138.543611,2026-03-01T20:00:23.252805
2026/03/02 06:00:00,HDWF2,48.5,HWF 2 Pty Ltd,Hornsdale Wind Farm 2,Wind,102.0,47.55,Hornsdale Wind Farm 2,-33.06,138.54,2026-03-01T20:00:23.252805
2026/03/02 06:00:00,HDWF3,56.2,HWF3 Pty Ltd,Hornsdale Wind Farm 3,Wind,109.0,51.56,Hornsdale Wind Farm 3,-33.06,138.54,2026-03-01T20:00:23.252805
2026/03/02 06:00:00,KABANWF1,21.43,Kaban Wind Farm Pty Ltd as trustee for Kaban Wind Farm Trust,Kaban Wind Farm,Wind,152.0,14.1,Kaban Wind Farm,-17.56,145.41,2026-03-01T20:00:23.252805
2026/03/02 06:00:00,KEPWF1,41.8,Kennedy Energy Park Pty Ltd,Kennedy Energy Park,Wind,43.0,97.21,Kennedy Energy Park,-20.88,144.42,2026-03-01T20:00:23.252805
2026/03/02 06:00:00,KIATAWF1,3.7,Kiata ProjectCo Pty Ltd Atf Kiata Project Trust,Kiata Wind Farm,Wind,31.0,11.94,Kiata Wind Farm,-36.4,141.75,2026-03-01T20:00:23.252805
2026/03/02 06:00:00,LGAPWF1,41.01,Lincoln Gap Wind Farm (Operations) Pty Ltd,Lincoln Gap Wind Farm,Wind,123.0,33.34,Lincoln Gap Wind Farm,-32.564279,137.557328,2026-03-01T20:00:23.252805
2026/03/02 06:00:00,LGAPWF1,41.01,Lincoln Gap Wind Farm (Operations) Pty Ltd,Lincoln Gap Wind Farm,Wind,123.0,33.34,Lincoln Gap Wind Farm,-32.564279,137.557328,2026-03-01T20:00:23.252805
2026/03/02 06:00:00,LGAPWF2,68.05,Lincoln Gap Wind Farm (Operations) Pty Ltd,Lincoln Gap Wind Farm,Wind,85.0,80.06,Lincoln Gap Wind Farm,-32.564279,137.557328,2026-03-01T20:00:23.252805
2026/03/02 06:00:00,LGAPWF2,68.05,Lincoln Gap Wind Farm (Operations) Pty Ltd,Lincoln Gap Wind Farm,Wind,85.0,80.06,Lincoln Gap Wind Farm,-32.564279,137.557328,2026-03-01T20:00:23.252805
2026/03/02 06:00:00,LKBONNY1,44.21,Lake Bonney Wind Power Pty Ltd,Lake Bonney Wind Farm Stage 1,Wind,81.0,54.58,Lake Bonney Wind Farm Stage 1,-37.76,140.4,2026-03-01T20:00:23.252805
2026/03/02 06:00:00,LKBONNY2,68.07,Lake Bonney Wind Power Pty Ltd,Lake Bonney Stage 2 Windfarm,Wind,159.0,42.81,Lake Bonney Stage 2 Windfarm,-37.76,140.4,2026-03-01T20:00:23.252805
2026/03/02 06:00:00,LKBONNY3,11.95,Lake Bonney Wind Power Pty Ltd,Lake Bonney Stage 3 Wind Farm,Wind,39.0,30.64,Lake Bonney Stage 3 Wind Farm,-37.737781,140.388137,2026-03-01T20:00:23.252805
2026/03/02 06:00:00,MACARTH1,97.7,AGL Hydro Partnership,Macarthur Wind Farm,Wind,420.0,23.26,Macarthur Wind Farm,-38.048957,142.192112,2026-03-01T20:00:23.252805
2026/03/02 06:00:00,MCINTYR1,386.25,MacIntyre UJV Operator Pty Ltd,MacIntyre Wind Farm,Wind,890.0,43.4,MacIntyre Wind Farm,-28.32,151.54,2026-03-01T20:00:23.252805
2026/03/02 06:00:00,MERCER01,78.9,Mt Mercer Windfarm Pty Ltd,Mt Mercer Wind Farm,Wind,131.0,60.23,Mt Mercer Wind Farm,-37.841111,143.871111,2026-03-01T20:00:23.252805
2026/03/02 06:00:00,MEWF1,23.9,Ergon Energy Queensland Pty Ltd ,Mount Emerald Wind Farm,Wind,178.0,13.43,Mount Emerald Wind Farm,-17.133007,145.380644,2026-03-01T20:00:23.252805
2026/03/02 06:00:00,MRTLSWF1,3.28,Mortlake South Wind Farm Pty Ltd,Mortlake South Wind Farm,Wind,153.0,2.14,Mortlake South Wind Farm,-38.127337,142.857801,2026-03-01T20:00:23.252805
2026/03/02 06:00:00,MTGELWF1,8.7,Mt. Gellibrand Wind Farm Pty Ltd,Mt Gellibrand Wind Farm,Wind,132.0,6.59,Mt Gellibrand Wind Farm,-38.23,143.77,2026-03-01T20:00:23.252805
2026/03/02 06:00:00,MTMILLAR,36.0,Mt Millar Wind Farm Pty Ltd,Mt Millar Wind Farm,Wind,70.0,51.43,Mt Millar Wind Farm,-33.624444,136.703611,2026-03-01T20:00:23.252805
2026/03/02 06:00:00,MUSSELR1,80.9,Hydro-Electric Corporation,Musselroe Wind Farm,Wind,168.0,48.15,Musselroe Wind Farm,-40.780225,148.010799,2026-03-01T20:00:23.252805
2026/03/02 06:00:00,MUWAWF1,36.99,Telstra Energy (Generation) Pty Ltd,Murra Warra Wind Farm,Wind,225.7,16.39,Murra Warra Wind Farm,-36.432404,142.317853,2026-03-01T20:00:23.252805
2026/03/02 06:00:00,MUWAWF2,27.9,Murra Warra II Project Co Pty Ltd ATF The Murra Warra II Project Trust,Murra Warra Wind Farm Stage 2,Wind,203.0,13.74,Murra Warra Wind Farm Stage 2,-36.43,142.32,2026-03-01T20:00:23.252805
2026/03/02 06:00:00,NBHWF1,54.2,AGL SA Generation Pty Limited,North Brown Hill Wind Farm,Wind,132.0,41.06,North Brown Hill Wind Farm,-33.367778,138.728611,2026-03-01T20:00:23.252805
2026/03/02 06:00:00,OAKLAND1,0.0,AGL Hydro Partnership,Oaklands Hill Wind Farm,Wind,63.0,0.0,Oaklands Hill Wind Farm,-37.683078,142.551678,2026-03-01T20:00:23.252805
2026/03/02 06:00:00,PAREPW1,159.28,Iberdrola Australia Energy Markets Pty Limited,Port Augusta Renewable Energy Park,Wind,201.0,79.24,Port Augusta Renewable Energy Park,-32.566944,137.856111,2026-03-01T20:00:23.252805
2026/03/02 06:00:00,RYANCWF1,78.44,Ryan Corner Development Pty Ltd,Ryan Corner Wind Farm,Wind,205.0,38.26,Ryan Corner Wind Farm,-38.271017,142.140647,2026-03-01T20:00:23.252805
2026/03/02 06:00:00,RYEPARK1,84.9,Rye Park Renewable Energy Pty Ltd as trustee for Rye Park Wind Farm Trust,Rye Park Renewable Energy,Wind,384.0,22.11,Rye Park Renewable Energy,-32.138333,148.972778,2026-03-01T20:00:23.252805
2026/03/02 06:00:00,SALTCRK1,0.91,Salt Creek Wind Farm Pty Ltd,Salt Creek Wind Farm,Wind,54.0,1.69,Salt Creek Wind Farm,-37.95,142.63,2026-03-01T20:00:23.252805
2026/03/02 06:00:00,SAPHWF1,260.89,The Trustee For The SWF1 Operations Trust,Sapphire Wind Farm,Wind,270.0,96.63,Sapphire Wind Farm,-29.7,151.41,2026-03-01T20:00:23.252805
2026/03/02 06:00:00,SNOWNTH1,68.2,Snowtown Wind Farm Stage 2 Pty Ltd,Snowtown Wind Farm Stage 2 North,Wind,144.0,47.36,Snowtown Wind Farm Stage 2 North,-33.83,138.118611,2026-03-01T20:00:23.252805
2026/03/02 06:00:00,SNOWSTH1,68.8,Snowtown Wind Farm Stage 2 Pty Ltd,Snowtown South Wind Farm,Wind,126.0,54.6,Snowtown South Wind Farm,-33.83,138.118611,2026-03-01T20:00:23.252805
2026/03/02 06:00:00,SNOWTWN1,44.92,Snowtown Wind Farm Pty Ltd,Snowtown Wind Farm Units 1 And 47,Wind,99.0,45.37,Snowtown Wind Farm Units 1 And 47,-33.83,138.118611,2026-03-01T20:00:23.252805
2026/03/02 06:00:00,STARHLWF,16.2,Starfish Hill Wind Farm Pty Ltd,Starfish Hill Wind Farm,Wind,35.0,46.29,Starfish Hill Wind Farm,-35.58,138.14,2026-03-01T20:00:23.252805
2026/03/02 06:00:00,STOCKYD1,240.67,Stockyard Hill Wind Farm Pty Ltd,Stockyard Hill Wind Farm,Wind,511.0,47.1,Stockyard Hill Wind Farm,-37.535833,143.251389,2026-03-01T20:00:23.252805
2026/03/02 06:00:00,STWF1,33.9,PARF Company 8 Pty Ltd as The Trustee for Silverton Project Trust,Silverton Wind Farm,Wind,198.0,17.12,Silverton Wind Farm,-37.683168,142.551678,2026-03-01T20:00:23.252805
2026/03/02 06:00:00,TARALGA1,64.31,Taralga Wind Farm Nominees No 2 Pty Ltd (ATF Taralga Wind Farm Operating Trust),Taralga Wind Farm,Wind,106.0,60.67,Taralga Wind Farm,-34.42352,149.826267,2026-03-01T20:00:23.252805
2026/03/02 06:00:00,WAMBOWF1,148.24,Stanwell Corporation Limited,Wambo Wind Farm 1,Wind,245.0,60.51,Wambo Wind Farm 1,-35.187301,149.524945,2026-03-01T20:00:23.252805
2026/03/02 06:00:00,WATERLWF,57.6,Waterloo Wind Farm Pty Ltd,Waterloo Wind Farm,Wind,130.0,44.31,Waterloo Wind Farm,-34.00094,138.911567,2026-03-01T20:00:23.252805
2026/03/02 06:00:00,WGWF1,42.6,Willogoleche Power Pty Ltd As The Trustee For The Willogoleche Operating Trust,Willogoleche Wind Farm,Wind,119.0,35.8,Willogoleche Wind Farm,-33.39,138.85,2026-03-01T20:00:23.252805
2026/03/02 06:00:00,WOODLWN1,11.11,Woodlawn Wind Pty Ltd,Woodlawn Wind Farm,Wind,48.0,23.15,Woodlawn Wind Farm,-35.08,149.62,2026-03-01T20:00:23.252805
2026/03/02 06:00:00,WPWF,63.22,AGL SA Generation Pty Limited,Wattle Point Wind Farm,Wind,91.0,69.47,Wattle Point Wind Farm,-35.111624,137.7219,2026-03-01T20:00:23.252805
2026/03/02 06:00:00,WRWF1,131.91,White Rock Wind Farm Pty Ltd,White Rock Wind Farm,Wind,172.0,76.69,White Rock Wind Farm,-29.79,151.54,2026-03-01T20:00:23.252805
2026/03/02 06:00:00,YENDWF1,111.93,Lal Lal Wind Farms Nom Co Pty Ltd,Yendon Wind Farm,Wind,142.0,78.82,Yendon Wind Farm,-37.629987,144.022717,2026-03-01T20:00:23.252805
