SETTLEMENTDATE,DUID,SCADAVALUE,Participant,Station Name,Fuel Source - Primary,MAX_CAP,utilisation_pct,Plant,Latitude,Longitude,timestamp_utc
2026/02/12 01:45:00,CAPTL_WF,23.13,Iberdrola Australia Holdings Pty Limited,Capital Wind Farm,Wind,140.0,16.52,Capital Wind Farm,-35.1,149.31,2026-02-11T15:45:31.023036
2026/02/12 01:45:00,CHALLHWF,20.1,Pacific Hydro Challicum Hills Pty Ltd,Challicum Hills Wind Farm,Wind,52.0,38.65,Challicum Hills Wind Farm,-37.38,143.11,2026-02-11T15:45:31.023036
2026/02/12 01:45:00,CULLRGWF,7.7,Cullerin Range Wind Farm Pty Ltd,Cullerin Range Wind Farm,Wind,30.0,25.67,Cullerin Range Wind Farm,-34.81,149.4,2026-02-11T15:45:31.023036
2026/02/12 01:45:00,DIAPURWF1,6.8,Y.E.S. Energy (SA) Pty Ltd,Diapur Wind Farm,Wind,7.0,97.14,Diapur Wind Farm,-36.3425,141.43,2026-02-11T15:45:31.023036
2026/02/12 01:45:00,MLWF1,5.24,Mortons Lane Windfarm Pty Limited,Mortons Lane Wind Farm,Wind,20.0,26.2,Mortons Lane Wind Farm,-37.84,142.45,2026-02-11T15:45:31.023036
2026/02/12 01:45:00,WAUBRAWF,159.83,Pyrenees Wind Energy Developments Pty Ltd,Waubra Wind Farm,Wind,192.0,83.24,Waubra Wind Farm,-37.394498,143.638982,2026-02-11T15:45:31.023036
2026/02/12 01:45:00,WOOLNTH1,97.36,Hydro-Electric Corporation,Woolnorth Studland Bay / Bluff Point Wind Farm,Wind,140.0,69.54,Woolnorth Studland Bay / Bluff Point Wind Farm,-40.69,144.72,2026-02-11T15:45:31.023036
2026/02/12 01:45:00,YAMBUKWF,26.5,Energy Pacific (Vic) Pty Ltd,Yambuk Wind Farm,Wind,30.0,88.33,Yambuk Wind Farm,-38.299083,142.027577,2026-02-11T15:45:31.023036
2026/02/12 01:45:00,YSWF1,15.0,Pacific Hydro Yaloak South Pty Ltd,Yaloak South Wind Farm,Wind,28.0,53.57,Yaloak South Wind Farm,-37.7163,144.242853,2026-02-11T15:45:31.023036
2026/02/12 01:45:00,ARWF1,128.9,Ararat Wind Farm Pty Ltd,Ararat Wind Farm,Wind,241.0,53.49,Ararat Wind Farm,-37.232778,143.031389,2026-02-11T15:45:31.023036
2026/02/12 01:45:00,BALDHWF1,88.86,Alinta Energy Retail Sales Pty Ltd,Bald Hills Wind Farm,Wind,106.0,83.83,Bald Hills Wind Farm,-38.79,145.93,2026-02-11T15:45:31.023036
2026/02/12 01:45:00,BANGOWF1,76.9,BWF Nominees Pty Ltd as The Trustee for BWF Trust,Bango 973 Wind Farm,Wind,155.0,49.61,Bango 973 Wind Farm,-34.551582,148.732808,2026-02-11T15:45:31.023036
2026/02/12 01:45:00,BANGOWF2,49.8,BWF Nominees Pty Ltd as The Trustee for BWF Trust,Bango 999 Wind Farm,Wind,82.0,60.73,Bango 999 Wind Farm,-34.551582,148.732808,2026-02-11T15:45:31.023036
2026/02/12 01:45:00,BLUFF1,11.2,AGL SA Generation Pty Limited,The Bluff Wind Farm,Wind,53.0,21.13,The Bluff Wind Farm,-33.367778,138.728611,2026-02-11T15:45:31.023036
2026/02/12 01:45:00,BOCORWF1,25.86,Boco Rock Wind Farm Pty Ltd,Boco Rock Wind Farm,Wind,111.0,23.3,Boco Rock Wind Farm,-36.578611,149.103333,2026-02-11T15:45:31.023036
2026/02/12 01:45:00,BRYB1WF1,48.9,Berrybank Development Pty Ltd,Berrybank Wind Farm,Wind,175.9,27.8,Berrybank Wind Farm,-37.94,143.52,2026-02-11T15:45:31.023036
2026/02/12 01:45:00,BRYB2WF2,37.85,Berrybank 2 Asset Pty Ltd as trustee for Berrybank 2 Asset Trust,Berrybank 2 Wind Farm,Wind,105.0,36.05,Berrybank 2 Wind Farm,-37.94,143.52,2026-02-11T15:45:31.023036
2026/02/12 01:45:00,BULGANA1,125.29,Bulgana Wind Farm Pty Ltd,Bulgana Green Power Hub,Wind,204.0,61.42,Bulgana Green Power Hub,-37.0975,142.973611,2026-02-11T15:45:31.023036
2026/02/12 01:45:00,CATHROCK,33.7,Cathedral Rocks Wind Farm Pty Ltd,Cathedral Rocks,Wind,66.0,51.06,Cathedral Rocks,-34.51,135.35,2026-02-11T15:45:31.023036
2026/02/12 01:45:00,CHYTWF1,48.26,Cherry Tree Wind Farm Pty Ltd as trustee for The Cherry Tree Project trust ,Cherry Tree Wind Farm,Wind,57.0,84.67,Cherry Tree Wind Farm,-37.1,145.26,2026-02-11T15:45:31.023036
2026/02/12 01:45:00,CLEMGPWF,48.48,Pacific Hydro Clements Gap Pty Ltd,Clements Gap Wind Farm,Wind,57.0,85.05,Clements Gap Wind Farm,-33.48,138.1,2026-02-11T15:45:31.023036
2026/02/12 01:45:00,CLRKCWF1,323.11,Stanwell Corporation Limited ,Clarke Creek Wind Farm,Wind,338.0,95.59,Clarke Creek Wind Farm,-22.85,149.45,2026-02-11T15:45:31.023036
2026/02/12 01:45:00,CLRKCWF2,86.44,Stanwell Corporation Limited ,Clarke Creek Wind Farm,Wind,101.0,85.58,Clarke Creek Wind Farm,-22.85,149.45,2026-02-11T15:45:31.023036
2026/02/12 01:45:00,CNUNDAWF,21.93,Canunda Power Pty Ltd,Canunda Wind Farm,Wind,46.0,47.67,Canunda Wind Farm,-37.73,140.39,2026-02-11T15:45:31.023036
2026/02/12 01:45:00,COLWF01,14.79,Collector Wind Farm Pty Ltd,Collector Wind Farm 1,Wind,219.0,6.75,Collector Wind Farm 1,-34.8719,149.3967,2026-02-11T15:45:31.023036
2026/02/12 01:45:00,COOPGWF1,215.39,PARF Company 10 Pty Limited as The Trustee for Coopers Gap Project Trust,Coopers Gap Wind Farm,Wind,440.0,48.95,Coopers Gap Wind Farm,-26.74,151.45,2026-02-11T15:45:31.023036
2026/02/12 01:45:00,CROOKWF2,79.37,Crookwell Development Pty Ltd ,Crookwell 2 Wind Farm,Wind,91.0,87.22,Crookwell 2 Wind Farm,-34.52,149.54,2026-02-11T15:45:31.023036
2026/02/12 01:45:00,CROOKWF3,40.39,Crookwell 3 Development Pty Ltd,Crookwell 3 Wind Farm,Wind,56.0,72.12,Crookwell 3 Wind Farm,-34.52,149.54,2026-02-11T15:45:31.023036
2026/02/12 01:45:00,CROWLWF1,49.42,Pacific Hydro Crowlands Pty Ltd ,Crowlands Wind Farm,Wind,79.0,62.56,Crowlands Wind Farm,-37.13,143.16,2026-02-11T15:45:31.023036
2026/02/12 01:45:00,CRURWF1,59.3,CRWF Nominees Pty Ltd As Trustee For The CRWF Trust,Crudine Ridge Wind Farm,Wind,138.0,42.97,Crudine Ridge Wind Farm,-32.97,149.64,2026-02-11T15:45:31.023036
2026/02/12 01:45:00,CTHLWF1,105.79,Wild Cattle Hill Pty Ltd,Cattle Hill Wind Farm,Wind,144.0,73.47,Cattle Hill Wind Farm,-42.15,146.69,2026-02-11T15:45:31.023036
2026/02/12 01:45:00,DULAWF1,115.9,Dulacca Energy Project Co Pty Ltd,Dulacca Wind Farm,Wind,173.0,66.99,Dulacca Wind Farm,-26.63,149.87,2026-02-11T15:45:31.023036
2026/02/12 01:45:00,DUNDWF1,57.31,Dundonnell Wind Farm Pty Ltd,Dundonnell Wind Farm,Wind,168.0,34.11,Dundonnell Wind Farm,-37.52,142.58,2026-02-11T15:45:31.023036
2026/02/12 01:45:00,DUNDWF2,14.33,Dundonnell Wind Farm Pty Ltd,Dundonnell Wind Farm,Wind,46.0,31.15,Dundonnell Wind Farm,-37.52,142.58,2026-02-11T15:45:31.023036
2026/02/12 01:45:00,DUNDWF3,56.43,Dundonnell Wind Farm Pty Ltd,Dundonnell Wind Farm,Wind,122.0,46.25,Dundonnell Wind Farm,-37.52,142.58,2026-02-11T15:45:31.023036
2026/02/12 01:45:00,ELAINWF1,31.31,Lal Lal Wind Farms Nom Co Pty Ltd,Elaine Wind Farm,Wind,82.0,38.18,Elaine Wind Farm,-37.36,144.0,2026-02-11T15:45:31.023036
2026/02/12 01:45:00,FLYCRKWF,55.93,Iberdrola Australia Energy Markets Pty Limited,Flyers Creek Wind Farm,Wind,140.0,39.95,Flyers Creek Wind Farm,-33.365556,148.981944,2026-02-11T15:45:31.023036
2026/02/12 01:45:00,GPWFEST1,90.75,Golden Plains WF1 Pty Ltd as Trustee for the Golden Plains WF1 Unit Trust,Golden Plains Wind Farm East,Wind,240.0,37.81,Golden Plains Wind Farm East,-37.945091,143.752614,2026-02-11T15:45:31.023036
2026/02/12 01:45:00,GPWFEST2,71.22,Golden Plains WF1 Pty Ltd as Trustee for the Golden Plains WF1 Unit Trust,Golden Plains Wind Farm East,Wind,253.0,28.15,Golden Plains Wind Farm East,-37.945091,143.752614,2026-02-11T15:45:31.023036
2026/02/12 01:45:00,GPWFEST3,69.91,Golden Plains WF1 Pty Ltd as Trustee for the Golden Plains WF1 Unit Trust,Golden Plains Wind Farm East,Wind,240.0,29.13,Golden Plains Wind Farm East,-37.945091,143.752614,2026-02-11T15:45:31.023036
2026/02/12 01:45:00,GRANWF1,92.18,Granville Harbour Operations Pty Ltd as The Trustee for Granville Harbour Operations Trust,Granville Harbour Wind Farm,Wind,111.0,83.05,Granville Harbour Wind Farm,-41.8,145.06,2026-02-11T15:45:31.023036
2026/02/12 01:45:00,GSWF1A,117.88,Goyder Wind Farm 1 Pty Ltd as the Trustee for Goyder Wind Farm 1 Trust,Goyder South Wind Farm 1A,Wind,201.0,58.65,Goyder South Wind Farm 1A,-33.679758,138.937597,2026-02-11T15:45:31.023036
2026/02/12 01:45:00,GSWF1B1,99.45,Goyder Wind Farm 1B Pty Ltd as the Trustee for the Goyder Wind Farm 1B Trust,Goyder South Wind Farm 1B,Wind,196.0,50.74,Goyder South Wind Farm 1B,-33.679758,138.937597,2026-02-11T15:45:31.023036
2026/02/12 01:45:00,GULLRWF1,72.93,New Gullen Range Wind Farm Pty Ltd,Gullen Range Wind Farm,Wind,161.0,45.3,Gullen Range Wind Farm,-34.34,149.27,2026-02-11T15:45:31.023036
2026/02/12 01:45:00,GULLRWF2,60.79,New Gullen Range Wind Farm Pty Ltd,Gullen Range Wind Farm,Wind,107.0,56.81,Gullen Range Wind Farm,-34.34,149.27,2026-02-11T15:45:31.023036
2026/02/12 01:45:00,GUNNING1,6.26,Gunning Wind Energy Developments Pty Ltd,Gunning Wind Farm,Wind,47.0,13.32,Gunning Wind Farm,-34.813333,149.4,2026-02-11T15:45:31.023036
2026/02/12 01:45:00,HALLWF1,32.03,AGL SA Generation Pty Limited,Hallett 1 Wind Farm,Wind,95.0,33.72,Hallett 1 Wind Farm,-33.367778,138.728611,2026-02-11T15:45:31.023036
2026/02/12 01:45:00,HALLWF2,39.97,AGL SA Generation Pty Limited,Hallett 2 Wind Farm,Wind,71.0,56.3,Hallett 2 Wind Farm,-33.367778,138.728611,2026-02-11T15:45:31.023036
2026/02/12 01:45:00,HD1WF1,37.86,Hawkesdale Asset Pty Ltd as trustee for Hawkesdale Asset Trust,Hawkesdale Wind Farm,Wind,89.0,42.54,Hawkesdale Wind Farm,-38.147894,142.361381,2026-02-11T15:45:31.023036
2026/02/12 01:45:00,HDWF1,41.3,HWF1 Pty Ltd,Hornsdale Wind Farm,Wind,102.0,40.49,Hornsdale Wind Farm,-33.050556,138.543611,2026-02-11T15:45:31.023036
2026/02/12 01:45:00,HDWF2,51.1,HWF 2 Pty Ltd,Hornsdale Wind Farm 2,Wind,102.0,50.1,Hornsdale Wind Farm 2,-33.06,138.54,2026-02-11T15:45:31.023036
2026/02/12 01:45:00,HDWF3,49.6,HWF3 Pty Ltd,Hornsdale Wind Farm 3,Wind,109.0,45.5,Hornsdale Wind Farm 3,-33.06,138.54,2026-02-11T15:45:31.023036
2026/02/12 01:45:00,KABANWF1,7.36,Kaban Wind Farm Pty Ltd as trustee for Kaban Wind Farm Trust,Kaban Wind Farm,Wind,152.0,4.84,Kaban Wind Farm,-17.56,145.41,2026-02-11T15:45:31.023036
2026/02/12 01:45:00,KEPWF1,4.2,Kennedy Energy Park Pty Ltd,Kennedy Energy Park,Wind,43.0,9.77,Kennedy Energy Park,-20.88,144.42,2026-02-11T15:45:31.023036
2026/02/12 01:45:00,KIATAWF1,15.6,Kiata ProjectCo Pty Ltd Atf Kiata Project Trust,Kiata Wind Farm,Wind,31.0,50.32,Kiata Wind Farm,-36.4,141.75,2026-02-11T15:45:31.023036
2026/02/12 01:45:00,LGAPWF1,85.94,Lincoln Gap Wind Farm (Operations) Pty Ltd,Lincoln Gap Wind Farm,Wind,123.0,69.87,Lincoln Gap Wind Farm,-32.564279,137.557328,2026-02-11T15:45:31.023036
2026/02/12 01:45:00,LGAPWF1,85.94,Lincoln Gap Wind Farm (Operations) Pty Ltd,Lincoln Gap Wind Farm,Wind,123.0,69.87,Lincoln Gap Wind Farm,-32.564279,137.557328,2026-02-11T15:45:31.023036
2026/02/12 01:45:00,LGAPWF2,84.8,Lincoln Gap Wind Farm (Operations) Pty Ltd,Lincoln Gap Wind Farm,Wind,85.0,99.76,Lincoln Gap Wind Farm,-32.564279,137.557328,2026-02-11T15:45:31.023036
2026/02/12 01:45:00,LGAPWF2,84.8,Lincoln Gap Wind Farm (Operations) Pty Ltd,Lincoln Gap Wind Farm,Wind,85.0,99.76,Lincoln Gap Wind Farm,-32.564279,137.557328,2026-02-11T15:45:31.023036
2026/02/12 01:45:00,LKBONNY1,36.71,Lake Bonney Wind Power Pty Ltd,Lake Bonney Wind Farm Stage 1,Wind,81.0,45.32,Lake Bonney Wind Farm Stage 1,-37.76,140.4,2026-02-11T15:45:31.023036
2026/02/12 01:45:00,LKBONNY2,83.31,Lake Bonney Wind Power Pty Ltd,Lake Bonney Stage 2 Windfarm,Wind,159.0,52.4,Lake Bonney Stage 2 Windfarm,-37.76,140.4,2026-02-11T15:45:31.023036
2026/02/12 01:45:00,LKBONNY3,23.05,Lake Bonney Wind Power Pty Ltd,Lake Bonney Stage 3 Wind Farm,Wind,39.0,59.1,Lake Bonney Stage 3 Wind Farm,-37.737781,140.388137,2026-02-11T15:45:31.023036
2026/02/12 01:45:00,MACARTH1,82.8,AGL Hydro Partnership,Macarthur Wind Farm,Wind,420.0,19.71,Macarthur Wind Farm,-38.048957,142.192112,2026-02-11T15:45:31.023036
2026/02/12 01:45:00,MCINTYR1,156.34,MacIntyre UJV Operator Pty Ltd,MacIntyre Wind Farm,Wind,890.0,17.57,MacIntyre Wind Farm,-28.32,151.54,2026-02-11T15:45:31.023036
2026/02/12 01:45:00,MERCER01,12.6,Mt Mercer Windfarm Pty Ltd,Mt Mercer Wind Farm,Wind,131.0,9.62,Mt Mercer Wind Farm,-37.841111,143.871111,2026-02-11T15:45:31.023036
2026/02/12 01:45:00,MEWF1,0.0,Ergon Energy Queensland Pty Ltd ,Mount Emerald Wind Farm,Wind,178.0,0.0,Mount Emerald Wind Farm,-17.133007,145.380644,2026-02-11T15:45:31.023036
2026/02/12 01:45:00,MRTLSWF1,54.87,Mortlake South Wind Farm Pty Ltd,Mortlake South Wind Farm,Wind,153.0,35.86,Mortlake South Wind Farm,-38.127337,142.857801,2026-02-11T15:45:31.023036
2026/02/12 01:45:00,MTGELWF1,31.75,Mt. Gellibrand Wind Farm Pty Ltd,Mt Gellibrand Wind Farm,Wind,132.0,24.05,Mt Gellibrand Wind Farm,-38.23,143.77,2026-02-11T15:45:31.023036
2026/02/12 01:45:00,MTMILLAR,62.8,Mt Millar Wind Farm Pty Ltd,Mt Millar Wind Farm,Wind,70.0,89.71,Mt Millar Wind Farm,-33.624444,136.703611,2026-02-11T15:45:31.023036
2026/02/12 01:45:00,MUSSELR1,136.7,Hydro-Electric Corporation,Musselroe Wind Farm,Wind,168.0,81.37,Musselroe Wind Farm,-40.780225,148.010799,2026-02-11T15:45:31.023036
2026/02/12 01:45:00,MUWAWF1,140.3,Telstra Energy (Generation) Pty Ltd,Murra Warra Wind Farm,Wind,225.7,62.16,Murra Warra Wind Farm,-36.432404,142.317853,2026-02-11T15:45:31.023036
2026/02/12 01:45:00,MUWAWF2,127.9,Murra Warra II Project Co Pty Ltd ATF The Murra Warra II Project Trust,Murra Warra Wind Farm Stage 2,Wind,203.0,63.0,Murra Warra Wind Farm Stage 2,-36.43,142.32,2026-02-11T15:45:31.023036
2026/02/12 01:45:00,NBHWF1,63.5,AGL SA Generation Pty Limited,North Brown Hill Wind Farm,Wind,132.0,48.11,North Brown Hill Wind Farm,-33.367778,138.728611,2026-02-11T15:45:31.023036
2026/02/12 01:45:00,OAKLAND1,21.2,AGL Hydro Partnership,Oaklands Hill Wind Farm,Wind,63.0,33.65,Oaklands Hill Wind Farm,-37.683078,142.551678,2026-02-11T15:45:31.023036
2026/02/12 01:45:00,PAREPW1,187.69,Iberdrola Australia Energy Markets Pty Limited,Port Augusta Renewable Energy Park,Wind,201.0,93.38,Port Augusta Renewable Energy Park,-32.566944,137.856111,2026-02-11T15:45:31.023036
2026/02/12 01:45:00,RYANCWF1,181.56,Ryan Corner Development Pty Ltd,Ryan Corner Wind Farm,Wind,205.0,88.57,Ryan Corner Wind Farm,-38.271017,142.140647,2026-02-11T15:45:31.023036
2026/02/12 01:45:00,RYEPARK1,184.98,Rye Park Renewable Energy Pty Ltd as trustee for Rye Park Wind Farm Trust,Rye Park Renewable Energy,Wind,384.0,48.17,Rye Park Renewable Energy,-32.138333,148.972778,2026-02-11T15:45:31.023036
2026/02/12 01:45:00,SALTCRK1,18.64,Salt Creek Wind Farm Pty Ltd,Salt Creek Wind Farm,Wind,54.0,34.52,Salt Creek Wind Farm,-37.95,142.63,2026-02-11T15:45:31.023036
2026/02/12 01:45:00,SAPHWF1,85.46,The Trustee For The SWF1 Operations Trust,Sapphire Wind Farm,Wind,270.0,31.65,Sapphire Wind Farm,-29.7,151.41,2026-02-11T15:45:31.023036
2026/02/12 01:45:00,SNOWNTH1,139.1,Snowtown Wind Farm Stage 2 Pty Ltd,Snowtown Wind Farm Stage 2 North,Wind,144.0,96.6,Snowtown Wind Farm Stage 2 North,-33.83,138.118611,2026-02-11T15:45:31.023036
2026/02/12 01:45:00,SNOWSTH1,121.3,Snowtown Wind Farm Stage 2 Pty Ltd,Snowtown South Wind Farm,Wind,126.0,96.27,Snowtown South Wind Farm,-33.83,138.118611,2026-02-11T15:45:31.023036
2026/02/12 01:45:00,SNOWTWN1,90.91,Snowtown Wind Farm Pty Ltd,Snowtown Wind Farm Units 1 And 47,Wind,99.0,91.83,Snowtown Wind Farm Units 1 And 47,-33.83,138.118611,2026-02-11T15:45:31.023036
2026/02/12 01:45:00,STARHLWF,19.59,Starfish Hill Wind Farm Pty Ltd,Starfish Hill Wind Farm,Wind,35.0,55.97,Starfish Hill Wind Farm,-35.58,138.14,2026-02-11T15:45:31.023036
2026/02/12 01:45:00,STOCKYD1,292.02,Stockyard Hill Wind Farm Pty Ltd,Stockyard Hill Wind Farm,Wind,511.0,57.15,Stockyard Hill Wind Farm,-37.535833,143.251389,2026-02-11T15:45:31.023036
2026/02/12 01:45:00,STWF1,0.0,PARF Company 8 Pty Ltd as The Trustee for Silverton Project Trust,Silverton Wind Farm,Wind,198.0,0.0,Silverton Wind Farm,-37.683168,142.551678,2026-02-11T15:45:31.023036
2026/02/12 01:45:00,TARALGA1,85.51,Taralga Wind Farm Nominees No 2 Pty Ltd (ATF Taralga Wind Farm Operating Trust),Taralga Wind Farm,Wind,106.0,80.67,Taralga Wind Farm,-34.42352,149.826267,2026-02-11T15:45:31.023036
2026/02/12 01:45:00,WAMBOWF1,136.92,Stanwell Corporation Limited,Wambo Wind Farm 1,Wind,245.0,55.89,Wambo Wind Farm 1,-35.187301,149.524945,2026-02-11T15:45:31.023036
2026/02/12 01:45:00,WATERLWF,63.9,Waterloo Wind Farm Pty Ltd,Waterloo Wind Farm,Wind,130.0,49.15,Waterloo Wind Farm,-34.00094,138.911567,2026-02-11T15:45:31.023036
2026/02/12 01:45:00,WGWF1,90.1,Willogoleche Power Pty Ltd As The Trustee For The Willogoleche Operating Trust,Willogoleche Wind Farm,Wind,119.0,75.71,Willogoleche Wind Farm,-33.39,138.85,2026-02-11T15:45:31.023036
2026/02/12 01:45:00,WOODLWN1,8.64,Woodlawn Wind Pty Ltd,Woodlawn Wind Farm,Wind,48.0,18.0,Woodlawn Wind Farm,-35.08,149.62,2026-02-11T15:45:31.023036
2026/02/12 01:45:00,WPWF,70.38,AGL SA Generation Pty Limited,Wattle Point Wind Farm,Wind,91.0,77.34,Wattle Point Wind Farm,-35.111624,137.7219,2026-02-11T15:45:31.023036
2026/02/12 01:45:00,WRWF1,14.34,White Rock Wind Farm Pty Ltd,White Rock Wind Farm,Wind,172.0,8.34,White Rock Wind Farm,-29.79,151.54,2026-02-11T15:45:31.023036
2026/02/12 01:45:00,YENDWF1,50.61,Lal Lal Wind Farms Nom Co Pty Ltd,Yendon Wind Farm,Wind,142.0,35.64,Yendon Wind Farm,-37.629987,144.022717,2026-02-11T15:45:31.023036
