SETTLEMENTDATE,DUID,SCADAVALUE,Participant,Station Name,Fuel Source - Primary,MAX_CAP,utilisation_pct,Plant,Latitude,Longitude,timestamp_utc
2026/02/17 19:05:00,CAPTL_WF,55.18,Iberdrola Australia Holdings Pty Limited,Capital Wind Farm,Wind,140.0,39.41,Capital Wind Farm,-35.1,149.31,2026-02-17T09:01:42.513438
2026/02/17 19:05:00,CHALLHWF,16.7,Pacific Hydro Challicum Hills Pty Ltd,Challicum Hills Wind Farm,Wind,52.0,32.12,Challicum Hills Wind Farm,-37.38,143.11,2026-02-17T09:01:42.513438
2026/02/17 19:05:00,CULLRGWF,6.64,Cullerin Range Wind Farm Pty Ltd,Cullerin Range Wind Farm,Wind,30.0,22.13,Cullerin Range Wind Farm,-34.81,149.4,2026-02-17T09:01:42.513438
2026/02/17 19:05:00,DIAPURWF1,7.8,Y.E.S. Energy (SA) Pty Ltd,Diapur Wind Farm,Wind,7.0,111.43,Diapur Wind Farm,-36.3425,141.43,2026-02-17T09:01:42.513438
2026/02/17 19:05:00,MLWF1,4.36,Mortons Lane Windfarm Pty Limited,Mortons Lane Wind Farm,Wind,20.0,21.8,Mortons Lane Wind Farm,-37.84,142.45,2026-02-17T09:01:42.513438
2026/02/17 19:05:00,WAUBRAWF,41.78,Pyrenees Wind Energy Developments Pty Ltd,Waubra Wind Farm,Wind,192.0,21.76,Waubra Wind Farm,-37.394498,143.638982,2026-02-17T09:01:42.513438
2026/02/17 19:05:00,WOOLNTH1,81.67,Hydro-Electric Corporation,Woolnorth Studland Bay / Bluff Point Wind Farm,Wind,140.0,58.34,Woolnorth Studland Bay / Bluff Point Wind Farm,-40.69,144.72,2026-02-17T09:01:42.513438
2026/02/17 19:05:00,YAMBUKWF,25.9,Energy Pacific (Vic) Pty Ltd,Yambuk Wind Farm,Wind,30.0,86.33,Yambuk Wind Farm,-38.299083,142.027577,2026-02-17T09:01:42.513438
2026/02/17 19:05:00,YSWF1,7.7,Pacific Hydro Yaloak South Pty Ltd,Yaloak South Wind Farm,Wind,28.0,27.5,Yaloak South Wind Farm,-37.7163,144.242853,2026-02-17T09:01:42.513438
2026/02/17 19:05:00,ARWF1,95.5,Ararat Wind Farm Pty Ltd,Ararat Wind Farm,Wind,241.0,39.63,Ararat Wind Farm,-37.232778,143.031389,2026-02-17T09:01:42.513438
2026/02/17 19:05:00,BALDHWF1,85.05,Alinta Energy Retail Sales Pty Ltd,Bald Hills Wind Farm,Wind,106.0,80.24,Bald Hills Wind Farm,-38.79,145.93,2026-02-17T09:01:42.513438
2026/02/17 19:05:00,BANGOWF1,36.4,BWF Nominees Pty Ltd as The Trustee for BWF Trust,Bango 973 Wind Farm,Wind,155.0,23.48,Bango 973 Wind Farm,-34.551582,148.732808,2026-02-17T09:01:42.513438
2026/02/17 19:05:00,BANGOWF2,17.1,BWF Nominees Pty Ltd as The Trustee for BWF Trust,Bango 999 Wind Farm,Wind,82.0,20.85,Bango 999 Wind Farm,-34.551582,148.732808,2026-02-17T09:01:42.513438
2026/02/17 19:05:00,BLUFF1,26.4,AGL SA Generation Pty Limited,The Bluff Wind Farm,Wind,53.0,49.81,The Bluff Wind Farm,-33.367778,138.728611,2026-02-17T09:01:42.513438
2026/02/17 19:05:00,BOCORWF1,72.21,Boco Rock Wind Farm Pty Ltd,Boco Rock Wind Farm,Wind,111.0,65.05,Boco Rock Wind Farm,-36.578611,149.103333,2026-02-17T09:01:42.513438
2026/02/17 19:05:00,BRYB1WF1,159.9,Berrybank Development Pty Ltd,Berrybank Wind Farm,Wind,175.9,90.9,Berrybank Wind Farm,-37.94,143.52,2026-02-17T09:01:42.513438
2026/02/17 19:05:00,BRYB2WF2,95.77,Berrybank 2 Asset Pty Ltd as trustee for Berrybank 2 Asset Trust,Berrybank 2 Wind Farm,Wind,105.0,91.21,Berrybank 2 Wind Farm,-37.94,143.52,2026-02-17T09:01:42.513438
2026/02/17 19:05:00,BULGANA1,46.05,Bulgana Wind Farm Pty Ltd,Bulgana Green Power Hub,Wind,204.0,22.57,Bulgana Green Power Hub,-37.0975,142.973611,2026-02-17T09:01:42.513438
2026/02/17 19:05:00,CATHROCK,22.2,Cathedral Rocks Wind Farm Pty Ltd,Cathedral Rocks,Wind,66.0,33.64,Cathedral Rocks,-34.51,135.35,2026-02-17T09:01:42.513438
2026/02/17 19:05:00,CHYTWF1,4.52,Cherry Tree Wind Farm Pty Ltd as trustee for The Cherry Tree Project trust ,Cherry Tree Wind Farm,Wind,57.0,7.93,Cherry Tree Wind Farm,-37.1,145.26,2026-02-17T09:01:42.513438
2026/02/17 19:05:00,CLEMGPWF,38.32,Pacific Hydro Clements Gap Pty Ltd,Clements Gap Wind Farm,Wind,57.0,67.23,Clements Gap Wind Farm,-33.48,138.1,2026-02-17T09:01:42.513438
2026/02/17 19:05:00,CLRKCWF1,318.98,Stanwell Corporation Limited ,Clarke Creek Wind Farm,Wind,338.0,94.37,Clarke Creek Wind Farm,-22.85,149.45,2026-02-17T09:01:42.513438
2026/02/17 19:05:00,CLRKCWF2,89.22,Stanwell Corporation Limited ,Clarke Creek Wind Farm,Wind,101.0,88.34,Clarke Creek Wind Farm,-22.85,149.45,2026-02-17T09:01:42.513438
2026/02/17 19:05:00,CNUNDAWF,14.92,Canunda Power Pty Ltd,Canunda Wind Farm,Wind,46.0,32.43,Canunda Wind Farm,-37.73,140.39,2026-02-17T09:01:42.513438
2026/02/17 19:05:00,COLWF01,27.77,Collector Wind Farm Pty Ltd,Collector Wind Farm 1,Wind,219.0,12.68,Collector Wind Farm 1,-34.8719,149.3967,2026-02-17T09:01:42.513438
2026/02/17 19:05:00,COOPGWF1,147.34,PARF Company 10 Pty Limited as The Trustee for Coopers Gap Project Trust,Coopers Gap Wind Farm,Wind,440.0,33.49,Coopers Gap Wind Farm,-26.74,151.45,2026-02-17T09:01:42.513438
2026/02/17 19:05:00,CROOKWF2,25.67,Crookwell Development Pty Ltd ,Crookwell 2 Wind Farm,Wind,91.0,28.21,Crookwell 2 Wind Farm,-34.52,149.54,2026-02-17T09:01:42.513438
2026/02/17 19:05:00,CROOKWF3,7.76,Crookwell 3 Development Pty Ltd,Crookwell 3 Wind Farm,Wind,56.0,13.86,Crookwell 3 Wind Farm,-34.52,149.54,2026-02-17T09:01:42.513438
2026/02/17 19:05:00,CROWLWF1,29.98,Pacific Hydro Crowlands Pty Ltd ,Crowlands Wind Farm,Wind,79.0,37.95,Crowlands Wind Farm,-37.13,143.16,2026-02-17T09:01:42.513438
2026/02/17 19:05:00,CRURWF1,15.0,CRWF Nominees Pty Ltd As Trustee For The CRWF Trust,Crudine Ridge Wind Farm,Wind,138.0,10.87,Crudine Ridge Wind Farm,-32.97,149.64,2026-02-17T09:01:42.513438
2026/02/17 19:05:00,CTHLWF1,93.24,Wild Cattle Hill Pty Ltd,Cattle Hill Wind Farm,Wind,144.0,64.75,Cattle Hill Wind Farm,-42.15,146.69,2026-02-17T09:01:42.513438
2026/02/17 19:05:00,DULAWF1,10.8,Dulacca Energy Project Co Pty Ltd,Dulacca Wind Farm,Wind,173.0,6.24,Dulacca Wind Farm,-26.63,149.87,2026-02-17T09:01:42.513438
2026/02/17 19:05:00,DUNDWF1,64.08,Dundonnell Wind Farm Pty Ltd,Dundonnell Wind Farm,Wind,168.0,38.14,Dundonnell Wind Farm,-37.52,142.58,2026-02-17T09:01:42.513438
2026/02/17 19:05:00,DUNDWF2,18.55,Dundonnell Wind Farm Pty Ltd,Dundonnell Wind Farm,Wind,46.0,40.33,Dundonnell Wind Farm,-37.52,142.58,2026-02-17T09:01:42.513438
2026/02/17 19:05:00,DUNDWF3,55.02,Dundonnell Wind Farm Pty Ltd,Dundonnell Wind Farm,Wind,122.0,45.1,Dundonnell Wind Farm,-37.52,142.58,2026-02-17T09:01:42.513438
2026/02/17 19:05:00,ELAINWF1,68.31,Lal Lal Wind Farms Nom Co Pty Ltd,Elaine Wind Farm,Wind,82.0,83.3,Elaine Wind Farm,-37.36,144.0,2026-02-17T09:01:42.513438
2026/02/17 19:05:00,FLYCRKWF,2.83,Iberdrola Australia Energy Markets Pty Limited,Flyers Creek Wind Farm,Wind,140.0,2.02,Flyers Creek Wind Farm,-33.365556,148.981944,2026-02-17T09:01:42.513438
2026/02/17 19:05:00,GPWFEST1,165.05,Golden Plains WF1 Pty Ltd as Trustee for the Golden Plains WF1 Unit Trust,Golden Plains Wind Farm East,Wind,240.0,68.77,Golden Plains Wind Farm East,-37.945091,143.752614,2026-02-17T09:01:42.513438
2026/02/17 19:05:00,GPWFEST2,169.52,Golden Plains WF1 Pty Ltd as Trustee for the Golden Plains WF1 Unit Trust,Golden Plains Wind Farm East,Wind,253.0,67.0,Golden Plains Wind Farm East,-37.945091,143.752614,2026-02-17T09:01:42.513438
2026/02/17 19:05:00,GPWFEST3,130.12,Golden Plains WF1 Pty Ltd as Trustee for the Golden Plains WF1 Unit Trust,Golden Plains Wind Farm East,Wind,240.0,54.22,Golden Plains Wind Farm East,-37.945091,143.752614,2026-02-17T09:01:42.513438
2026/02/17 19:05:00,GRANWF1,0.0,Granville Harbour Operations Pty Ltd as The Trustee for Granville Harbour Operations Trust,Granville Harbour Wind Farm,Wind,111.0,0.0,Granville Harbour Wind Farm,-41.8,145.06,2026-02-17T09:01:42.513438
2026/02/17 19:05:00,GSWF1A,125.97,Goyder Wind Farm 1 Pty Ltd as the Trustee for Goyder Wind Farm 1 Trust,Goyder South Wind Farm 1A,Wind,201.0,62.67,Goyder South Wind Farm 1A,-33.679758,138.937597,2026-02-17T09:01:42.513438
2026/02/17 19:05:00,GSWF1B1,119.17,Goyder Wind Farm 1B Pty Ltd as the Trustee for the Goyder Wind Farm 1B Trust,Goyder South Wind Farm 1B,Wind,196.0,60.8,Goyder South Wind Farm 1B,-33.679758,138.937597,2026-02-17T09:01:42.513438
2026/02/17 19:05:00,GULLRWF1,23.55,New Gullen Range Wind Farm Pty Ltd,Gullen Range Wind Farm,Wind,161.0,14.63,Gullen Range Wind Farm,-34.34,149.27,2026-02-17T09:01:42.513438
2026/02/17 19:05:00,GULLRWF2,16.54,New Gullen Range Wind Farm Pty Ltd,Gullen Range Wind Farm,Wind,107.0,15.46,Gullen Range Wind Farm,-34.34,149.27,2026-02-17T09:01:42.513438
2026/02/17 19:05:00,GUNNING1,10.54,Gunning Wind Energy Developments Pty Ltd,Gunning Wind Farm,Wind,47.0,22.43,Gunning Wind Farm,-34.813333,149.4,2026-02-17T09:01:42.513438
2026/02/17 19:05:00,HALLWF1,70.72,AGL SA Generation Pty Limited,Hallett 1 Wind Farm,Wind,95.0,74.44,Hallett 1 Wind Farm,-33.367778,138.728611,2026-02-17T09:01:42.513438
2026/02/17 19:05:00,HALLWF2,49.98,AGL SA Generation Pty Limited,Hallett 2 Wind Farm,Wind,71.0,70.39,Hallett 2 Wind Farm,-33.367778,138.728611,2026-02-17T09:01:42.513438
2026/02/17 19:05:00,HD1WF1,43.05,Hawkesdale Asset Pty Ltd as trustee for Hawkesdale Asset Trust,Hawkesdale Wind Farm,Wind,89.0,48.37,Hawkesdale Wind Farm,-38.147894,142.361381,2026-02-17T09:01:42.513438
2026/02/17 19:05:00,HDWF1,77.3,HWF1 Pty Ltd,Hornsdale Wind Farm,Wind,102.0,75.78,Hornsdale Wind Farm,-33.050556,138.543611,2026-02-17T09:01:42.513438
2026/02/17 19:05:00,HDWF2,81.0,HWF 2 Pty Ltd,Hornsdale Wind Farm 2,Wind,102.0,79.41,Hornsdale Wind Farm 2,-33.06,138.54,2026-02-17T09:01:42.513438
2026/02/17 19:05:00,HDWF3,82.3,HWF3 Pty Ltd,Hornsdale Wind Farm 3,Wind,109.0,75.5,Hornsdale Wind Farm 3,-33.06,138.54,2026-02-17T09:01:42.513438
2026/02/17 19:05:00,KABANWF1,61.84,Kaban Wind Farm Pty Ltd as trustee for Kaban Wind Farm Trust,Kaban Wind Farm,Wind,152.0,40.68,Kaban Wind Farm,-17.56,145.41,2026-02-17T09:01:42.513438
2026/02/17 19:05:00,KEPWF1,0.0,Kennedy Energy Park Pty Ltd,Kennedy Energy Park,Wind,43.0,0.0,Kennedy Energy Park,-20.88,144.42,2026-02-17T09:01:42.513438
2026/02/17 19:05:00,KIATAWF1,23.2,Kiata ProjectCo Pty Ltd Atf Kiata Project Trust,Kiata Wind Farm,Wind,31.0,74.84,Kiata Wind Farm,-36.4,141.75,2026-02-17T09:01:42.513438
2026/02/17 19:05:00,LGAPWF1,74.37,Lincoln Gap Wind Farm (Operations) Pty Ltd,Lincoln Gap Wind Farm,Wind,123.0,60.46,Lincoln Gap Wind Farm,-32.564279,137.557328,2026-02-17T09:01:42.513438
2026/02/17 19:05:00,LGAPWF1,74.37,Lincoln Gap Wind Farm (Operations) Pty Ltd,Lincoln Gap Wind Farm,Wind,123.0,60.46,Lincoln Gap Wind Farm,-32.564279,137.557328,2026-02-17T09:01:42.513438
2026/02/17 19:05:00,LGAPWF2,81.47,Lincoln Gap Wind Farm (Operations) Pty Ltd,Lincoln Gap Wind Farm,Wind,85.0,95.85,Lincoln Gap Wind Farm,-32.564279,137.557328,2026-02-17T09:01:42.513438
2026/02/17 19:05:00,LGAPWF2,81.47,Lincoln Gap Wind Farm (Operations) Pty Ltd,Lincoln Gap Wind Farm,Wind,85.0,95.85,Lincoln Gap Wind Farm,-32.564279,137.557328,2026-02-17T09:01:42.513438
2026/02/17 19:05:00,LKBONNY1,17.5,Lake Bonney Wind Power Pty Ltd,Lake Bonney Wind Farm Stage 1,Wind,81.0,21.6,Lake Bonney Wind Farm Stage 1,-37.76,140.4,2026-02-17T09:01:42.513438
2026/02/17 19:05:00,LKBONNY2,45.78,Lake Bonney Wind Power Pty Ltd,Lake Bonney Stage 2 Windfarm,Wind,159.0,28.79,Lake Bonney Stage 2 Windfarm,-37.76,140.4,2026-02-17T09:01:42.513438
2026/02/17 19:05:00,LKBONNY3,13.73,Lake Bonney Wind Power Pty Ltd,Lake Bonney Stage 3 Wind Farm,Wind,39.0,35.21,Lake Bonney Stage 3 Wind Farm,-37.737781,140.388137,2026-02-17T09:01:42.513438
2026/02/17 19:05:00,MACARTH1,85.1,AGL Hydro Partnership,Macarthur Wind Farm,Wind,420.0,20.26,Macarthur Wind Farm,-38.048957,142.192112,2026-02-17T09:01:42.513438
2026/02/17 19:05:00,MCINTYR1,127.07,MacIntyre UJV Operator Pty Ltd,MacIntyre Wind Farm,Wind,890.0,14.28,MacIntyre Wind Farm,-28.32,151.54,2026-02-17T09:01:42.513438
2026/02/17 19:05:00,MERCER01,38.7,Mt Mercer Windfarm Pty Ltd,Mt Mercer Wind Farm,Wind,131.0,29.54,Mt Mercer Wind Farm,-37.841111,143.871111,2026-02-17T09:01:42.513438
2026/02/17 19:05:00,MEWF1,45.68,Ergon Energy Queensland Pty Ltd ,Mount Emerald Wind Farm,Wind,178.0,25.66,Mount Emerald Wind Farm,-17.133007,145.380644,2026-02-17T09:01:42.513438
2026/02/17 19:05:00,MRTLSWF1,48.96,Mortlake South Wind Farm Pty Ltd,Mortlake South Wind Farm,Wind,153.0,32.0,Mortlake South Wind Farm,-38.127337,142.857801,2026-02-17T09:01:42.513438
2026/02/17 19:05:00,MTGELWF1,99.56,Mt. Gellibrand Wind Farm Pty Ltd,Mt Gellibrand Wind Farm,Wind,132.0,75.42,Mt Gellibrand Wind Farm,-38.23,143.77,2026-02-17T09:01:42.513438
2026/02/17 19:05:00,MTMILLAR,35.0,Mt Millar Wind Farm Pty Ltd,Mt Millar Wind Farm,Wind,70.0,50.0,Mt Millar Wind Farm,-33.624444,136.703611,2026-02-17T09:01:42.513438
2026/02/17 19:05:00,MUSSELR1,142.1,Hydro-Electric Corporation,Musselroe Wind Farm,Wind,168.0,84.58,Musselroe Wind Farm,-40.780225,148.010799,2026-02-17T09:01:42.513438
2026/02/17 19:05:00,MUWAWF1,176.59,Telstra Energy (Generation) Pty Ltd,Murra Warra Wind Farm,Wind,225.7,78.24,Murra Warra Wind Farm,-36.432404,142.317853,2026-02-17T09:01:42.513438
2026/02/17 19:05:00,MUWAWF2,121.0,Murra Warra II Project Co Pty Ltd ATF The Murra Warra II Project Trust,Murra Warra Wind Farm Stage 2,Wind,203.0,59.61,Murra Warra Wind Farm Stage 2,-36.43,142.32,2026-02-17T09:01:42.513438
2026/02/17 19:05:00,NBHWF1,99.8,AGL SA Generation Pty Limited,North Brown Hill Wind Farm,Wind,132.0,75.61,North Brown Hill Wind Farm,-33.367778,138.728611,2026-02-17T09:01:42.513438
2026/02/17 19:05:00,OAKLAND1,19.5,AGL Hydro Partnership,Oaklands Hill Wind Farm,Wind,63.0,30.95,Oaklands Hill Wind Farm,-37.683078,142.551678,2026-02-17T09:01:42.513438
2026/02/17 19:05:00,PAREPW1,193.19,Iberdrola Australia Energy Markets Pty Limited,Port Augusta Renewable Energy Park,Wind,201.0,96.11,Port Augusta Renewable Energy Park,-32.566944,137.856111,2026-02-17T09:01:42.513438
2026/02/17 19:05:00,RYANCWF1,126.77,Ryan Corner Development Pty Ltd,Ryan Corner Wind Farm,Wind,205.0,61.84,Ryan Corner Wind Farm,-38.271017,142.140647,2026-02-17T09:01:42.513438
2026/02/17 19:05:00,RYEPARK1,80.01,Rye Park Renewable Energy Pty Ltd as trustee for Rye Park Wind Farm Trust,Rye Park Renewable Energy,Wind,384.0,20.84,Rye Park Renewable Energy,-32.138333,148.972778,2026-02-17T09:01:42.513438
2026/02/17 19:05:00,SALTCRK1,5.54,Salt Creek Wind Farm Pty Ltd,Salt Creek Wind Farm,Wind,54.0,10.26,Salt Creek Wind Farm,-37.95,142.63,2026-02-17T09:01:42.513438
2026/02/17 19:05:00,SAPHWF1,89.86,The Trustee For The SWF1 Operations Trust,Sapphire Wind Farm,Wind,270.0,33.28,Sapphire Wind Farm,-29.7,151.41,2026-02-17T09:01:42.513438
2026/02/17 19:05:00,SNOWNTH1,58.7,Snowtown Wind Farm Stage 2 Pty Ltd,Snowtown Wind Farm Stage 2 North,Wind,144.0,40.76,Snowtown Wind Farm Stage 2 North,-33.83,138.118611,2026-02-17T09:01:42.513438
2026/02/17 19:05:00,SNOWSTH1,70.2,Snowtown Wind Farm Stage 2 Pty Ltd,Snowtown South Wind Farm,Wind,126.0,55.71,Snowtown South Wind Farm,-33.83,138.118611,2026-02-17T09:01:42.513438
2026/02/17 19:05:00,SNOWTWN1,48.33,Snowtown Wind Farm Pty Ltd,Snowtown Wind Farm Units 1 And 47,Wind,99.0,48.82,Snowtown Wind Farm Units 1 And 47,-33.83,138.118611,2026-02-17T09:01:42.513438
2026/02/17 19:05:00,STARHLWF,10.1,Starfish Hill Wind Farm Pty Ltd,Starfish Hill Wind Farm,Wind,35.0,28.86,Starfish Hill Wind Farm,-35.58,138.14,2026-02-17T09:01:42.513438
2026/02/17 19:05:00,STOCKYD1,225.84,Stockyard Hill Wind Farm Pty Ltd,Stockyard Hill Wind Farm,Wind,511.0,44.2,Stockyard Hill Wind Farm,-37.535833,143.251389,2026-02-17T09:01:42.513438
2026/02/17 19:05:00,STWF1,30.94,PARF Company 8 Pty Ltd as The Trustee for Silverton Project Trust,Silverton Wind Farm,Wind,198.0,15.63,Silverton Wind Farm,-37.683168,142.551678,2026-02-17T09:01:42.513438
2026/02/17 19:05:00,TARALGA1,0.0,Taralga Wind Farm Nominees No 2 Pty Ltd (ATF Taralga Wind Farm Operating Trust),Taralga Wind Farm,Wind,106.0,0.0,Taralga Wind Farm,-34.42352,149.826267,2026-02-17T09:01:42.513438
2026/02/17 19:05:00,WAMBOWF1,59.65,Stanwell Corporation Limited,Wambo Wind Farm 1,Wind,245.0,24.35,Wambo Wind Farm 1,-35.187301,149.524945,2026-02-17T09:01:42.513438
2026/02/17 19:05:00,WATERLWF,71.6,Waterloo Wind Farm Pty Ltd,Waterloo Wind Farm,Wind,130.0,55.08,Waterloo Wind Farm,-34.00094,138.911567,2026-02-17T09:01:42.513438
2026/02/17 19:05:00,WGWF1,0.0,Willogoleche Power Pty Ltd As The Trustee For The Willogoleche Operating Trust,Willogoleche Wind Farm,Wind,119.0,0.0,Willogoleche Wind Farm,-33.39,138.85,2026-02-17T09:01:42.513438
2026/02/17 19:05:00,WOODLWN1,16.64,Woodlawn Wind Pty Ltd,Woodlawn Wind Farm,Wind,48.0,34.67,Woodlawn Wind Farm,-35.08,149.62,2026-02-17T09:01:42.513438
2026/02/17 19:05:00,WPWF,52.5,AGL SA Generation Pty Limited,Wattle Point Wind Farm,Wind,91.0,57.69,Wattle Point Wind Farm,-35.111624,137.7219,2026-02-17T09:01:42.513438
2026/02/17 19:05:00,WRWF1,49.58,White Rock Wind Farm Pty Ltd,White Rock Wind Farm,Wind,172.0,28.83,White Rock Wind Farm,-29.79,151.54,2026-02-17T09:01:42.513438
2026/02/17 19:05:00,YENDWF1,17.04,Lal Lal Wind Farms Nom Co Pty Ltd,Yendon Wind Farm,Wind,142.0,12.0,Yendon Wind Farm,-37.629987,144.022717,2026-02-17T09:01:42.513438
