SETTLEMENTDATE,DUID,SCADAVALUE,Participant,Station Name,Fuel Source - Primary,MAX_CAP,utilisation_pct,Plant,Latitude,Longitude,timestamp_utc
2026/03/24 06:10:00,CAPTL_WF,0.0,Iberdrola Australia Holdings Pty Limited,Capital Wind Farm,Wind,140.0,0.0,Capital Wind Farm,-35.1,149.31,2026-03-23T20:07:05.014391
2026/03/24 06:10:00,CHALLHWF,22.9,Pacific Hydro Challicum Hills Pty Ltd,Challicum Hills Wind Farm,Wind,52.0,44.04,Challicum Hills Wind Farm,-37.38,143.11,2026-03-23T20:07:05.014391
2026/03/24 06:10:00,CULLRGWF,6.86,Cullerin Range Wind Farm Pty Ltd,Cullerin Range Wind Farm,Wind,30.0,22.87,Cullerin Range Wind Farm,-34.81,149.4,2026-03-23T20:07:05.014391
2026/03/24 06:10:00,DIAPURWF1,8.1,Y.E.S. Energy (SA) Pty Ltd,Diapur Wind Farm,Wind,7.0,115.71,Diapur Wind Farm,-36.3425,141.43,2026-03-23T20:07:05.014391
2026/03/24 06:10:00,MLWF1,-0.08,Mortons Lane Windfarm Pty Limited,Mortons Lane Wind Farm,Wind,20.0,-0.4,Mortons Lane Wind Farm,-37.84,142.45,2026-03-23T20:07:05.014391
2026/03/24 06:10:00,WAUBRAWF,72.87,Pyrenees Wind Energy Developments Pty Ltd,Waubra Wind Farm,Wind,192.0,37.95,Waubra Wind Farm,-37.394498,143.638982,2026-03-23T20:07:05.014391
2026/03/24 06:10:00,WOOLNTH1,51.96,Hydro-Electric Corporation,Woolnorth Studland Bay / Bluff Point Wind Farm,Wind,140.0,37.11,Woolnorth Studland Bay / Bluff Point Wind Farm,-40.69,144.72,2026-03-23T20:07:05.014391
2026/03/24 06:10:00,YAMBUKWF,7.0,Energy Pacific (Vic) Pty Ltd,Yambuk Wind Farm,Wind,30.0,23.33,Yambuk Wind Farm,-38.299083,142.027577,2026-03-23T20:07:05.014391
2026/03/24 06:10:00,YSWF1,16.1,Pacific Hydro Yaloak South Pty Ltd,Yaloak South Wind Farm,Wind,28.0,57.5,Yaloak South Wind Farm,-37.7163,144.242853,2026-03-23T20:07:05.014391
2026/03/24 06:10:00,ARWF1,44.5,Ararat Wind Farm Pty Ltd,Ararat Wind Farm,Wind,241.0,18.46,Ararat Wind Farm,-37.232778,143.031389,2026-03-23T20:07:05.014391
2026/03/24 06:10:00,BALDHWF1,29.93,Alinta Energy Retail Sales Pty Ltd,Bald Hills Wind Farm,Wind,106.0,28.24,Bald Hills Wind Farm,-38.79,145.93,2026-03-23T20:07:05.014391
2026/03/24 06:10:00,BANGOWF1,19.4,BWF Nominees Pty Ltd as The Trustee for BWF Trust,Bango 973 Wind Farm,Wind,155.0,12.52,Bango 973 Wind Farm,-34.551582,148.732808,2026-03-23T20:07:05.014391
2026/03/24 06:10:00,BANGOWF2,16.3,BWF Nominees Pty Ltd as The Trustee for BWF Trust,Bango 999 Wind Farm,Wind,82.0,19.88,Bango 999 Wind Farm,-34.551582,148.732808,2026-03-23T20:07:05.014391
2026/03/24 06:10:00,BLUFF1,4.8,AGL SA Generation Pty Limited,The Bluff Wind Farm,Wind,53.0,9.06,The Bluff Wind Farm,-33.367778,138.728611,2026-03-23T20:07:05.014391
2026/03/24 06:10:00,BOCORWF1,60.71,Boco Rock Wind Farm Pty Ltd,Boco Rock Wind Farm,Wind,111.0,54.69,Boco Rock Wind Farm,-36.578611,149.103333,2026-03-23T20:07:05.014391
2026/03/24 06:10:00,BRYB1WF1,18.66,Berrybank Development Pty Ltd,Berrybank Wind Farm,Wind,175.9,10.61,Berrybank Wind Farm,-37.94,143.52,2026-03-23T20:07:05.014391
2026/03/24 06:10:00,BRYB2WF2,7.88,Berrybank 2 Asset Pty Ltd as trustee for Berrybank 2 Asset Trust,Berrybank 2 Wind Farm,Wind,105.0,7.5,Berrybank 2 Wind Farm,-37.94,143.52,2026-03-23T20:07:05.014391
2026/03/24 06:10:00,BULGANA1,0.0,Bulgana Wind Farm Pty Ltd,Bulgana Green Power Hub,Wind,204.0,0.0,Bulgana Green Power Hub,-37.0975,142.973611,2026-03-23T20:07:05.014391
2026/03/24 06:10:00,CATHROCK,2.6,Cathedral Rocks Wind Farm Pty Ltd,Cathedral Rocks,Wind,66.0,3.94,Cathedral Rocks,-34.51,135.35,2026-03-23T20:07:05.014391
2026/03/24 06:10:00,CHYTWF1,17.48,Cherry Tree Wind Farm Pty Ltd as trustee for The Cherry Tree Project trust ,Cherry Tree Wind Farm,Wind,57.0,30.67,Cherry Tree Wind Farm,-37.1,145.26,2026-03-23T20:07:05.014391
2026/03/24 06:10:00,CLEMGPWF,2.16,Pacific Hydro Clements Gap Pty Ltd,Clements Gap Wind Farm,Wind,57.0,3.79,Clements Gap Wind Farm,-33.48,138.1,2026-03-23T20:07:05.014391
2026/03/24 06:10:00,CLRKCWF1,62.19,Stanwell Corporation Limited ,Clarke Creek Wind Farm,Wind,338.0,18.4,Clarke Creek Wind Farm,-22.85,149.45,2026-03-23T20:07:05.014391
2026/03/24 06:10:00,CLRKCWF2,29.39,Stanwell Corporation Limited ,Clarke Creek Wind Farm,Wind,101.0,29.1,Clarke Creek Wind Farm,-22.85,149.45,2026-03-23T20:07:05.014391
2026/03/24 06:10:00,CNUNDAWF,11.51,Canunda Power Pty Ltd,Canunda Wind Farm,Wind,46.0,25.02,Canunda Wind Farm,-37.73,140.39,2026-03-23T20:07:05.014391
2026/03/24 06:10:00,COLWF01,23.66,Collector Wind Farm Pty Ltd,Collector Wind Farm 1,Wind,219.0,10.8,Collector Wind Farm 1,-34.8719,149.3967,2026-03-23T20:07:05.014391
2026/03/24 06:10:00,COOPGWF1,190.57,PARF Company 10 Pty Limited as The Trustee for Coopers Gap Project Trust,Coopers Gap Wind Farm,Wind,440.0,43.31,Coopers Gap Wind Farm,-26.74,151.45,2026-03-23T20:07:05.014391
2026/03/24 06:10:00,CROOKWF2,7.11,Crookwell Development Pty Ltd ,Crookwell 2 Wind Farm,Wind,91.0,7.81,Crookwell 2 Wind Farm,-34.52,149.54,2026-03-23T20:07:05.014391
2026/03/24 06:10:00,CROOKWF3,9.13,Crookwell 3 Development Pty Ltd,Crookwell 3 Wind Farm,Wind,56.0,16.3,Crookwell 3 Wind Farm,-34.52,149.54,2026-03-23T20:07:05.014391
2026/03/24 06:10:00,CROWLWF1,41.13,Pacific Hydro Crowlands Pty Ltd ,Crowlands Wind Farm,Wind,79.0,52.06,Crowlands Wind Farm,-37.13,143.16,2026-03-23T20:07:05.014391
2026/03/24 06:10:00,CRURWF1,57.8,CRWF Nominees Pty Ltd As Trustee For The CRWF Trust,Crudine Ridge Wind Farm,Wind,138.0,41.88,Crudine Ridge Wind Farm,-32.97,149.64,2026-03-23T20:07:05.014391
2026/03/24 06:10:00,CTHLWF1,0.0,Wild Cattle Hill Pty Ltd,Cattle Hill Wind Farm,Wind,144.0,0.0,Cattle Hill Wind Farm,-42.15,146.69,2026-03-23T20:07:05.014391
2026/03/24 06:10:00,DULAWF1,101.2,Dulacca Energy Project Co Pty Ltd,Dulacca Wind Farm,Wind,173.0,58.5,Dulacca Wind Farm,-26.63,149.87,2026-03-23T20:07:05.014391
2026/03/24 06:10:00,DUNDWF1,75.2,Dundonnell Wind Farm Pty Ltd,Dundonnell Wind Farm,Wind,168.0,44.76,Dundonnell Wind Farm,-37.52,142.58,2026-03-23T20:07:05.014391
2026/03/24 06:10:00,DUNDWF2,21.2,Dundonnell Wind Farm Pty Ltd,Dundonnell Wind Farm,Wind,46.0,46.09,Dundonnell Wind Farm,-37.52,142.58,2026-03-23T20:07:05.014391
2026/03/24 06:10:00,DUNDWF3,61.0,Dundonnell Wind Farm Pty Ltd,Dundonnell Wind Farm,Wind,122.0,50.0,Dundonnell Wind Farm,-37.52,142.58,2026-03-23T20:07:05.014391
2026/03/24 06:10:00,ELAINWF1,36.07,Lal Lal Wind Farms Nom Co Pty Ltd,Elaine Wind Farm,Wind,82.0,43.99,Elaine Wind Farm,-37.36,144.0,2026-03-23T20:07:05.014391
2026/03/24 06:10:00,FLYCRKWF,52.95,Iberdrola Australia Energy Markets Pty Limited,Flyers Creek Wind Farm,Wind,140.0,37.82,Flyers Creek Wind Farm,-33.365556,148.981944,2026-03-23T20:07:05.014391
2026/03/24 06:10:00,GPWFEST1,8.47,Golden Plains WF1 Pty Ltd as Trustee for the Golden Plains WF1 Unit Trust,Golden Plains Wind Farm East,Wind,240.0,3.53,Golden Plains Wind Farm East,-37.945091,143.752614,2026-03-23T20:07:05.014391
2026/03/24 06:10:00,GPWFEST2,23.2,Golden Plains WF1 Pty Ltd as Trustee for the Golden Plains WF1 Unit Trust,Golden Plains Wind Farm East,Wind,253.0,9.17,Golden Plains Wind Farm East,-37.945091,143.752614,2026-03-23T20:07:05.014391
2026/03/24 06:10:00,GPWFEST3,27.2,Golden Plains WF1 Pty Ltd as Trustee for the Golden Plains WF1 Unit Trust,Golden Plains Wind Farm East,Wind,240.0,11.33,Golden Plains Wind Farm East,-37.945091,143.752614,2026-03-23T20:07:05.014391
2026/03/24 06:10:00,GRANWF1,31.89,Granville Harbour Operations Pty Ltd as The Trustee for Granville Harbour Operations Trust,Granville Harbour Wind Farm,Wind,111.0,28.73,Granville Harbour Wind Farm,-41.8,145.06,2026-03-23T20:07:05.014391
2026/03/24 06:10:00,GSWF1A,61.68,Goyder Wind Farm 1 Pty Ltd as the Trustee for Goyder Wind Farm 1 Trust,Goyder South Wind Farm 1A,Wind,201.0,30.69,Goyder South Wind Farm 1A,-33.679758,138.937597,2026-03-23T20:07:05.014391
2026/03/24 06:10:00,GSWF1B1,64.45,Goyder Wind Farm 1B Pty Ltd as the Trustee for the Goyder Wind Farm 1B Trust,Goyder South Wind Farm 1B,Wind,196.0,32.88,Goyder South Wind Farm 1B,-33.679758,138.937597,2026-03-23T20:07:05.014391
2026/03/24 06:10:00,GULLRWF1,22.5,New Gullen Range Wind Farm Pty Ltd,Gullen Range Wind Farm,Wind,161.0,13.98,Gullen Range Wind Farm,-34.34,149.27,2026-03-23T20:07:05.014391
2026/03/24 06:10:00,GULLRWF2,36.29,New Gullen Range Wind Farm Pty Ltd,Gullen Range Wind Farm,Wind,107.0,33.92,Gullen Range Wind Farm,-34.34,149.27,2026-03-23T20:07:05.014391
2026/03/24 06:10:00,GUNNING1,13.74,Gunning Wind Energy Developments Pty Ltd,Gunning Wind Farm,Wind,47.0,29.23,Gunning Wind Farm,-34.813333,149.4,2026-03-23T20:07:05.014391
2026/03/24 06:10:00,HALLWF1,16.72,AGL SA Generation Pty Limited,Hallett 1 Wind Farm,Wind,95.0,17.6,Hallett 1 Wind Farm,-33.367778,138.728611,2026-03-23T20:07:05.014391
2026/03/24 06:10:00,HALLWF2,12.1,AGL SA Generation Pty Limited,Hallett 2 Wind Farm,Wind,71.0,17.04,Hallett 2 Wind Farm,-33.367778,138.728611,2026-03-23T20:07:05.014391
2026/03/24 06:10:00,HD1WF1,12.29,Hawkesdale Asset Pty Ltd as trustee for Hawkesdale Asset Trust,Hawkesdale Wind Farm,Wind,89.0,13.81,Hawkesdale Wind Farm,-38.147894,142.361381,2026-03-23T20:07:05.014391
2026/03/24 06:10:00,HDWF1,32.0,HWF1 Pty Ltd,Hornsdale Wind Farm,Wind,102.0,31.37,Hornsdale Wind Farm,-33.050556,138.543611,2026-03-23T20:07:05.014391
2026/03/24 06:10:00,HDWF2,21.7,HWF 2 Pty Ltd,Hornsdale Wind Farm 2,Wind,102.0,21.27,Hornsdale Wind Farm 2,-33.06,138.54,2026-03-23T20:07:05.014391
2026/03/24 06:10:00,HDWF3,20.3,HWF3 Pty Ltd,Hornsdale Wind Farm 3,Wind,109.0,18.62,Hornsdale Wind Farm 3,-33.06,138.54,2026-03-23T20:07:05.014391
2026/03/24 06:10:00,KABANWF1,33.04,Kaban Wind Farm Pty Ltd as trustee for Kaban Wind Farm Trust,Kaban Wind Farm,Wind,152.0,21.74,Kaban Wind Farm,-17.56,145.41,2026-03-23T20:07:05.014391
2026/03/24 06:10:00,KEPWF1,27.2,Kennedy Energy Park Pty Ltd,Kennedy Energy Park,Wind,43.0,63.26,Kennedy Energy Park,-20.88,144.42,2026-03-23T20:07:05.014391
2026/03/24 06:10:00,KIATAWF1,30.9,Kiata ProjectCo Pty Ltd Atf Kiata Project Trust,Kiata Wind Farm,Wind,31.0,99.68,Kiata Wind Farm,-36.4,141.75,2026-03-23T20:07:05.014391
2026/03/24 06:10:00,LGAPWF1,12.88,Lincoln Gap Wind Farm (Operations) Pty Ltd,Lincoln Gap Wind Farm,Wind,123.0,10.47,Lincoln Gap Wind Farm,-32.564279,137.557328,2026-03-23T20:07:05.014391
2026/03/24 06:10:00,LGAPWF1,12.88,Lincoln Gap Wind Farm (Operations) Pty Ltd,Lincoln Gap Wind Farm,Wind,123.0,10.47,Lincoln Gap Wind Farm,-32.564279,137.557328,2026-03-23T20:07:05.014391
2026/03/24 06:10:00,LGAPWF2,17.69,Lincoln Gap Wind Farm (Operations) Pty Ltd,Lincoln Gap Wind Farm,Wind,85.0,20.81,Lincoln Gap Wind Farm,-32.564279,137.557328,2026-03-23T20:07:05.014391
2026/03/24 06:10:00,LGAPWF2,17.69,Lincoln Gap Wind Farm (Operations) Pty Ltd,Lincoln Gap Wind Farm,Wind,85.0,20.81,Lincoln Gap Wind Farm,-32.564279,137.557328,2026-03-23T20:07:05.014391
2026/03/24 06:10:00,LKBONNY1,0.0,Lake Bonney Wind Power Pty Ltd,Lake Bonney Wind Farm Stage 1,Wind,81.0,0.0,Lake Bonney Wind Farm Stage 1,-37.76,140.4,2026-03-23T20:07:05.014391
2026/03/24 06:10:00,LKBONNY2,0.0,Lake Bonney Wind Power Pty Ltd,Lake Bonney Stage 2 Windfarm,Wind,159.0,0.0,Lake Bonney Stage 2 Windfarm,-37.76,140.4,2026-03-23T20:07:05.014391
2026/03/24 06:10:00,LKBONNY3,0.0,Lake Bonney Wind Power Pty Ltd,Lake Bonney Stage 3 Wind Farm,Wind,39.0,0.0,Lake Bonney Stage 3 Wind Farm,-37.737781,140.388137,2026-03-23T20:07:05.014391
2026/03/24 06:10:00,MACARTH1,108.0,AGL Hydro Partnership,Macarthur Wind Farm,Wind,420.0,25.71,Macarthur Wind Farm,-38.048957,142.192112,2026-03-23T20:07:05.014391
2026/03/24 06:10:00,MCINTYR1,310.87,MacIntyre UJV Operator Pty Ltd,MacIntyre Wind Farm,Wind,890.0,34.93,MacIntyre Wind Farm,-28.32,151.54,2026-03-23T20:07:05.014391
2026/03/24 06:10:00,MERCER01,89.8,Mt Mercer Windfarm Pty Ltd,Mt Mercer Wind Farm,Wind,131.0,68.55,Mt Mercer Wind Farm,-37.841111,143.871111,2026-03-23T20:07:05.014391
2026/03/24 06:10:00,MEWF1,31.0,Ergon Energy Queensland Pty Ltd ,Mount Emerald Wind Farm,Wind,178.0,17.42,Mount Emerald Wind Farm,-17.133007,145.380644,2026-03-23T20:07:05.014391
2026/03/24 06:10:00,MRTLSWF1,0.95,Mortlake South Wind Farm Pty Ltd,Mortlake South Wind Farm,Wind,153.0,0.62,Mortlake South Wind Farm,-38.127337,142.857801,2026-03-23T20:07:05.014391
2026/03/24 06:10:00,MTGELWF1,0.0,Mt. Gellibrand Wind Farm Pty Ltd,Mt Gellibrand Wind Farm,Wind,132.0,0.0,Mt Gellibrand Wind Farm,-38.23,143.77,2026-03-23T20:07:05.014391
2026/03/24 06:10:00,MTMILLAR,21.6,Mt Millar Wind Farm Pty Ltd,Mt Millar Wind Farm,Wind,70.0,30.86,Mt Millar Wind Farm,-33.624444,136.703611,2026-03-23T20:07:05.014391
2026/03/24 06:10:00,MUSSELR1,12.7,Hydro-Electric Corporation,Musselroe Wind Farm,Wind,168.0,7.56,Musselroe Wind Farm,-40.780225,148.010799,2026-03-23T20:07:05.014391
2026/03/24 06:10:00,MUWAWF1,141.06,Telstra Energy (Generation) Pty Ltd,Murra Warra Wind Farm,Wind,225.7,62.5,Murra Warra Wind Farm,-36.432404,142.317853,2026-03-23T20:07:05.014391
2026/03/24 06:10:00,MUWAWF2,116.0,Murra Warra II Project Co Pty Ltd ATF The Murra Warra II Project Trust,Murra Warra Wind Farm Stage 2,Wind,203.0,57.14,Murra Warra Wind Farm Stage 2,-36.43,142.32,2026-03-23T20:07:05.014391
2026/03/24 06:10:00,NBHWF1,26.7,AGL SA Generation Pty Limited,North Brown Hill Wind Farm,Wind,132.0,20.23,North Brown Hill Wind Farm,-33.367778,138.728611,2026-03-23T20:07:05.014391
2026/03/24 06:10:00,OAKLAND1,24.5,AGL Hydro Partnership,Oaklands Hill Wind Farm,Wind,63.0,38.89,Oaklands Hill Wind Farm,-37.683078,142.551678,2026-03-23T20:07:05.014391
2026/03/24 06:10:00,PAREPW1,8.36,Iberdrola Australia Energy Markets Pty Limited,Port Augusta Renewable Energy Park,Wind,201.0,4.16,Port Augusta Renewable Energy Park,-32.566944,137.856111,2026-03-23T20:07:05.014391
2026/03/24 06:10:00,RYANCWF1,47.56,Ryan Corner Development Pty Ltd,Ryan Corner Wind Farm,Wind,205.0,23.2,Ryan Corner Wind Farm,-38.271017,142.140647,2026-03-23T20:07:05.014391
2026/03/24 06:10:00,RYEPARK1,62.77,Rye Park Renewable Energy Pty Ltd as trustee for Rye Park Wind Farm Trust,Rye Park Renewable Energy,Wind,384.0,16.35,Rye Park Renewable Energy,-32.138333,148.972778,2026-03-23T20:07:05.014391
2026/03/24 06:10:00,SALTCRK1,0.0,Salt Creek Wind Farm Pty Ltd,Salt Creek Wind Farm,Wind,54.0,0.0,Salt Creek Wind Farm,-37.95,142.63,2026-03-23T20:07:05.014391
2026/03/24 06:10:00,SAPHWF1,242.61,The Trustee For The SWF1 Operations Trust,Sapphire Wind Farm,Wind,270.0,89.86,Sapphire Wind Farm,-29.7,151.41,2026-03-23T20:07:05.014391
2026/03/24 06:10:00,SNOWNTH1,18.4,Snowtown Wind Farm Stage 2 Pty Ltd,Snowtown Wind Farm Stage 2 North,Wind,144.0,12.78,Snowtown Wind Farm Stage 2 North,-33.83,138.118611,2026-03-23T20:07:05.014391
2026/03/24 06:10:00,SNOWSTH1,30.3,Snowtown Wind Farm Stage 2 Pty Ltd,Snowtown South Wind Farm,Wind,126.0,24.05,Snowtown South Wind Farm,-33.83,138.118611,2026-03-23T20:07:05.014391
2026/03/24 06:10:00,SNOWTWN1,19.9,Snowtown Wind Farm Pty Ltd,Snowtown Wind Farm Units 1 And 47,Wind,99.0,20.1,Snowtown Wind Farm Units 1 And 47,-33.83,138.118611,2026-03-23T20:07:05.014391
2026/03/24 06:10:00,STARHLWF,3.2,Starfish Hill Wind Farm Pty Ltd,Starfish Hill Wind Farm,Wind,35.0,9.14,Starfish Hill Wind Farm,-35.58,138.14,2026-03-23T20:07:05.014391
2026/03/24 06:10:00,STOCKYD1,346.82,Stockyard Hill Wind Farm Pty Ltd,Stockyard Hill Wind Farm,Wind,511.0,67.87,Stockyard Hill Wind Farm,-37.535833,143.251389,2026-03-23T20:07:05.014391
2026/03/24 06:10:00,STWF1,0.0,PARF Company 8 Pty Ltd as The Trustee for Silverton Project Trust,Silverton Wind Farm,Wind,198.0,0.0,Silverton Wind Farm,-37.683168,142.551678,2026-03-23T20:07:05.014391
2026/03/24 06:10:00,TARALGA1,4.94,Taralga Wind Farm Nominees No 2 Pty Ltd (ATF Taralga Wind Farm Operating Trust),Taralga Wind Farm,Wind,106.0,4.66,Taralga Wind Farm,-34.42352,149.826267,2026-03-23T20:07:05.014391
2026/03/24 06:10:00,WAMBOWF1,56.73,Stanwell Corporation Limited,Wambo Wind Farm 1,Wind,245.0,23.16,Wambo Wind Farm 1,-35.187301,149.524945,2026-03-23T20:07:05.014391
2026/03/24 06:10:00,WATERLWF,31.9,Waterloo Wind Farm Pty Ltd,Waterloo Wind Farm,Wind,130.0,24.54,Waterloo Wind Farm,-34.00094,138.911567,2026-03-23T20:07:05.014391
2026/03/24 06:10:00,WGWF1,12.1,Willogoleche Power Pty Ltd As The Trustee For The Willogoleche Operating Trust,Willogoleche Wind Farm,Wind,119.0,10.17,Willogoleche Wind Farm,-33.39,138.85,2026-03-23T20:07:05.014391
2026/03/24 06:10:00,WOODLWN1,2.25,Woodlawn Wind Pty Ltd,Woodlawn Wind Farm,Wind,48.0,4.69,Woodlawn Wind Farm,-35.08,149.62,2026-03-23T20:07:05.014391
2026/03/24 06:10:00,WPWF,0.0,AGL SA Generation Pty Limited,Wattle Point Wind Farm,Wind,91.0,0.0,Wattle Point Wind Farm,-35.111624,137.7219,2026-03-23T20:07:05.014391
2026/03/24 06:10:00,WRWF1,68.92,White Rock Wind Farm Pty Ltd,White Rock Wind Farm,Wind,172.0,40.07,White Rock Wind Farm,-29.79,151.54,2026-03-23T20:07:05.014391
2026/03/24 06:10:00,YENDWF1,95.54,Lal Lal Wind Farms Nom Co Pty Ltd,Yendon Wind Farm,Wind,142.0,67.28,Yendon Wind Farm,-37.629987,144.022717,2026-03-23T20:07:05.014391
