SETTLEMENTDATE,DUID,SCADAVALUE,Participant,Station Name,Fuel Source - Primary,MAX_CAP,utilisation_pct,Plant,Latitude,Longitude,timestamp_utc
2026/02/13 00:40:00,CAPTL_WF,67.5,Iberdrola Australia Holdings Pty Limited,Capital Wind Farm,Wind,140.0,48.21,Capital Wind Farm,-35.1,149.31,2026-02-12T14:37:08.326813
2026/02/13 00:40:00,CHALLHWF,23.3,Pacific Hydro Challicum Hills Pty Ltd,Challicum Hills Wind Farm,Wind,52.0,44.81,Challicum Hills Wind Farm,-37.38,143.11,2026-02-12T14:37:08.326813
2026/02/13 00:40:00,CULLRGWF,23.01,Cullerin Range Wind Farm Pty Ltd,Cullerin Range Wind Farm,Wind,30.0,76.7,Cullerin Range Wind Farm,-34.81,149.4,2026-02-12T14:37:08.326813
2026/02/13 00:40:00,DIAPURWF1,4.1,Y.E.S. Energy (SA) Pty Ltd,Diapur Wind Farm,Wind,7.0,58.57,Diapur Wind Farm,-36.3425,141.43,2026-02-12T14:37:08.326813
2026/02/13 00:40:00,MLWF1,3.08,Mortons Lane Windfarm Pty Limited,Mortons Lane Wind Farm,Wind,20.0,15.4,Mortons Lane Wind Farm,-37.84,142.45,2026-02-12T14:37:08.326813
2026/02/13 00:40:00,WAUBRAWF,71.09,Pyrenees Wind Energy Developments Pty Ltd,Waubra Wind Farm,Wind,192.0,37.03,Waubra Wind Farm,-37.394498,143.638982,2026-02-12T14:37:08.326813
2026/02/13 00:40:00,WOOLNTH1,42.25,Hydro-Electric Corporation,Woolnorth Studland Bay / Bluff Point Wind Farm,Wind,140.0,30.18,Woolnorth Studland Bay / Bluff Point Wind Farm,-40.69,144.72,2026-02-12T14:37:08.326813
2026/02/13 00:40:00,YAMBUKWF,8.5,Energy Pacific (Vic) Pty Ltd,Yambuk Wind Farm,Wind,30.0,28.33,Yambuk Wind Farm,-38.299083,142.027577,2026-02-12T14:37:08.326813
2026/02/13 00:40:00,YSWF1,11.0,Pacific Hydro Yaloak South Pty Ltd,Yaloak South Wind Farm,Wind,28.0,39.29,Yaloak South Wind Farm,-37.7163,144.242853,2026-02-12T14:37:08.326813
2026/02/13 00:40:00,ARWF1,58.6,Ararat Wind Farm Pty Ltd,Ararat Wind Farm,Wind,241.0,24.32,Ararat Wind Farm,-37.232778,143.031389,2026-02-12T14:37:08.326813
2026/02/13 00:40:00,BALDHWF1,9.4,Alinta Energy Retail Sales Pty Ltd,Bald Hills Wind Farm,Wind,106.0,8.87,Bald Hills Wind Farm,-38.79,145.93,2026-02-12T14:37:08.326813
2026/02/13 00:40:00,BANGOWF1,130.9,BWF Nominees Pty Ltd as The Trustee for BWF Trust,Bango 973 Wind Farm,Wind,155.0,84.45,Bango 973 Wind Farm,-34.551582,148.732808,2026-02-12T14:37:08.326813
2026/02/13 00:40:00,BANGOWF2,66.6,BWF Nominees Pty Ltd as The Trustee for BWF Trust,Bango 999 Wind Farm,Wind,82.0,81.22,Bango 999 Wind Farm,-34.551582,148.732808,2026-02-12T14:37:08.326813
2026/02/13 00:40:00,BLUFF1,34.2,AGL SA Generation Pty Limited,The Bluff Wind Farm,Wind,53.0,64.53,The Bluff Wind Farm,-33.367778,138.728611,2026-02-12T14:37:08.326813
2026/02/13 00:40:00,BOCORWF1,2.69,Boco Rock Wind Farm Pty Ltd,Boco Rock Wind Farm,Wind,111.0,2.42,Boco Rock Wind Farm,-36.578611,149.103333,2026-02-12T14:37:08.326813
2026/02/13 00:40:00,BRYB1WF1,39.05,Berrybank Development Pty Ltd,Berrybank Wind Farm,Wind,175.9,22.2,Berrybank Wind Farm,-37.94,143.52,2026-02-12T14:37:08.326813
2026/02/13 00:40:00,BRYB2WF2,20.59,Berrybank 2 Asset Pty Ltd as trustee for Berrybank 2 Asset Trust,Berrybank 2 Wind Farm,Wind,105.0,19.61,Berrybank 2 Wind Farm,-37.94,143.52,2026-02-12T14:37:08.326813
2026/02/13 00:40:00,BULGANA1,62.24,Bulgana Wind Farm Pty Ltd,Bulgana Green Power Hub,Wind,204.0,30.51,Bulgana Green Power Hub,-37.0975,142.973611,2026-02-12T14:37:08.326813
2026/02/13 00:40:00,CATHROCK,21.8,Cathedral Rocks Wind Farm Pty Ltd,Cathedral Rocks,Wind,66.0,33.03,Cathedral Rocks,-34.51,135.35,2026-02-12T14:37:08.326813
2026/02/13 00:40:00,CHYTWF1,53.21,Cherry Tree Wind Farm Pty Ltd as trustee for The Cherry Tree Project trust ,Cherry Tree Wind Farm,Wind,57.0,93.35,Cherry Tree Wind Farm,-37.1,145.26,2026-02-12T14:37:08.326813
2026/02/13 00:40:00,CLEMGPWF,53.95,Pacific Hydro Clements Gap Pty Ltd,Clements Gap Wind Farm,Wind,57.0,94.65,Clements Gap Wind Farm,-33.48,138.1,2026-02-12T14:37:08.326813
2026/02/13 00:40:00,CLRKCWF1,150.4,Stanwell Corporation Limited ,Clarke Creek Wind Farm,Wind,338.0,44.5,Clarke Creek Wind Farm,-22.85,149.45,2026-02-12T14:37:08.326813
2026/02/13 00:40:00,CLRKCWF2,34.79,Stanwell Corporation Limited ,Clarke Creek Wind Farm,Wind,101.0,34.45,Clarke Creek Wind Farm,-22.85,149.45,2026-02-12T14:37:08.326813
2026/02/13 00:40:00,CNUNDAWF,3.3,Canunda Power Pty Ltd,Canunda Wind Farm,Wind,46.0,7.17,Canunda Wind Farm,-37.73,140.39,2026-02-12T14:37:08.326813
2026/02/13 00:40:00,COLWF01,124.03,Collector Wind Farm Pty Ltd,Collector Wind Farm 1,Wind,219.0,56.63,Collector Wind Farm 1,-34.8719,149.3967,2026-02-12T14:37:08.326813
2026/02/13 00:40:00,COOPGWF1,106.96,PARF Company 10 Pty Limited as The Trustee for Coopers Gap Project Trust,Coopers Gap Wind Farm,Wind,440.0,24.31,Coopers Gap Wind Farm,-26.74,151.45,2026-02-12T14:37:08.326813
2026/02/13 00:40:00,CROOKWF2,60.11,Crookwell Development Pty Ltd ,Crookwell 2 Wind Farm,Wind,91.0,66.05,Crookwell 2 Wind Farm,-34.52,149.54,2026-02-12T14:37:08.326813
2026/02/13 00:40:00,CROOKWF3,43.34,Crookwell 3 Development Pty Ltd,Crookwell 3 Wind Farm,Wind,56.0,77.39,Crookwell 3 Wind Farm,-34.52,149.54,2026-02-12T14:37:08.326813
2026/02/13 00:40:00,CROWLWF1,11.38,Pacific Hydro Crowlands Pty Ltd ,Crowlands Wind Farm,Wind,79.0,14.41,Crowlands Wind Farm,-37.13,143.16,2026-02-12T14:37:08.326813
2026/02/13 00:40:00,CRURWF1,124.2,CRWF Nominees Pty Ltd As Trustee For The CRWF Trust,Crudine Ridge Wind Farm,Wind,138.0,90.0,Crudine Ridge Wind Farm,-32.97,149.64,2026-02-12T14:37:08.326813
2026/02/13 00:40:00,CTHLWF1,101.5,Wild Cattle Hill Pty Ltd,Cattle Hill Wind Farm,Wind,144.0,70.49,Cattle Hill Wind Farm,-42.15,146.69,2026-02-12T14:37:08.326813
2026/02/13 00:40:00,DULAWF1,0.0,Dulacca Energy Project Co Pty Ltd,Dulacca Wind Farm,Wind,173.0,0.0,Dulacca Wind Farm,-26.63,149.87,2026-02-12T14:37:08.326813
2026/02/13 00:40:00,DUNDWF1,46.52,Dundonnell Wind Farm Pty Ltd,Dundonnell Wind Farm,Wind,168.0,27.69,Dundonnell Wind Farm,-37.52,142.58,2026-02-12T14:37:08.326813
2026/02/13 00:40:00,DUNDWF2,17.13,Dundonnell Wind Farm Pty Ltd,Dundonnell Wind Farm,Wind,46.0,37.24,Dundonnell Wind Farm,-37.52,142.58,2026-02-12T14:37:08.326813
2026/02/13 00:40:00,DUNDWF3,32.16,Dundonnell Wind Farm Pty Ltd,Dundonnell Wind Farm,Wind,122.0,26.36,Dundonnell Wind Farm,-37.52,142.58,2026-02-12T14:37:08.326813
2026/02/13 00:40:00,ELAINWF1,25.55,Lal Lal Wind Farms Nom Co Pty Ltd,Elaine Wind Farm,Wind,82.0,31.16,Elaine Wind Farm,-37.36,144.0,2026-02-12T14:37:08.326813
2026/02/13 00:40:00,FLYCRKWF,63.69,Iberdrola Australia Energy Markets Pty Limited,Flyers Creek Wind Farm,Wind,140.0,45.49,Flyers Creek Wind Farm,-33.365556,148.981944,2026-02-12T14:37:08.326813
2026/02/13 00:40:00,GPWFEST1,36.91,Golden Plains WF1 Pty Ltd as Trustee for the Golden Plains WF1 Unit Trust,Golden Plains Wind Farm East,Wind,240.0,15.38,Golden Plains Wind Farm East,-37.945091,143.752614,2026-02-12T14:37:08.326813
2026/02/13 00:40:00,GPWFEST2,31.49,Golden Plains WF1 Pty Ltd as Trustee for the Golden Plains WF1 Unit Trust,Golden Plains Wind Farm East,Wind,253.0,12.45,Golden Plains Wind Farm East,-37.945091,143.752614,2026-02-12T14:37:08.326813
2026/02/13 00:40:00,GPWFEST3,29.13,Golden Plains WF1 Pty Ltd as Trustee for the Golden Plains WF1 Unit Trust,Golden Plains Wind Farm East,Wind,240.0,12.14,Golden Plains Wind Farm East,-37.945091,143.752614,2026-02-12T14:37:08.326813
2026/02/13 00:40:00,GRANWF1,8.4,Granville Harbour Operations Pty Ltd as The Trustee for Granville Harbour Operations Trust,Granville Harbour Wind Farm,Wind,111.0,7.57,Granville Harbour Wind Farm,-41.8,145.06,2026-02-12T14:37:08.326813
2026/02/13 00:40:00,GSWF1A,145.2,Goyder Wind Farm 1 Pty Ltd as the Trustee for Goyder Wind Farm 1 Trust,Goyder South Wind Farm 1A,Wind,201.0,72.24,Goyder South Wind Farm 1A,-33.679758,138.937597,2026-02-12T14:37:08.326813
2026/02/13 00:40:00,GSWF1B1,151.06,Goyder Wind Farm 1B Pty Ltd as the Trustee for the Goyder Wind Farm 1B Trust,Goyder South Wind Farm 1B,Wind,196.0,77.07,Goyder South Wind Farm 1B,-33.679758,138.937597,2026-02-12T14:37:08.326813
2026/02/13 00:40:00,GULLRWF1,89.94,New Gullen Range Wind Farm Pty Ltd,Gullen Range Wind Farm,Wind,161.0,55.86,Gullen Range Wind Farm,-34.34,149.27,2026-02-12T14:37:08.326813
2026/02/13 00:40:00,GULLRWF2,102.05,New Gullen Range Wind Farm Pty Ltd,Gullen Range Wind Farm,Wind,107.0,95.37,Gullen Range Wind Farm,-34.34,149.27,2026-02-12T14:37:08.326813
2026/02/13 00:40:00,GUNNING1,43.47,Gunning Wind Energy Developments Pty Ltd,Gunning Wind Farm,Wind,47.0,92.49,Gunning Wind Farm,-34.813333,149.4,2026-02-12T14:37:08.326813
2026/02/13 00:40:00,HALLWF1,73.06,AGL SA Generation Pty Limited,Hallett 1 Wind Farm,Wind,95.0,76.91,Hallett 1 Wind Farm,-33.367778,138.728611,2026-02-12T14:37:08.326813
2026/02/13 00:40:00,HALLWF2,50.73,AGL SA Generation Pty Limited,Hallett 2 Wind Farm,Wind,71.0,71.45,Hallett 2 Wind Farm,-33.367778,138.728611,2026-02-12T14:37:08.326813
2026/02/13 00:40:00,HD1WF1,23.99,Hawkesdale Asset Pty Ltd as trustee for Hawkesdale Asset Trust,Hawkesdale Wind Farm,Wind,89.0,26.96,Hawkesdale Wind Farm,-38.147894,142.361381,2026-02-12T14:37:08.326813
2026/02/13 00:40:00,HDWF1,40.0,HWF1 Pty Ltd,Hornsdale Wind Farm,Wind,102.0,39.22,Hornsdale Wind Farm,-33.050556,138.543611,2026-02-12T14:37:08.326813
2026/02/13 00:40:00,HDWF2,30.0,HWF 2 Pty Ltd,Hornsdale Wind Farm 2,Wind,102.0,29.41,Hornsdale Wind Farm 2,-33.06,138.54,2026-02-12T14:37:08.326813
2026/02/13 00:40:00,HDWF3,29.7,HWF3 Pty Ltd,Hornsdale Wind Farm 3,Wind,109.0,27.25,Hornsdale Wind Farm 3,-33.06,138.54,2026-02-12T14:37:08.326813
2026/02/13 00:40:00,KABANWF1,15.07,Kaban Wind Farm Pty Ltd as trustee for Kaban Wind Farm Trust,Kaban Wind Farm,Wind,152.0,9.91,Kaban Wind Farm,-17.56,145.41,2026-02-12T14:37:08.326813
2026/02/13 00:40:00,KEPWF1,1.3,Kennedy Energy Park Pty Ltd,Kennedy Energy Park,Wind,43.0,3.02,Kennedy Energy Park,-20.88,144.42,2026-02-12T14:37:08.326813
2026/02/13 00:40:00,KIATAWF1,21.9,Kiata ProjectCo Pty Ltd Atf Kiata Project Trust,Kiata Wind Farm,Wind,31.0,70.65,Kiata Wind Farm,-36.4,141.75,2026-02-12T14:37:08.326813
2026/02/13 00:40:00,LGAPWF1,73.41,Lincoln Gap Wind Farm (Operations) Pty Ltd,Lincoln Gap Wind Farm,Wind,123.0,59.68,Lincoln Gap Wind Farm,-32.564279,137.557328,2026-02-12T14:37:08.326813
2026/02/13 00:40:00,LGAPWF1,73.41,Lincoln Gap Wind Farm (Operations) Pty Ltd,Lincoln Gap Wind Farm,Wind,123.0,59.68,Lincoln Gap Wind Farm,-32.564279,137.557328,2026-02-12T14:37:08.326813
2026/02/13 00:40:00,LGAPWF2,63.85,Lincoln Gap Wind Farm (Operations) Pty Ltd,Lincoln Gap Wind Farm,Wind,85.0,75.12,Lincoln Gap Wind Farm,-32.564279,137.557328,2026-02-12T14:37:08.326813
2026/02/13 00:40:00,LGAPWF2,63.85,Lincoln Gap Wind Farm (Operations) Pty Ltd,Lincoln Gap Wind Farm,Wind,85.0,75.12,Lincoln Gap Wind Farm,-32.564279,137.557328,2026-02-12T14:37:08.326813
2026/02/13 00:40:00,LKBONNY1,4.02,Lake Bonney Wind Power Pty Ltd,Lake Bonney Wind Farm Stage 1,Wind,81.0,4.96,Lake Bonney Wind Farm Stage 1,-37.76,140.4,2026-02-12T14:37:08.326813
2026/02/13 00:40:00,LKBONNY2,9.82,Lake Bonney Wind Power Pty Ltd,Lake Bonney Stage 2 Windfarm,Wind,159.0,6.18,Lake Bonney Stage 2 Windfarm,-37.76,140.4,2026-02-12T14:37:08.326813
2026/02/13 00:40:00,LKBONNY3,2.85,Lake Bonney Wind Power Pty Ltd,Lake Bonney Stage 3 Wind Farm,Wind,39.0,7.31,Lake Bonney Stage 3 Wind Farm,-37.737781,140.388137,2026-02-12T14:37:08.326813
2026/02/13 00:40:00,MACARTH1,24.0,AGL Hydro Partnership,Macarthur Wind Farm,Wind,420.0,5.71,Macarthur Wind Farm,-38.048957,142.192112,2026-02-12T14:37:08.326813
2026/02/13 00:40:00,MCINTYR1,358.17,MacIntyre UJV Operator Pty Ltd,MacIntyre Wind Farm,Wind,890.0,40.24,MacIntyre Wind Farm,-28.32,151.54,2026-02-12T14:37:08.326813
2026/02/13 00:40:00,MERCER01,14.3,Mt Mercer Windfarm Pty Ltd,Mt Mercer Wind Farm,Wind,131.0,10.92,Mt Mercer Wind Farm,-37.841111,143.871111,2026-02-12T14:37:08.326813
2026/02/13 00:40:00,MEWF1,17.0,Ergon Energy Queensland Pty Ltd ,Mount Emerald Wind Farm,Wind,178.0,9.55,Mount Emerald Wind Farm,-17.133007,145.380644,2026-02-12T14:37:08.326813
2026/02/13 00:40:00,MRTLSWF1,30.58,Mortlake South Wind Farm Pty Ltd,Mortlake South Wind Farm,Wind,153.0,19.99,Mortlake South Wind Farm,-38.127337,142.857801,2026-02-12T14:37:08.326813
2026/02/13 00:40:00,MTGELWF1,5.58,Mt. Gellibrand Wind Farm Pty Ltd,Mt Gellibrand Wind Farm,Wind,132.0,4.23,Mt Gellibrand Wind Farm,-38.23,143.77,2026-02-12T14:37:08.326813
2026/02/13 00:40:00,MTMILLAR,34.0,Mt Millar Wind Farm Pty Ltd,Mt Millar Wind Farm,Wind,70.0,48.57,Mt Millar Wind Farm,-33.624444,136.703611,2026-02-12T14:37:08.326813
2026/02/13 00:40:00,MUSSELR1,14.2,Hydro-Electric Corporation,Musselroe Wind Farm,Wind,168.0,8.45,Musselroe Wind Farm,-40.780225,148.010799,2026-02-12T14:37:08.326813
2026/02/13 00:40:00,MUWAWF1,188.91,Telstra Energy (Generation) Pty Ltd,Murra Warra Wind Farm,Wind,225.7,83.7,Murra Warra Wind Farm,-36.432404,142.317853,2026-02-12T14:37:08.326813
2026/02/13 00:40:00,MUWAWF2,147.7,Murra Warra II Project Co Pty Ltd ATF The Murra Warra II Project Trust,Murra Warra Wind Farm Stage 2,Wind,203.0,72.76,Murra Warra Wind Farm Stage 2,-36.43,142.32,2026-02-12T14:37:08.326813
2026/02/13 00:40:00,NBHWF1,104.4,AGL SA Generation Pty Limited,North Brown Hill Wind Farm,Wind,132.0,79.09,North Brown Hill Wind Farm,-33.367778,138.728611,2026-02-12T14:37:08.326813
2026/02/13 00:40:00,OAKLAND1,13.5,AGL Hydro Partnership,Oaklands Hill Wind Farm,Wind,63.0,21.43,Oaklands Hill Wind Farm,-37.683078,142.551678,2026-02-12T14:37:08.326813
2026/02/13 00:40:00,PAREPW1,57.93,Iberdrola Australia Energy Markets Pty Limited,Port Augusta Renewable Energy Park,Wind,201.0,28.82,Port Augusta Renewable Energy Park,-32.566944,137.856111,2026-02-12T14:37:08.326813
2026/02/13 00:40:00,RYANCWF1,34.09,Ryan Corner Development Pty Ltd,Ryan Corner Wind Farm,Wind,205.0,16.63,Ryan Corner Wind Farm,-38.271017,142.140647,2026-02-12T14:37:08.326813
2026/02/13 00:40:00,RYEPARK1,311.61,Rye Park Renewable Energy Pty Ltd as trustee for Rye Park Wind Farm Trust,Rye Park Renewable Energy,Wind,384.0,81.15,Rye Park Renewable Energy,-32.138333,148.972778,2026-02-12T14:37:08.326813
2026/02/13 00:40:00,SALTCRK1,7.68,Salt Creek Wind Farm Pty Ltd,Salt Creek Wind Farm,Wind,54.0,14.22,Salt Creek Wind Farm,-37.95,142.63,2026-02-12T14:37:08.326813
2026/02/13 00:40:00,SAPHWF1,216.11,The Trustee For The SWF1 Operations Trust,Sapphire Wind Farm,Wind,270.0,80.04,Sapphire Wind Farm,-29.7,151.41,2026-02-12T14:37:08.326813
2026/02/13 00:40:00,SNOWNTH1,126.1,Snowtown Wind Farm Stage 2 Pty Ltd,Snowtown Wind Farm Stage 2 North,Wind,144.0,87.57,Snowtown Wind Farm Stage 2 North,-33.83,138.118611,2026-02-12T14:37:08.326813
2026/02/13 00:40:00,SNOWSTH1,96.8,Snowtown Wind Farm Stage 2 Pty Ltd,Snowtown South Wind Farm,Wind,126.0,76.83,Snowtown South Wind Farm,-33.83,138.118611,2026-02-12T14:37:08.326813
2026/02/13 00:40:00,SNOWTWN1,81.02,Snowtown Wind Farm Pty Ltd,Snowtown Wind Farm Units 1 And 47,Wind,99.0,81.84,Snowtown Wind Farm Units 1 And 47,-33.83,138.118611,2026-02-12T14:37:08.326813
2026/02/13 00:40:00,STARHLWF,21.99,Starfish Hill Wind Farm Pty Ltd,Starfish Hill Wind Farm,Wind,35.0,62.83,Starfish Hill Wind Farm,-35.58,138.14,2026-02-12T14:37:08.326813
2026/02/13 00:40:00,STOCKYD1,251.06,Stockyard Hill Wind Farm Pty Ltd,Stockyard Hill Wind Farm,Wind,511.0,49.13,Stockyard Hill Wind Farm,-37.535833,143.251389,2026-02-12T14:37:08.326813
2026/02/13 00:40:00,STWF1,104.71,PARF Company 8 Pty Ltd as The Trustee for Silverton Project Trust,Silverton Wind Farm,Wind,198.0,52.88,Silverton Wind Farm,-37.683168,142.551678,2026-02-12T14:37:08.326813
2026/02/13 00:40:00,TARALGA1,62.9,Taralga Wind Farm Nominees No 2 Pty Ltd (ATF Taralga Wind Farm Operating Trust),Taralga Wind Farm,Wind,106.0,59.34,Taralga Wind Farm,-34.42352,149.826267,2026-02-12T14:37:08.326813
2026/02/13 00:40:00,WAMBOWF1,58.43,Stanwell Corporation Limited,Wambo Wind Farm 1,Wind,245.0,23.85,Wambo Wind Farm 1,-35.187301,149.524945,2026-02-12T14:37:08.326813
2026/02/13 00:40:00,WATERLWF,82.3,Waterloo Wind Farm Pty Ltd,Waterloo Wind Farm,Wind,130.0,63.31,Waterloo Wind Farm,-34.00094,138.911567,2026-02-12T14:37:08.326813
2026/02/13 00:40:00,WGWF1,79.8,Willogoleche Power Pty Ltd As The Trustee For The Willogoleche Operating Trust,Willogoleche Wind Farm,Wind,119.0,67.06,Willogoleche Wind Farm,-33.39,138.85,2026-02-12T14:37:08.326813
2026/02/13 00:40:00,WOODLWN1,30.74,Woodlawn Wind Pty Ltd,Woodlawn Wind Farm,Wind,48.0,64.04,Woodlawn Wind Farm,-35.08,149.62,2026-02-12T14:37:08.326813
2026/02/13 00:40:00,WPWF,69.95,AGL SA Generation Pty Limited,Wattle Point Wind Farm,Wind,91.0,76.87,Wattle Point Wind Farm,-35.111624,137.7219,2026-02-12T14:37:08.326813
2026/02/13 00:40:00,WRWF1,100.79,White Rock Wind Farm Pty Ltd,White Rock Wind Farm,Wind,172.0,58.6,White Rock Wind Farm,-29.79,151.54,2026-02-12T14:37:08.326813
2026/02/13 00:40:00,YENDWF1,50.78,Lal Lal Wind Farms Nom Co Pty Ltd,Yendon Wind Farm,Wind,142.0,35.76,Yendon Wind Farm,-37.629987,144.022717,2026-02-12T14:37:08.326813
