SETTLEMENTDATE,DUID,SCADAVALUE,Participant,Station Name,Fuel Source - Primary,MAX_CAP,utilisation_pct,Plant,Latitude,Longitude,timestamp_utc
2026/02/25 18:05:00,CAPTL_WF,84.67,Iberdrola Australia Holdings Pty Limited,Capital Wind Farm,Wind,140.0,60.48,Capital Wind Farm,-35.1,149.31,2026-02-25T08:09:14.934301
2026/02/25 18:05:00,CHALLHWF,41.3,Pacific Hydro Challicum Hills Pty Ltd,Challicum Hills Wind Farm,Wind,52.0,79.42,Challicum Hills Wind Farm,-37.38,143.11,2026-02-25T08:09:14.934301
2026/02/25 18:05:00,CULLRGWF,9.52,Cullerin Range Wind Farm Pty Ltd,Cullerin Range Wind Farm,Wind,30.0,31.73,Cullerin Range Wind Farm,-34.81,149.4,2026-02-25T08:09:14.934301
2026/02/25 18:05:00,DIAPURWF1,2.8,Y.E.S. Energy (SA) Pty Ltd,Diapur Wind Farm,Wind,7.0,40.0,Diapur Wind Farm,-36.3425,141.43,2026-02-25T08:09:14.934301
2026/02/25 18:05:00,MLWF1,17.55,Mortons Lane Windfarm Pty Limited,Mortons Lane Wind Farm,Wind,20.0,87.75,Mortons Lane Wind Farm,-37.84,142.45,2026-02-25T08:09:14.934301
2026/02/25 18:05:00,WAUBRAWF,160.17,Pyrenees Wind Energy Developments Pty Ltd,Waubra Wind Farm,Wind,192.0,83.42,Waubra Wind Farm,-37.394498,143.638982,2026-02-25T08:09:14.934301
2026/02/25 18:05:00,WOOLNTH1,40.03,Hydro-Electric Corporation,Woolnorth Studland Bay / Bluff Point Wind Farm,Wind,140.0,28.59,Woolnorth Studland Bay / Bluff Point Wind Farm,-40.69,144.72,2026-02-25T08:09:14.934301
2026/02/25 18:05:00,YAMBUKWF,18.4,Energy Pacific (Vic) Pty Ltd,Yambuk Wind Farm,Wind,30.0,61.33,Yambuk Wind Farm,-38.299083,142.027577,2026-02-25T08:09:14.934301
2026/02/25 18:05:00,YSWF1,11.3,Pacific Hydro Yaloak South Pty Ltd,Yaloak South Wind Farm,Wind,28.0,40.36,Yaloak South Wind Farm,-37.7163,144.242853,2026-02-25T08:09:14.934301
2026/02/25 18:05:00,ARWF1,145.9,Ararat Wind Farm Pty Ltd,Ararat Wind Farm,Wind,241.0,60.54,Ararat Wind Farm,-37.232778,143.031389,2026-02-25T08:09:14.934301
2026/02/25 18:05:00,BALDHWF1,3.03,Alinta Energy Retail Sales Pty Ltd,Bald Hills Wind Farm,Wind,106.0,2.86,Bald Hills Wind Farm,-38.79,145.93,2026-02-25T08:09:14.934301
2026/02/25 18:05:00,BANGOWF1,150.9,BWF Nominees Pty Ltd as The Trustee for BWF Trust,Bango 973 Wind Farm,Wind,155.0,97.35,Bango 973 Wind Farm,-34.551582,148.732808,2026-02-25T08:09:14.934301
2026/02/25 18:05:00,BANGOWF2,81.3,BWF Nominees Pty Ltd as The Trustee for BWF Trust,Bango 999 Wind Farm,Wind,82.0,99.15,Bango 999 Wind Farm,-34.551582,148.732808,2026-02-25T08:09:14.934301
2026/02/25 18:05:00,BLUFF1,14.5,AGL SA Generation Pty Limited,The Bluff Wind Farm,Wind,53.0,27.36,The Bluff Wind Farm,-33.367778,138.728611,2026-02-25T08:09:14.934301
2026/02/25 18:05:00,BOCORWF1,12.85,Boco Rock Wind Farm Pty Ltd,Boco Rock Wind Farm,Wind,111.0,11.58,Boco Rock Wind Farm,-36.578611,149.103333,2026-02-25T08:09:14.934301
2026/02/25 18:05:00,BRYB1WF1,119.16,Berrybank Development Pty Ltd,Berrybank Wind Farm,Wind,175.9,67.74,Berrybank Wind Farm,-37.94,143.52,2026-02-25T08:09:14.934301
2026/02/25 18:05:00,BRYB2WF2,65.73,Berrybank 2 Asset Pty Ltd as trustee for Berrybank 2 Asset Trust,Berrybank 2 Wind Farm,Wind,105.0,62.6,Berrybank 2 Wind Farm,-37.94,143.52,2026-02-25T08:09:14.934301
2026/02/25 18:05:00,BULGANA1,127.02,Bulgana Wind Farm Pty Ltd,Bulgana Green Power Hub,Wind,204.0,62.26,Bulgana Green Power Hub,-37.0975,142.973611,2026-02-25T08:09:14.934301
2026/02/25 18:05:00,CATHROCK,30.6,Cathedral Rocks Wind Farm Pty Ltd,Cathedral Rocks,Wind,66.0,46.36,Cathedral Rocks,-34.51,135.35,2026-02-25T08:09:14.934301
2026/02/25 18:05:00,CHYTWF1,54.31,Cherry Tree Wind Farm Pty Ltd as trustee for The Cherry Tree Project trust ,Cherry Tree Wind Farm,Wind,57.0,95.28,Cherry Tree Wind Farm,-37.1,145.26,2026-02-25T08:09:14.934301
2026/02/25 18:05:00,CLEMGPWF,31.05,Pacific Hydro Clements Gap Pty Ltd,Clements Gap Wind Farm,Wind,57.0,54.47,Clements Gap Wind Farm,-33.48,138.1,2026-02-25T08:09:14.934301
2026/02/25 18:05:00,CLRKCWF1,0.0,Stanwell Corporation Limited ,Clarke Creek Wind Farm,Wind,338.0,0.0,Clarke Creek Wind Farm,-22.85,149.45,2026-02-25T08:09:14.934301
2026/02/25 18:05:00,CLRKCWF2,0.0,Stanwell Corporation Limited ,Clarke Creek Wind Farm,Wind,101.0,0.0,Clarke Creek Wind Farm,-22.85,149.45,2026-02-25T08:09:14.934301
2026/02/25 18:05:00,CNUNDAWF,43.25,Canunda Power Pty Ltd,Canunda Wind Farm,Wind,46.0,94.02,Canunda Wind Farm,-37.73,140.39,2026-02-25T08:09:14.934301
2026/02/25 18:05:00,COLWF01,0.0,Collector Wind Farm Pty Ltd,Collector Wind Farm 1,Wind,219.0,0.0,Collector Wind Farm 1,-34.8719,149.3967,2026-02-25T08:09:14.934301
2026/02/25 18:05:00,COOPGWF1,160.8,PARF Company 10 Pty Limited as The Trustee for Coopers Gap Project Trust,Coopers Gap Wind Farm,Wind,440.0,36.55,Coopers Gap Wind Farm,-26.74,151.45,2026-02-25T08:09:14.934301
2026/02/25 18:05:00,CROOKWF2,58.12,Crookwell Development Pty Ltd ,Crookwell 2 Wind Farm,Wind,91.0,63.87,Crookwell 2 Wind Farm,-34.52,149.54,2026-02-25T08:09:14.934301
2026/02/25 18:05:00,CROOKWF3,33.55,Crookwell 3 Development Pty Ltd,Crookwell 3 Wind Farm,Wind,56.0,59.91,Crookwell 3 Wind Farm,-34.52,149.54,2026-02-25T08:09:14.934301
2026/02/25 18:05:00,CROWLWF1,49.47,Pacific Hydro Crowlands Pty Ltd ,Crowlands Wind Farm,Wind,79.0,62.62,Crowlands Wind Farm,-37.13,143.16,2026-02-25T08:09:14.934301
2026/02/25 18:05:00,CRURWF1,13.0,CRWF Nominees Pty Ltd As Trustee For The CRWF Trust,Crudine Ridge Wind Farm,Wind,138.0,9.42,Crudine Ridge Wind Farm,-32.97,149.64,2026-02-25T08:09:14.934301
2026/02/25 18:05:00,CTHLWF1,5.6,Wild Cattle Hill Pty Ltd,Cattle Hill Wind Farm,Wind,144.0,3.89,Cattle Hill Wind Farm,-42.15,146.69,2026-02-25T08:09:14.934301
2026/02/25 18:05:00,DULAWF1,21.8,Dulacca Energy Project Co Pty Ltd,Dulacca Wind Farm,Wind,173.0,12.6,Dulacca Wind Farm,-26.63,149.87,2026-02-25T08:09:14.934301
2026/02/25 18:05:00,DUNDWF1,77.5,Dundonnell Wind Farm Pty Ltd,Dundonnell Wind Farm,Wind,168.0,46.13,Dundonnell Wind Farm,-37.52,142.58,2026-02-25T08:09:14.934301
2026/02/25 18:05:00,DUNDWF2,21.32,Dundonnell Wind Farm Pty Ltd,Dundonnell Wind Farm,Wind,46.0,46.35,Dundonnell Wind Farm,-37.52,142.58,2026-02-25T08:09:14.934301
2026/02/25 18:05:00,DUNDWF3,51.22,Dundonnell Wind Farm Pty Ltd,Dundonnell Wind Farm,Wind,122.0,41.98,Dundonnell Wind Farm,-37.52,142.58,2026-02-25T08:09:14.934301
2026/02/25 18:05:00,ELAINWF1,56.02,Lal Lal Wind Farms Nom Co Pty Ltd,Elaine Wind Farm,Wind,82.0,68.32,Elaine Wind Farm,-37.36,144.0,2026-02-25T08:09:14.934301
2026/02/25 18:05:00,FLYCRKWF,35.39,Iberdrola Australia Energy Markets Pty Limited,Flyers Creek Wind Farm,Wind,140.0,25.28,Flyers Creek Wind Farm,-33.365556,148.981944,2026-02-25T08:09:14.934301
2026/02/25 18:05:00,GPWFEST1,155.55,Golden Plains WF1 Pty Ltd as Trustee for the Golden Plains WF1 Unit Trust,Golden Plains Wind Farm East,Wind,240.0,64.81,Golden Plains Wind Farm East,-37.945091,143.752614,2026-02-25T08:09:14.934301
2026/02/25 18:05:00,GPWFEST2,157.15,Golden Plains WF1 Pty Ltd as Trustee for the Golden Plains WF1 Unit Trust,Golden Plains Wind Farm East,Wind,253.0,62.11,Golden Plains Wind Farm East,-37.945091,143.752614,2026-02-25T08:09:14.934301
2026/02/25 18:05:00,GPWFEST3,132.58,Golden Plains WF1 Pty Ltd as Trustee for the Golden Plains WF1 Unit Trust,Golden Plains Wind Farm East,Wind,240.0,55.24,Golden Plains Wind Farm East,-37.945091,143.752614,2026-02-25T08:09:14.934301
2026/02/25 18:05:00,GRANWF1,89.47,Granville Harbour Operations Pty Ltd as The Trustee for Granville Harbour Operations Trust,Granville Harbour Wind Farm,Wind,111.0,80.6,Granville Harbour Wind Farm,-41.8,145.06,2026-02-25T08:09:14.934301
2026/02/25 18:05:00,GSWF1A,172.5,Goyder Wind Farm 1 Pty Ltd as the Trustee for Goyder Wind Farm 1 Trust,Goyder South Wind Farm 1A,Wind,201.0,85.82,Goyder South Wind Farm 1A,-33.679758,138.937597,2026-02-25T08:09:14.934301
2026/02/25 18:05:00,GSWF1B1,0.32,Goyder Wind Farm 1B Pty Ltd as the Trustee for the Goyder Wind Farm 1B Trust,Goyder South Wind Farm 1B,Wind,196.0,0.16,Goyder South Wind Farm 1B,-33.679758,138.937597,2026-02-25T08:09:14.934301
2026/02/25 18:05:00,GULLRWF1,41.05,New Gullen Range Wind Farm Pty Ltd,Gullen Range Wind Farm,Wind,161.0,25.5,Gullen Range Wind Farm,-34.34,149.27,2026-02-25T08:09:14.934301
2026/02/25 18:05:00,GULLRWF2,108.99,New Gullen Range Wind Farm Pty Ltd,Gullen Range Wind Farm,Wind,107.0,101.86,Gullen Range Wind Farm,-34.34,149.27,2026-02-25T08:09:14.934301
2026/02/25 18:05:00,GUNNING1,18.1,Gunning Wind Energy Developments Pty Ltd,Gunning Wind Farm,Wind,47.0,38.51,Gunning Wind Farm,-34.813333,149.4,2026-02-25T08:09:14.934301
2026/02/25 18:05:00,HALLWF1,65.31,AGL SA Generation Pty Limited,Hallett 1 Wind Farm,Wind,95.0,68.75,Hallett 1 Wind Farm,-33.367778,138.728611,2026-02-25T08:09:14.934301
2026/02/25 18:05:00,HALLWF2,54.01,AGL SA Generation Pty Limited,Hallett 2 Wind Farm,Wind,71.0,76.07,Hallett 2 Wind Farm,-33.367778,138.728611,2026-02-25T08:09:14.934301
2026/02/25 18:05:00,HD1WF1,88.09,Hawkesdale Asset Pty Ltd as trustee for Hawkesdale Asset Trust,Hawkesdale Wind Farm,Wind,89.0,98.98,Hawkesdale Wind Farm,-38.147894,142.361381,2026-02-25T08:09:14.934301
2026/02/25 18:05:00,HDWF1,69.9,HWF1 Pty Ltd,Hornsdale Wind Farm,Wind,102.0,68.53,Hornsdale Wind Farm,-33.050556,138.543611,2026-02-25T08:09:14.934301
2026/02/25 18:05:00,HDWF2,82.8,HWF 2 Pty Ltd,Hornsdale Wind Farm 2,Wind,102.0,81.18,Hornsdale Wind Farm 2,-33.06,138.54,2026-02-25T08:09:14.934301
2026/02/25 18:05:00,HDWF3,80.2,HWF3 Pty Ltd,Hornsdale Wind Farm 3,Wind,109.0,73.58,Hornsdale Wind Farm 3,-33.06,138.54,2026-02-25T08:09:14.934301
2026/02/25 18:05:00,KABANWF1,49.68,Kaban Wind Farm Pty Ltd as trustee for Kaban Wind Farm Trust,Kaban Wind Farm,Wind,152.0,32.68,Kaban Wind Farm,-17.56,145.41,2026-02-25T08:09:14.934301
2026/02/25 18:05:00,KEPWF1,5.3,Kennedy Energy Park Pty Ltd,Kennedy Energy Park,Wind,43.0,12.33,Kennedy Energy Park,-20.88,144.42,2026-02-25T08:09:14.934301
2026/02/25 18:05:00,KIATAWF1,17.7,Kiata ProjectCo Pty Ltd Atf Kiata Project Trust,Kiata Wind Farm,Wind,31.0,57.1,Kiata Wind Farm,-36.4,141.75,2026-02-25T08:09:14.934301
2026/02/25 18:05:00,LGAPWF1,25.94,Lincoln Gap Wind Farm (Operations) Pty Ltd,Lincoln Gap Wind Farm,Wind,123.0,21.09,Lincoln Gap Wind Farm,-32.564279,137.557328,2026-02-25T08:09:14.934301
2026/02/25 18:05:00,LGAPWF1,25.94,Lincoln Gap Wind Farm (Operations) Pty Ltd,Lincoln Gap Wind Farm,Wind,123.0,21.09,Lincoln Gap Wind Farm,-32.564279,137.557328,2026-02-25T08:09:14.934301
2026/02/25 18:05:00,LGAPWF2,37.44,Lincoln Gap Wind Farm (Operations) Pty Ltd,Lincoln Gap Wind Farm,Wind,85.0,44.05,Lincoln Gap Wind Farm,-32.564279,137.557328,2026-02-25T08:09:14.934301
2026/02/25 18:05:00,LGAPWF2,37.44,Lincoln Gap Wind Farm (Operations) Pty Ltd,Lincoln Gap Wind Farm,Wind,85.0,44.05,Lincoln Gap Wind Farm,-32.564279,137.557328,2026-02-25T08:09:14.934301
2026/02/25 18:05:00,LKBONNY1,39.56,Lake Bonney Wind Power Pty Ltd,Lake Bonney Wind Farm Stage 1,Wind,81.0,48.84,Lake Bonney Wind Farm Stage 1,-37.76,140.4,2026-02-25T08:09:14.934301
2026/02/25 18:05:00,LKBONNY2,79.85,Lake Bonney Wind Power Pty Ltd,Lake Bonney Stage 2 Windfarm,Wind,159.0,50.22,Lake Bonney Stage 2 Windfarm,-37.76,140.4,2026-02-25T08:09:14.934301
2026/02/25 18:05:00,LKBONNY3,18.76,Lake Bonney Wind Power Pty Ltd,Lake Bonney Stage 3 Wind Farm,Wind,39.0,48.1,Lake Bonney Stage 3 Wind Farm,-37.737781,140.388137,2026-02-25T08:09:14.934301
2026/02/25 18:05:00,MACARTH1,295.0,AGL Hydro Partnership,Macarthur Wind Farm,Wind,420.0,70.24,Macarthur Wind Farm,-38.048957,142.192112,2026-02-25T08:09:14.934301
2026/02/25 18:05:00,MCINTYR1,141.42,MacIntyre UJV Operator Pty Ltd,MacIntyre Wind Farm,Wind,890.0,15.89,MacIntyre Wind Farm,-28.32,151.54,2026-02-25T08:09:14.934301
2026/02/25 18:05:00,MERCER01,85.4,Mt Mercer Windfarm Pty Ltd,Mt Mercer Wind Farm,Wind,131.0,65.19,Mt Mercer Wind Farm,-37.841111,143.871111,2026-02-25T08:09:14.934301
2026/02/25 18:05:00,MEWF1,59.11,Ergon Energy Queensland Pty Ltd ,Mount Emerald Wind Farm,Wind,178.0,33.21,Mount Emerald Wind Farm,-17.133007,145.380644,2026-02-25T08:09:14.934301
2026/02/25 18:05:00,MRTLSWF1,129.93,Mortlake South Wind Farm Pty Ltd,Mortlake South Wind Farm,Wind,153.0,84.92,Mortlake South Wind Farm,-38.127337,142.857801,2026-02-25T08:09:14.934301
2026/02/25 18:05:00,MTGELWF1,62.0,Mt. Gellibrand Wind Farm Pty Ltd,Mt Gellibrand Wind Farm,Wind,132.0,46.97,Mt Gellibrand Wind Farm,-38.23,143.77,2026-02-25T08:09:14.934301
2026/02/25 18:05:00,MTMILLAR,0.4,Mt Millar Wind Farm Pty Ltd,Mt Millar Wind Farm,Wind,70.0,0.57,Mt Millar Wind Farm,-33.624444,136.703611,2026-02-25T08:09:14.934301
2026/02/25 18:05:00,MUSSELR1,89.6,Hydro-Electric Corporation,Musselroe Wind Farm,Wind,168.0,53.33,Musselroe Wind Farm,-40.780225,148.010799,2026-02-25T08:09:14.934301
2026/02/25 18:05:00,MUWAWF1,139.49,Telstra Energy (Generation) Pty Ltd,Murra Warra Wind Farm,Wind,225.7,61.8,Murra Warra Wind Farm,-36.432404,142.317853,2026-02-25T08:09:14.934301
2026/02/25 18:05:00,MUWAWF2,125.2,Murra Warra II Project Co Pty Ltd ATF The Murra Warra II Project Trust,Murra Warra Wind Farm Stage 2,Wind,203.0,61.67,Murra Warra Wind Farm Stage 2,-36.43,142.32,2026-02-25T08:09:14.934301
2026/02/25 18:05:00,NBHWF1,114.2,AGL SA Generation Pty Limited,North Brown Hill Wind Farm,Wind,132.0,86.52,North Brown Hill Wind Farm,-33.367778,138.728611,2026-02-25T08:09:14.934301
2026/02/25 18:05:00,OAKLAND1,52.6,AGL Hydro Partnership,Oaklands Hill Wind Farm,Wind,63.0,83.49,Oaklands Hill Wind Farm,-37.683078,142.551678,2026-02-25T08:09:14.934301
2026/02/25 18:05:00,PAREPW1,64.23,Iberdrola Australia Energy Markets Pty Limited,Port Augusta Renewable Energy Park,Wind,201.0,31.96,Port Augusta Renewable Energy Park,-32.566944,137.856111,2026-02-25T08:09:14.934301
2026/02/25 18:05:00,RYANCWF1,202.25,Ryan Corner Development Pty Ltd,Ryan Corner Wind Farm,Wind,205.0,98.66,Ryan Corner Wind Farm,-38.271017,142.140647,2026-02-25T08:09:14.934301
2026/02/25 18:05:00,RYEPARK1,354.41,Rye Park Renewable Energy Pty Ltd as trustee for Rye Park Wind Farm Trust,Rye Park Renewable Energy,Wind,384.0,92.29,Rye Park Renewable Energy,-32.138333,148.972778,2026-02-25T08:09:14.934301
2026/02/25 18:05:00,SALTCRK1,48.14,Salt Creek Wind Farm Pty Ltd,Salt Creek Wind Farm,Wind,54.0,89.15,Salt Creek Wind Farm,-37.95,142.63,2026-02-25T08:09:14.934301
2026/02/25 18:05:00,SAPHWF1,134.18,The Trustee For The SWF1 Operations Trust,Sapphire Wind Farm,Wind,270.0,49.7,Sapphire Wind Farm,-29.7,151.41,2026-02-25T08:09:14.934301
2026/02/25 18:05:00,SNOWNTH1,127.4,Snowtown Wind Farm Stage 2 Pty Ltd,Snowtown Wind Farm Stage 2 North,Wind,144.0,88.47,Snowtown Wind Farm Stage 2 North,-33.83,138.118611,2026-02-25T08:09:14.934301
2026/02/25 18:05:00,SNOWSTH1,119.1,Snowtown Wind Farm Stage 2 Pty Ltd,Snowtown South Wind Farm,Wind,126.0,94.52,Snowtown South Wind Farm,-33.83,138.118611,2026-02-25T08:09:14.934301
2026/02/25 18:05:00,SNOWTWN1,70.86,Snowtown Wind Farm Pty Ltd,Snowtown Wind Farm Units 1 And 47,Wind,99.0,71.58,Snowtown Wind Farm Units 1 And 47,-33.83,138.118611,2026-02-25T08:09:14.934301
2026/02/25 18:05:00,STARHLWF,19.09,Starfish Hill Wind Farm Pty Ltd,Starfish Hill Wind Farm,Wind,35.0,54.54,Starfish Hill Wind Farm,-35.58,138.14,2026-02-25T08:09:14.934301
2026/02/25 18:05:00,STOCKYD1,469.05,Stockyard Hill Wind Farm Pty Ltd,Stockyard Hill Wind Farm,Wind,511.0,91.79,Stockyard Hill Wind Farm,-37.535833,143.251389,2026-02-25T08:09:14.934301
2026/02/25 18:05:00,STWF1,41.61,PARF Company 8 Pty Ltd as The Trustee for Silverton Project Trust,Silverton Wind Farm,Wind,198.0,21.02,Silverton Wind Farm,-37.683168,142.551678,2026-02-25T08:09:14.934301
2026/02/25 18:05:00,TARALGA1,64.55,Taralga Wind Farm Nominees No 2 Pty Ltd (ATF Taralga Wind Farm Operating Trust),Taralga Wind Farm,Wind,106.0,60.9,Taralga Wind Farm,-34.42352,149.826267,2026-02-25T08:09:14.934301
2026/02/25 18:05:00,WAMBOWF1,0.0,Stanwell Corporation Limited,Wambo Wind Farm 1,Wind,245.0,0.0,Wambo Wind Farm 1,-35.187301,149.524945,2026-02-25T08:09:14.934301
2026/02/25 18:05:00,WATERLWF,99.3,Waterloo Wind Farm Pty Ltd,Waterloo Wind Farm,Wind,130.0,76.38,Waterloo Wind Farm,-34.00094,138.911567,2026-02-25T08:09:14.934301
2026/02/25 18:05:00,WGWF1,75.1,Willogoleche Power Pty Ltd As The Trustee For The Willogoleche Operating Trust,Willogoleche Wind Farm,Wind,119.0,63.11,Willogoleche Wind Farm,-33.39,138.85,2026-02-25T08:09:14.934301
2026/02/25 18:05:00,WOODLWN1,26.49,Woodlawn Wind Pty Ltd,Woodlawn Wind Farm,Wind,48.0,55.19,Woodlawn Wind Farm,-35.08,149.62,2026-02-25T08:09:14.934301
2026/02/25 18:05:00,WPWF,50.11,AGL SA Generation Pty Limited,Wattle Point Wind Farm,Wind,91.0,55.07,Wattle Point Wind Farm,-35.111624,137.7219,2026-02-25T08:09:14.934301
2026/02/25 18:05:00,WRWF1,70.71,White Rock Wind Farm Pty Ltd,White Rock Wind Farm,Wind,172.0,41.11,White Rock Wind Farm,-29.79,151.54,2026-02-25T08:09:14.934301
2026/02/25 18:05:00,YENDWF1,91.16,Lal Lal Wind Farms Nom Co Pty Ltd,Yendon Wind Farm,Wind,142.0,64.2,Yendon Wind Farm,-37.629987,144.022717,2026-02-25T08:09:14.934301
