SETTLEMENTDATE,DUID,SCADAVALUE,Participant,Station Name,Fuel Source - Primary,MAX_CAP,utilisation_pct,Plant,Latitude,Longitude,timestamp_utc
2026/04/13 04:40:00,CAPTL_WF,76.02,Iberdrola Australia Holdings Pty Limited,Capital Wind Farm,Wind,140.0,54.3,Capital Wind Farm,-35.1,149.31,2026-04-12T18:39:51.659911
2026/04/13 04:40:00,CHALLHWF,11.7,Pacific Hydro Challicum Hills Pty Ltd,Challicum Hills Wind Farm,Wind,52.0,22.5,Challicum Hills Wind Farm,-37.38,143.11,2026-04-12T18:39:51.659911
2026/04/13 04:40:00,CULLRGWF,25.77,Cullerin Range Wind Farm Pty Ltd,Cullerin Range Wind Farm,Wind,30.0,85.9,Cullerin Range Wind Farm,-34.81,149.4,2026-04-12T18:39:51.659911
2026/04/13 04:40:00,DIAPURWF1,3.9,Y.E.S. Energy (SA) Pty Ltd,Diapur Wind Farm,Wind,7.0,55.71,Diapur Wind Farm,-36.3425,141.43,2026-04-12T18:39:51.659911
2026/04/13 04:40:00,MLWF1,6.56,Mortons Lane Windfarm Pty Limited,Mortons Lane Wind Farm,Wind,20.0,32.8,Mortons Lane Wind Farm,-37.84,142.45,2026-04-12T18:39:51.659911
2026/04/13 04:40:00,WAUBRAWF,102.22,Pyrenees Wind Energy Developments Pty Ltd,Waubra Wind Farm,Wind,192.0,53.24,Waubra Wind Farm,-37.394498,143.638982,2026-04-12T18:39:51.659911
2026/04/13 04:40:00,WOOLNTH1,120.57,Hydro-Electric Corporation,Woolnorth Studland Bay / Bluff Point Wind Farm,Wind,140.0,86.12,Woolnorth Studland Bay / Bluff Point Wind Farm,-40.69,144.72,2026-04-12T18:39:51.659911
2026/04/13 04:40:00,YAMBUKWF,6.4,Energy Pacific (Vic) Pty Ltd,Yambuk Wind Farm,Wind,30.0,21.33,Yambuk Wind Farm,-38.299083,142.027577,2026-04-12T18:39:51.659911
2026/04/13 04:40:00,YSWF1,23.1,Pacific Hydro Yaloak South Pty Ltd,Yaloak South Wind Farm,Wind,28.0,82.5,Yaloak South Wind Farm,-37.7163,144.242853,2026-04-12T18:39:51.659911
2026/04/13 04:40:00,ARWF1,70.2,Ararat Wind Farm Pty Ltd,Ararat Wind Farm,Wind,241.0,29.13,Ararat Wind Farm,-37.232778,143.031389,2026-04-12T18:39:51.659911
2026/04/13 04:40:00,BALDHWF1,94.7,Alinta Energy Retail Sales Pty Ltd,Bald Hills Wind Farm,Wind,106.0,89.34,Bald Hills Wind Farm,-38.79,145.93,2026-04-12T18:39:51.659911
2026/04/13 04:40:00,BANGOWF1,29.7,BWF Nominees Pty Ltd as The Trustee for BWF Trust,Bango 973 Wind Farm,Wind,155.0,19.16,Bango 973 Wind Farm,-34.551582,148.732808,2026-04-12T18:39:51.659911
2026/04/13 04:40:00,BANGOWF2,32.3,BWF Nominees Pty Ltd as The Trustee for BWF Trust,Bango 999 Wind Farm,Wind,82.0,39.39,Bango 999 Wind Farm,-34.551582,148.732808,2026-04-12T18:39:51.659911
2026/04/13 04:40:00,BLUFF1,0.0,AGL SA Generation Pty Limited,The Bluff Wind Farm,Wind,53.0,0.0,The Bluff Wind Farm,-33.367778,138.728611,2026-04-12T18:39:51.659911
2026/04/13 04:40:00,BOCORWF1,21.8,Boco Rock Wind Farm Pty Ltd,Boco Rock Wind Farm,Wind,111.0,19.64,Boco Rock Wind Farm,-36.578611,149.103333,2026-04-12T18:39:51.659911
2026/04/13 04:40:00,BRYB1WF1,109.68,Berrybank Development Pty Ltd,Berrybank Wind Farm,Wind,175.9,62.35,Berrybank Wind Farm,-37.94,143.52,2026-04-12T18:39:51.659911
2026/04/13 04:40:00,BRYB2WF2,81.13,Berrybank 2 Asset Pty Ltd as trustee for Berrybank 2 Asset Trust,Berrybank 2 Wind Farm,Wind,105.0,77.27,Berrybank 2 Wind Farm,-37.94,143.52,2026-04-12T18:39:51.659911
2026/04/13 04:40:00,BULGANA1,22.9,Bulgana Wind Farm Pty Ltd,Bulgana Green Power Hub,Wind,204.0,11.23,Bulgana Green Power Hub,-37.0975,142.973611,2026-04-12T18:39:51.659911
2026/04/13 04:40:00,CATHROCK,4.0,Cathedral Rocks Wind Farm Pty Ltd,Cathedral Rocks,Wind,66.0,6.06,Cathedral Rocks,-34.51,135.35,2026-04-12T18:39:51.659911
2026/04/13 04:40:00,CHYTWF1,10.28,Cherry Tree Wind Farm Pty Ltd as trustee for The Cherry Tree Project trust ,Cherry Tree Wind Farm,Wind,57.0,18.04,Cherry Tree Wind Farm,-37.1,145.26,2026-04-12T18:39:51.659911
2026/04/13 04:40:00,CLEMGPWF,0.0,Pacific Hydro Clements Gap Pty Ltd,Clements Gap Wind Farm,Wind,57.0,0.0,Clements Gap Wind Farm,-33.48,138.1,2026-04-12T18:39:51.659911
2026/04/13 04:40:00,CLRKCWF1,196.39,Stanwell Corporation Limited ,Clarke Creek Wind Farm,Wind,338.0,58.1,Clarke Creek Wind Farm,-22.85,149.45,2026-04-12T18:39:51.659911
2026/04/13 04:40:00,CLRKCWF2,58.26,Stanwell Corporation Limited ,Clarke Creek Wind Farm,Wind,101.0,57.68,Clarke Creek Wind Farm,-22.85,149.45,2026-04-12T18:39:51.659911
2026/04/13 04:40:00,CNUNDAWF,3.2,Canunda Power Pty Ltd,Canunda Wind Farm,Wind,46.0,6.96,Canunda Wind Farm,-37.73,140.39,2026-04-12T18:39:51.659911
2026/04/13 04:40:00,COLWF01,75.06,Collector Wind Farm Pty Ltd,Collector Wind Farm 1,Wind,219.0,34.27,Collector Wind Farm 1,-34.8719,149.3967,2026-04-12T18:39:51.659911
2026/04/13 04:40:00,COOPGWF1,372.5,PARF Company 10 Pty Limited as The Trustee for Coopers Gap Project Trust,Coopers Gap Wind Farm,Wind,440.0,84.66,Coopers Gap Wind Farm,-26.74,151.45,2026-04-12T18:39:51.659911
2026/04/13 04:40:00,CROOKWF2,49.89,Crookwell Development Pty Ltd ,Crookwell 2 Wind Farm,Wind,91.0,54.82,Crookwell 2 Wind Farm,-34.52,149.54,2026-04-12T18:39:51.659911
2026/04/13 04:40:00,CROOKWF3,50.73,Crookwell 3 Development Pty Ltd,Crookwell 3 Wind Farm,Wind,56.0,90.59,Crookwell 3 Wind Farm,-34.52,149.54,2026-04-12T18:39:51.659911
2026/04/13 04:40:00,CROWLWF1,18.76,Pacific Hydro Crowlands Pty Ltd ,Crowlands Wind Farm,Wind,79.0,23.75,Crowlands Wind Farm,-37.13,143.16,2026-04-12T18:39:51.659911
2026/04/13 04:40:00,CRURWF1,69.8,CRWF Nominees Pty Ltd As Trustee For The CRWF Trust,Crudine Ridge Wind Farm,Wind,138.0,50.58,Crudine Ridge Wind Farm,-32.97,149.64,2026-04-12T18:39:51.659911
2026/04/13 04:40:00,CTHLWF1,116.06,Wild Cattle Hill Pty Ltd,Cattle Hill Wind Farm,Wind,144.0,80.6,Cattle Hill Wind Farm,-42.15,146.69,2026-04-12T18:39:51.659911
2026/04/13 04:40:00,DULAWF1,158.9,Dulacca Energy Project Co Pty Ltd,Dulacca Wind Farm,Wind,173.0,91.85,Dulacca Wind Farm,-26.63,149.87,2026-04-12T18:39:51.659911
2026/04/13 04:40:00,DUNDWF1,48.77,Dundonnell Wind Farm Pty Ltd,Dundonnell Wind Farm,Wind,168.0,29.03,Dundonnell Wind Farm,-37.52,142.58,2026-04-12T18:39:51.659911
2026/04/13 04:40:00,DUNDWF2,12.56,Dundonnell Wind Farm Pty Ltd,Dundonnell Wind Farm,Wind,46.0,27.3,Dundonnell Wind Farm,-37.52,142.58,2026-04-12T18:39:51.659911
2026/04/13 04:40:00,DUNDWF3,34.94,Dundonnell Wind Farm Pty Ltd,Dundonnell Wind Farm,Wind,122.0,28.64,Dundonnell Wind Farm,-37.52,142.58,2026-04-12T18:39:51.659911
2026/04/13 04:40:00,ELAINWF1,20.69,Lal Lal Wind Farms Nom Co Pty Ltd,Elaine Wind Farm,Wind,82.0,25.23,Elaine Wind Farm,-37.36,144.0,2026-04-12T18:39:51.659911
2026/04/13 04:40:00,FLYCRKWF,34.05,Iberdrola Australia Energy Markets Pty Limited,Flyers Creek Wind Farm,Wind,140.0,24.32,Flyers Creek Wind Farm,-33.365556,148.981944,2026-04-12T18:39:51.659911
2026/04/13 04:40:00,GPWFEST1,139.07,Golden Plains WF1 Pty Ltd as Trustee for the Golden Plains WF1 Unit Trust,Golden Plains Wind Farm East,Wind,240.0,57.95,Golden Plains Wind Farm East,-37.945091,143.752614,2026-04-12T18:39:51.659911
2026/04/13 04:40:00,GPWFEST2,109.86,Golden Plains WF1 Pty Ltd as Trustee for the Golden Plains WF1 Unit Trust,Golden Plains Wind Farm East,Wind,253.0,43.42,Golden Plains Wind Farm East,-37.945091,143.752614,2026-04-12T18:39:51.659911
2026/04/13 04:40:00,GPWFEST3,97.83,Golden Plains WF1 Pty Ltd as Trustee for the Golden Plains WF1 Unit Trust,Golden Plains Wind Farm East,Wind,240.0,40.76,Golden Plains Wind Farm East,-37.945091,143.752614,2026-04-12T18:39:51.659911
2026/04/13 04:40:00,GRANWF1,108.15,Granville Harbour Operations Pty Ltd as The Trustee for Granville Harbour Operations Trust,Granville Harbour Wind Farm,Wind,111.0,97.43,Granville Harbour Wind Farm,-41.8,145.06,2026-04-12T18:39:51.659911
2026/04/13 04:40:00,GSWF1A,13.83,Goyder Wind Farm 1 Pty Ltd as the Trustee for Goyder Wind Farm 1 Trust,Goyder South Wind Farm 1A,Wind,201.0,6.88,Goyder South Wind Farm 1A,-33.679758,138.937597,2026-04-12T18:39:51.659911
2026/04/13 04:40:00,GSWF1B1,9.15,Goyder Wind Farm 1B Pty Ltd as the Trustee for the Goyder Wind Farm 1B Trust,Goyder South Wind Farm 1B,Wind,196.0,4.67,Goyder South Wind Farm 1B,-33.679758,138.937597,2026-04-12T18:39:51.659911
2026/04/13 04:40:00,GULLRWF1,131.28,New Gullen Range Wind Farm Pty Ltd,Gullen Range Wind Farm,Wind,161.0,81.54,Gullen Range Wind Farm,-34.34,149.27,2026-04-12T18:39:51.659911
2026/04/13 04:40:00,GULLRWF2,79.74,New Gullen Range Wind Farm Pty Ltd,Gullen Range Wind Farm,Wind,107.0,74.52,Gullen Range Wind Farm,-34.34,149.27,2026-04-12T18:39:51.659911
2026/04/13 04:40:00,GUNNING1,35.15,Gunning Wind Energy Developments Pty Ltd,Gunning Wind Farm,Wind,47.0,74.79,Gunning Wind Farm,-34.813333,149.4,2026-04-12T18:39:51.659911
2026/04/13 04:40:00,HALLWF1,0.0,AGL SA Generation Pty Limited,Hallett 1 Wind Farm,Wind,95.0,0.0,Hallett 1 Wind Farm,-33.367778,138.728611,2026-04-12T18:39:51.659911
2026/04/13 04:40:00,HALLWF2,0.0,AGL SA Generation Pty Limited,Hallett 2 Wind Farm,Wind,71.0,0.0,Hallett 2 Wind Farm,-33.367778,138.728611,2026-04-12T18:39:51.659911
2026/04/13 04:40:00,HD1WF1,50.89,Hawkesdale Asset Pty Ltd as trustee for Hawkesdale Asset Trust,Hawkesdale Wind Farm,Wind,89.0,57.18,Hawkesdale Wind Farm,-38.147894,142.361381,2026-04-12T18:39:51.659911
2026/04/13 04:40:00,HDWF1,0.7,HWF1 Pty Ltd,Hornsdale Wind Farm,Wind,102.0,0.69,Hornsdale Wind Farm,-33.050556,138.543611,2026-04-12T18:39:51.659911
2026/04/13 04:40:00,HDWF2,0.0,HWF 2 Pty Ltd,Hornsdale Wind Farm 2,Wind,102.0,0.0,Hornsdale Wind Farm 2,-33.06,138.54,2026-04-12T18:39:51.659911
2026/04/13 04:40:00,HDWF3,0.1,HWF3 Pty Ltd,Hornsdale Wind Farm 3,Wind,109.0,0.09,Hornsdale Wind Farm 3,-33.06,138.54,2026-04-12T18:39:51.659911
2026/04/13 04:40:00,KABANWF1,21.09,Kaban Wind Farm Pty Ltd as trustee for Kaban Wind Farm Trust,Kaban Wind Farm,Wind,152.0,13.88,Kaban Wind Farm,-17.56,145.41,2026-04-12T18:39:51.659911
2026/04/13 04:40:00,KEPWF1,27.2,Kennedy Energy Park Pty Ltd,Kennedy Energy Park,Wind,43.0,63.26,Kennedy Energy Park,-20.88,144.42,2026-04-12T18:39:51.659911
2026/04/13 04:40:00,KIATAWF1,16.4,Kiata ProjectCo Pty Ltd Atf Kiata Project Trust,Kiata Wind Farm,Wind,31.0,52.9,Kiata Wind Farm,-36.4,141.75,2026-04-12T18:39:51.659911
2026/04/13 04:40:00,LGAPWF1,8.83,Lincoln Gap Wind Farm (Operations) Pty Ltd,Lincoln Gap Wind Farm,Wind,123.0,7.18,Lincoln Gap Wind Farm,-32.564279,137.557328,2026-04-12T18:39:51.659911
2026/04/13 04:40:00,LGAPWF1,8.83,Lincoln Gap Wind Farm (Operations) Pty Ltd,Lincoln Gap Wind Farm,Wind,123.0,7.18,Lincoln Gap Wind Farm,-32.564279,137.557328,2026-04-12T18:39:51.659911
2026/04/13 04:40:00,LGAPWF2,8.44,Lincoln Gap Wind Farm (Operations) Pty Ltd,Lincoln Gap Wind Farm,Wind,85.0,9.93,Lincoln Gap Wind Farm,-32.564279,137.557328,2026-04-12T18:39:51.659911
2026/04/13 04:40:00,LGAPWF2,8.44,Lincoln Gap Wind Farm (Operations) Pty Ltd,Lincoln Gap Wind Farm,Wind,85.0,9.93,Lincoln Gap Wind Farm,-32.564279,137.557328,2026-04-12T18:39:51.659911
2026/04/13 04:40:00,LKBONNY1,3.13,Lake Bonney Wind Power Pty Ltd,Lake Bonney Wind Farm Stage 1,Wind,81.0,3.86,Lake Bonney Wind Farm Stage 1,-37.76,140.4,2026-04-12T18:39:51.659911
2026/04/13 04:40:00,LKBONNY2,14.46,Lake Bonney Wind Power Pty Ltd,Lake Bonney Stage 2 Windfarm,Wind,159.0,9.09,Lake Bonney Stage 2 Windfarm,-37.76,140.4,2026-04-12T18:39:51.659911
2026/04/13 04:40:00,LKBONNY3,4.58,Lake Bonney Wind Power Pty Ltd,Lake Bonney Stage 3 Wind Farm,Wind,39.0,11.74,Lake Bonney Stage 3 Wind Farm,-37.737781,140.388137,2026-04-12T18:39:51.659911
2026/04/13 04:40:00,MACARTH1,63.4,AGL Hydro Partnership,Macarthur Wind Farm,Wind,420.0,15.1,Macarthur Wind Farm,-38.048957,142.192112,2026-04-12T18:39:51.659911
2026/04/13 04:40:00,MCINTYR1,108.7,MacIntyre UJV Operator Pty Ltd,MacIntyre Wind Farm,Wind,890.0,12.21,MacIntyre Wind Farm,-28.32,151.54,2026-04-12T18:39:51.659911
2026/04/13 04:40:00,MERCER01,46.2,Mt Mercer Windfarm Pty Ltd,Mt Mercer Wind Farm,Wind,131.0,35.27,Mt Mercer Wind Farm,-37.841111,143.871111,2026-04-12T18:39:51.659911
2026/04/13 04:40:00,MEWF1,40.12,Ergon Energy Queensland Pty Ltd ,Mount Emerald Wind Farm,Wind,178.0,22.54,Mount Emerald Wind Farm,-17.133007,145.380644,2026-04-12T18:39:51.659911
2026/04/13 04:40:00,MRTLSWF1,35.38,Mortlake South Wind Farm Pty Ltd,Mortlake South Wind Farm,Wind,153.0,23.12,Mortlake South Wind Farm,-38.127337,142.857801,2026-04-12T18:39:51.659911
2026/04/13 04:40:00,MTGELWF1,62.71,Mt. Gellibrand Wind Farm Pty Ltd,Mt Gellibrand Wind Farm,Wind,132.0,47.51,Mt Gellibrand Wind Farm,-38.23,143.77,2026-04-12T18:39:51.659911
2026/04/13 04:40:00,MTMILLAR,3.8,Mt Millar Wind Farm Pty Ltd,Mt Millar Wind Farm,Wind,70.0,5.43,Mt Millar Wind Farm,-33.624444,136.703611,2026-04-12T18:39:51.659911
2026/04/13 04:40:00,MUSSELR1,69.8,Hydro-Electric Corporation,Musselroe Wind Farm,Wind,168.0,41.55,Musselroe Wind Farm,-40.780225,148.010799,2026-04-12T18:39:51.659911
2026/04/13 04:40:00,MUWAWF1,67.08,Telstra Energy (Generation) Pty Ltd,Murra Warra Wind Farm,Wind,225.7,29.72,Murra Warra Wind Farm,-36.432404,142.317853,2026-04-12T18:39:51.659911
2026/04/13 04:40:00,MUWAWF2,30.6,Murra Warra II Project Co Pty Ltd ATF The Murra Warra II Project Trust,Murra Warra Wind Farm Stage 2,Wind,203.0,15.07,Murra Warra Wind Farm Stage 2,-36.43,142.32,2026-04-12T18:39:51.659911
2026/04/13 04:40:00,NBHWF1,0.0,AGL SA Generation Pty Limited,North Brown Hill Wind Farm,Wind,132.0,0.0,North Brown Hill Wind Farm,-33.367778,138.728611,2026-04-12T18:39:51.659911
2026/04/13 04:40:00,OAKLAND1,15.9,AGL Hydro Partnership,Oaklands Hill Wind Farm,Wind,63.0,25.24,Oaklands Hill Wind Farm,-37.683078,142.551678,2026-04-12T18:39:51.659911
2026/04/13 04:40:00,PAREPW1,1.82,Iberdrola Australia Energy Markets Pty Limited,Port Augusta Renewable Energy Park,Wind,201.0,0.91,Port Augusta Renewable Energy Park,-32.566944,137.856111,2026-04-12T18:39:51.659911
2026/04/13 04:40:00,RYANCWF1,53.6,Ryan Corner Development Pty Ltd,Ryan Corner Wind Farm,Wind,205.0,26.15,Ryan Corner Wind Farm,-38.271017,142.140647,2026-04-12T18:39:51.659911
2026/04/13 04:40:00,RYEPARK1,232.46,Rye Park Renewable Energy Pty Ltd as trustee for Rye Park Wind Farm Trust,Rye Park Renewable Energy,Wind,384.0,60.54,Rye Park Renewable Energy,-32.138333,148.972778,2026-04-12T18:39:51.659911
2026/04/13 04:40:00,SALTCRK1,16.37,Salt Creek Wind Farm Pty Ltd,Salt Creek Wind Farm,Wind,54.0,30.31,Salt Creek Wind Farm,-37.95,142.63,2026-04-12T18:39:51.659911
2026/04/13 04:40:00,SAPHWF1,83.53,The Trustee For The SWF1 Operations Trust,Sapphire Wind Farm,Wind,270.0,30.94,Sapphire Wind Farm,-29.7,151.41,2026-04-12T18:39:51.659911
2026/04/13 04:40:00,SNOWNTH1,2.8,Snowtown Wind Farm Stage 2 Pty Ltd,Snowtown Wind Farm Stage 2 North,Wind,144.0,1.94,Snowtown Wind Farm Stage 2 North,-33.83,138.118611,2026-04-12T18:39:51.659911
2026/04/13 04:40:00,SNOWSTH1,0.0,Snowtown Wind Farm Stage 2 Pty Ltd,Snowtown South Wind Farm,Wind,126.0,0.0,Snowtown South Wind Farm,-33.83,138.118611,2026-04-12T18:39:51.659911
2026/04/13 04:40:00,SNOWTWN1,0.0,Snowtown Wind Farm Pty Ltd,Snowtown Wind Farm Units 1 And 47,Wind,99.0,0.0,Snowtown Wind Farm Units 1 And 47,-33.83,138.118611,2026-04-12T18:39:51.659911
2026/04/13 04:40:00,STARHLWF,0.01,Starfish Hill Wind Farm Pty Ltd,Starfish Hill Wind Farm,Wind,35.0,0.03,Starfish Hill Wind Farm,-35.58,138.14,2026-04-12T18:39:51.659911
2026/04/13 04:40:00,STOCKYD1,262.58,Stockyard Hill Wind Farm Pty Ltd,Stockyard Hill Wind Farm,Wind,511.0,51.39,Stockyard Hill Wind Farm,-37.535833,143.251389,2026-04-12T18:39:51.659911
2026/04/13 04:40:00,STWF1,125.65,PARF Company 8 Pty Ltd as The Trustee for Silverton Project Trust,Silverton Wind Farm,Wind,198.0,63.46,Silverton Wind Farm,-37.683168,142.551678,2026-04-12T18:39:51.659911
2026/04/13 04:40:00,TARALGA1,66.59,Taralga Wind Farm Nominees No 2 Pty Ltd (ATF Taralga Wind Farm Operating Trust),Taralga Wind Farm,Wind,106.0,62.82,Taralga Wind Farm,-34.42352,149.826267,2026-04-12T18:39:51.659911
2026/04/13 04:40:00,WAMBOWF1,197.12,Stanwell Corporation Limited,Wambo Wind Farm 1,Wind,245.0,80.46,Wambo Wind Farm 1,-35.187301,149.524945,2026-04-12T18:39:51.659911
2026/04/13 04:40:00,WATERLWF,4.9,Waterloo Wind Farm Pty Ltd,Waterloo Wind Farm,Wind,130.0,3.77,Waterloo Wind Farm,-34.00094,138.911567,2026-04-12T18:39:51.659911
2026/04/13 04:40:00,WGWF1,0.0,Willogoleche Power Pty Ltd As The Trustee For The Willogoleche Operating Trust,Willogoleche Wind Farm,Wind,119.0,0.0,Willogoleche Wind Farm,-33.39,138.85,2026-04-12T18:39:51.659911
2026/04/13 04:40:00,WOODLWN1,38.2,Woodlawn Wind Pty Ltd,Woodlawn Wind Farm,Wind,48.0,79.58,Woodlawn Wind Farm,-35.08,149.62,2026-04-12T18:39:51.659911
2026/04/13 04:40:00,WPWF,2.15,AGL SA Generation Pty Limited,Wattle Point Wind Farm,Wind,91.0,2.36,Wattle Point Wind Farm,-35.111624,137.7219,2026-04-12T18:39:51.659911
2026/04/13 04:40:00,WRWF1,17.97,White Rock Wind Farm Pty Ltd,White Rock Wind Farm,Wind,172.0,10.45,White Rock Wind Farm,-29.79,151.54,2026-04-12T18:39:51.659911
2026/04/13 04:40:00,YENDWF1,37.81,Lal Lal Wind Farms Nom Co Pty Ltd,Yendon Wind Farm,Wind,142.0,26.63,Yendon Wind Farm,-37.629987,144.022717,2026-04-12T18:39:51.659911
