SETTLEMENTDATE,DUID,SCADAVALUE,Participant,Station Name,Fuel Source - Primary,MAX_CAP,utilisation_pct,Plant,Latitude,Longitude,timestamp_utc
2026/02/05 16:10:00,CAPTL_WF,0.0,Iberdrola Australia Holdings Pty Limited,Capital Wind Farm,Wind,140.0,0.0,Capital Wind Farm,-35.1,149.31,2026-02-05T06:10:56.981769
2026/02/05 16:10:00,CHALLHWF,8.9,Pacific Hydro Challicum Hills Pty Ltd,Challicum Hills Wind Farm,Wind,52.0,17.12,Challicum Hills Wind Farm,-37.38,143.11,2026-02-05T06:10:56.981769
2026/02/05 16:10:00,CULLRGWF,5.8,Cullerin Range Wind Farm Pty Ltd,Cullerin Range Wind Farm,Wind,30.0,19.33,Cullerin Range Wind Farm,-34.81,149.4,2026-02-05T06:10:56.981769
2026/02/05 16:10:00,DIAPURWF1,1.9,Y.E.S. Energy (SA) Pty Ltd,Diapur Wind Farm,Wind,7.0,27.14,Diapur Wind Farm,-36.3425,141.43,2026-02-05T06:10:56.981769
2026/02/05 16:10:00,MLWF1,2.4,Mortons Lane Windfarm Pty Limited,Mortons Lane Wind Farm,Wind,20.0,12.0,Mortons Lane Wind Farm,-37.84,142.45,2026-02-05T06:10:56.981769
2026/02/05 16:10:00,WAUBRAWF,41.6,Pyrenees Wind Energy Developments Pty Ltd,Waubra Wind Farm,Wind,192.0,21.67,Waubra Wind Farm,-37.394498,143.638982,2026-02-05T06:10:56.981769
2026/02/05 16:10:00,WOOLNTH1,61.75,Hydro-Electric Corporation,Woolnorth Studland Bay / Bluff Point Wind Farm,Wind,140.0,44.11,Woolnorth Studland Bay / Bluff Point Wind Farm,-40.69,144.72,2026-02-05T06:10:56.981769
2026/02/05 16:10:00,YAMBUKWF,2.7,Energy Pacific (Vic) Pty Ltd,Yambuk Wind Farm,Wind,30.0,9.0,Yambuk Wind Farm,-38.299083,142.027577,2026-02-05T06:10:56.981769
2026/02/05 16:10:00,YSWF1,7.7,Pacific Hydro Yaloak South Pty Ltd,Yaloak South Wind Farm,Wind,28.0,27.5,Yaloak South Wind Farm,-37.7163,144.242853,2026-02-05T06:10:56.981769
2026/02/05 16:10:00,ARWF1,54.3,Ararat Wind Farm Pty Ltd,Ararat Wind Farm,Wind,241.0,22.53,Ararat Wind Farm,-37.232778,143.031389,2026-02-05T06:10:56.981769
2026/02/05 16:10:00,BALDHWF1,23.86,Alinta Energy Retail Sales Pty Ltd,Bald Hills Wind Farm,Wind,106.0,22.51,Bald Hills Wind Farm,-38.79,145.93,2026-02-05T06:10:56.981769
2026/02/05 16:10:00,BANGOWF1,55.8,BWF Nominees Pty Ltd as The Trustee for BWF Trust,Bango 973 Wind Farm,Wind,155.0,36.0,Bango 973 Wind Farm,-34.551582,148.732808,2026-02-05T06:10:56.981769
2026/02/05 16:10:00,BANGOWF2,14.5,BWF Nominees Pty Ltd as The Trustee for BWF Trust,Bango 999 Wind Farm,Wind,82.0,17.68,Bango 999 Wind Farm,-34.551582,148.732808,2026-02-05T06:10:56.981769
2026/02/05 16:10:00,BLUFF1,11.7,AGL SA Generation Pty Limited,The Bluff Wind Farm,Wind,53.0,22.08,The Bluff Wind Farm,-33.367778,138.728611,2026-02-05T06:10:56.981769
2026/02/05 16:10:00,BOCORWF1,52.18,Boco Rock Wind Farm Pty Ltd,Boco Rock Wind Farm,Wind,111.0,47.01,Boco Rock Wind Farm,-36.578611,149.103333,2026-02-05T06:10:56.981769
2026/02/05 16:10:00,BRYB1WF1,25.88,Berrybank Development Pty Ltd,Berrybank Wind Farm,Wind,175.9,14.71,Berrybank Wind Farm,-37.94,143.52,2026-02-05T06:10:56.981769
2026/02/05 16:10:00,BRYB2WF2,17.19,Berrybank 2 Asset Pty Ltd as trustee for Berrybank 2 Asset Trust,Berrybank 2 Wind Farm,Wind,105.0,16.37,Berrybank 2 Wind Farm,-37.94,143.52,2026-02-05T06:10:56.981769
2026/02/05 16:10:00,BULGANA1,48.85,Bulgana Wind Farm Pty Ltd,Bulgana Green Power Hub,Wind,204.0,23.95,Bulgana Green Power Hub,-37.0975,142.973611,2026-02-05T06:10:56.981769
2026/02/05 16:10:00,CATHROCK,17.5,Cathedral Rocks Wind Farm Pty Ltd,Cathedral Rocks,Wind,66.0,26.52,Cathedral Rocks,-34.51,135.35,2026-02-05T06:10:56.981769
2026/02/05 16:10:00,CHYTWF1,33.61,Cherry Tree Wind Farm Pty Ltd as trustee for The Cherry Tree Project trust ,Cherry Tree Wind Farm,Wind,57.0,58.96,Cherry Tree Wind Farm,-37.1,145.26,2026-02-05T06:10:56.981769
2026/02/05 16:10:00,CLEMGPWF,5.69,Pacific Hydro Clements Gap Pty Ltd,Clements Gap Wind Farm,Wind,57.0,9.98,Clements Gap Wind Farm,-33.48,138.1,2026-02-05T06:10:56.981769
2026/02/05 16:10:00,CLRKCWF1,60.09,Stanwell Corporation Limited ,Clarke Creek Wind Farm,Wind,338.0,17.78,Clarke Creek Wind Farm,-22.85,149.45,2026-02-05T06:10:56.981769
2026/02/05 16:10:00,CLRKCWF2,27.96,Stanwell Corporation Limited ,Clarke Creek Wind Farm,Wind,101.0,27.68,Clarke Creek Wind Farm,-22.85,149.45,2026-02-05T06:10:56.981769
2026/02/05 16:10:00,CNUNDAWF,0.0,Canunda Power Pty Ltd,Canunda Wind Farm,Wind,46.0,0.0,Canunda Wind Farm,-37.73,140.39,2026-02-05T06:10:56.981769
2026/02/05 16:10:00,COLWF01,0.0,Collector Wind Farm Pty Ltd,Collector Wind Farm 1,Wind,219.0,0.0,Collector Wind Farm 1,-34.8719,149.3967,2026-02-05T06:10:56.981769
2026/02/05 16:10:00,COOPGWF1,36.61,PARF Company 10 Pty Limited as The Trustee for Coopers Gap Project Trust,Coopers Gap Wind Farm,Wind,440.0,8.32,Coopers Gap Wind Farm,-26.74,151.45,2026-02-05T06:10:56.981769
2026/02/05 16:10:00,CROOKWF2,2.48,Crookwell Development Pty Ltd ,Crookwell 2 Wind Farm,Wind,91.0,2.73,Crookwell 2 Wind Farm,-34.52,149.54,2026-02-05T06:10:56.981769
2026/02/05 16:10:00,CROOKWF3,0.0,Crookwell 3 Development Pty Ltd,Crookwell 3 Wind Farm,Wind,56.0,0.0,Crookwell 3 Wind Farm,-34.52,149.54,2026-02-05T06:10:56.981769
2026/02/05 16:10:00,CROWLWF1,24.62,Pacific Hydro Crowlands Pty Ltd ,Crowlands Wind Farm,Wind,79.0,31.16,Crowlands Wind Farm,-37.13,143.16,2026-02-05T06:10:56.981769
2026/02/05 16:10:00,CRURWF1,45.6,CRWF Nominees Pty Ltd As Trustee For The CRWF Trust,Crudine Ridge Wind Farm,Wind,138.0,33.04,Crudine Ridge Wind Farm,-32.97,149.64,2026-02-05T06:10:56.981769
2026/02/05 16:10:00,CTHLWF1,58.01,Wild Cattle Hill Pty Ltd,Cattle Hill Wind Farm,Wind,144.0,40.28,Cattle Hill Wind Farm,-42.15,146.69,2026-02-05T06:10:56.981769
2026/02/05 16:10:00,DULAWF1,17.6,Dulacca Energy Project Co Pty Ltd,Dulacca Wind Farm,Wind,173.0,10.17,Dulacca Wind Farm,-26.63,149.87,2026-02-05T06:10:56.981769
2026/02/05 16:10:00,DUNDWF1,36.1,Dundonnell Wind Farm Pty Ltd,Dundonnell Wind Farm,Wind,168.0,21.49,Dundonnell Wind Farm,-37.52,142.58,2026-02-05T06:10:56.981769
2026/02/05 16:10:00,DUNDWF2,6.69,Dundonnell Wind Farm Pty Ltd,Dundonnell Wind Farm,Wind,46.0,14.54,Dundonnell Wind Farm,-37.52,142.58,2026-02-05T06:10:56.981769
2026/02/05 16:10:00,DUNDWF3,24.74,Dundonnell Wind Farm Pty Ltd,Dundonnell Wind Farm,Wind,122.0,20.28,Dundonnell Wind Farm,-37.52,142.58,2026-02-05T06:10:56.981769
2026/02/05 16:10:00,ELAINWF1,4.73,Lal Lal Wind Farms Nom Co Pty Ltd,Elaine Wind Farm,Wind,82.0,5.77,Elaine Wind Farm,-37.36,144.0,2026-02-05T06:10:56.981769
2026/02/05 16:10:00,FLYCRKWF,0.35,Iberdrola Australia Energy Markets Pty Limited,Flyers Creek Wind Farm,Wind,140.0,0.25,Flyers Creek Wind Farm,-33.365556,148.981944,2026-02-05T06:10:56.981769
2026/02/05 16:10:00,GPWFEST1,32.25,Golden Plains WF1 Pty Ltd as Trustee for the Golden Plains WF1 Unit Trust,Golden Plains Wind Farm East,Wind,240.0,13.44,Golden Plains Wind Farm East,-37.945091,143.752614,2026-02-05T06:10:56.981769
2026/02/05 16:10:00,GPWFEST2,48.17,Golden Plains WF1 Pty Ltd as Trustee for the Golden Plains WF1 Unit Trust,Golden Plains Wind Farm East,Wind,253.0,19.04,Golden Plains Wind Farm East,-37.945091,143.752614,2026-02-05T06:10:56.981769
2026/02/05 16:10:00,GPWFEST3,28.04,Golden Plains WF1 Pty Ltd as Trustee for the Golden Plains WF1 Unit Trust,Golden Plains Wind Farm East,Wind,240.0,11.68,Golden Plains Wind Farm East,-37.945091,143.752614,2026-02-05T06:10:56.981769
2026/02/05 16:10:00,GRANWF1,18.29,Granville Harbour Operations Pty Ltd as The Trustee for Granville Harbour Operations Trust,Granville Harbour Wind Farm,Wind,111.0,16.48,Granville Harbour Wind Farm,-41.8,145.06,2026-02-05T06:10:56.981769
2026/02/05 16:10:00,GSWF1A,22.72,Goyder Wind Farm 1 Pty Ltd as the Trustee for Goyder Wind Farm 1 Trust,Goyder South Wind Farm 1A,Wind,201.0,11.3,Goyder South Wind Farm 1A,-33.679758,138.937597,2026-02-05T06:10:56.981769
2026/02/05 16:10:00,GSWF1B1,18.85,Goyder Wind Farm 1B Pty Ltd as the Trustee for the Goyder Wind Farm 1B Trust,Goyder South Wind Farm 1B,Wind,196.0,9.62,Goyder South Wind Farm 1B,-33.679758,138.937597,2026-02-05T06:10:56.981769
2026/02/05 16:10:00,GULLRWF1,0.24,New Gullen Range Wind Farm Pty Ltd,Gullen Range Wind Farm,Wind,161.0,0.15,Gullen Range Wind Farm,-34.34,149.27,2026-02-05T06:10:56.981769
2026/02/05 16:10:00,GULLRWF2,0.0,New Gullen Range Wind Farm Pty Ltd,Gullen Range Wind Farm,Wind,107.0,0.0,Gullen Range Wind Farm,-34.34,149.27,2026-02-05T06:10:56.981769
2026/02/05 16:10:00,GUNNING1,2.88,Gunning Wind Energy Developments Pty Ltd,Gunning Wind Farm,Wind,47.0,6.13,Gunning Wind Farm,-34.813333,149.4,2026-02-05T06:10:56.981769
2026/02/05 16:10:00,HALLWF1,8.64,AGL SA Generation Pty Limited,Hallett 1 Wind Farm,Wind,95.0,9.09,Hallett 1 Wind Farm,-33.367778,138.728611,2026-02-05T06:10:56.981769
2026/02/05 16:10:00,HALLWF2,0.39,AGL SA Generation Pty Limited,Hallett 2 Wind Farm,Wind,71.0,0.55,Hallett 2 Wind Farm,-33.367778,138.728611,2026-02-05T06:10:56.981769
2026/02/05 16:10:00,HD1WF1,9.09,Hawkesdale Asset Pty Ltd as trustee for Hawkesdale Asset Trust,Hawkesdale Wind Farm,Wind,89.0,10.21,Hawkesdale Wind Farm,-38.147894,142.361381,2026-02-05T06:10:56.981769
2026/02/05 16:10:00,HDWF1,25.3,HWF1 Pty Ltd,Hornsdale Wind Farm,Wind,102.0,24.8,Hornsdale Wind Farm,-33.050556,138.543611,2026-02-05T06:10:56.981769
2026/02/05 16:10:00,HDWF2,18.4,HWF 2 Pty Ltd,Hornsdale Wind Farm 2,Wind,102.0,18.04,Hornsdale Wind Farm 2,-33.06,138.54,2026-02-05T06:10:56.981769
2026/02/05 16:10:00,HDWF3,31.7,HWF3 Pty Ltd,Hornsdale Wind Farm 3,Wind,109.0,29.08,Hornsdale Wind Farm 3,-33.06,138.54,2026-02-05T06:10:56.981769
2026/02/05 16:10:00,KABANWF1,33.68,Kaban Wind Farm Pty Ltd as trustee for Kaban Wind Farm Trust,Kaban Wind Farm,Wind,152.0,22.16,Kaban Wind Farm,-17.56,145.41,2026-02-05T06:10:56.981769
2026/02/05 16:10:00,KEPWF1,27.1,Kennedy Energy Park Pty Ltd,Kennedy Energy Park,Wind,43.0,63.02,Kennedy Energy Park,-20.88,144.42,2026-02-05T06:10:56.981769
2026/02/05 16:10:00,KIATAWF1,4.3,Kiata ProjectCo Pty Ltd Atf Kiata Project Trust,Kiata Wind Farm,Wind,31.0,13.87,Kiata Wind Farm,-36.4,141.75,2026-02-05T06:10:56.981769
2026/02/05 16:10:00,LGAPWF1,56.36,Lincoln Gap Wind Farm (Operations) Pty Ltd,Lincoln Gap Wind Farm,Wind,123.0,45.82,Lincoln Gap Wind Farm,-32.564279,137.557328,2026-02-05T06:10:56.981769
2026/02/05 16:10:00,LGAPWF1,56.36,Lincoln Gap Wind Farm (Operations) Pty Ltd,Lincoln Gap Wind Farm,Wind,123.0,45.82,Lincoln Gap Wind Farm,-32.564279,137.557328,2026-02-05T06:10:56.981769
2026/02/05 16:10:00,LGAPWF2,42.92,Lincoln Gap Wind Farm (Operations) Pty Ltd,Lincoln Gap Wind Farm,Wind,85.0,50.49,Lincoln Gap Wind Farm,-32.564279,137.557328,2026-02-05T06:10:56.981769
2026/02/05 16:10:00,LGAPWF2,42.92,Lincoln Gap Wind Farm (Operations) Pty Ltd,Lincoln Gap Wind Farm,Wind,85.0,50.49,Lincoln Gap Wind Farm,-32.564279,137.557328,2026-02-05T06:10:56.981769
2026/02/05 16:10:00,LKBONNY1,18.31,Lake Bonney Wind Power Pty Ltd,Lake Bonney Wind Farm Stage 1,Wind,81.0,22.6,Lake Bonney Wind Farm Stage 1,-37.76,140.4,2026-02-05T06:10:56.981769
2026/02/05 16:10:00,LKBONNY2,24.78,Lake Bonney Wind Power Pty Ltd,Lake Bonney Stage 2 Windfarm,Wind,159.0,15.58,Lake Bonney Stage 2 Windfarm,-37.76,140.4,2026-02-05T06:10:56.981769
2026/02/05 16:10:00,LKBONNY3,2.51,Lake Bonney Wind Power Pty Ltd,Lake Bonney Stage 3 Wind Farm,Wind,39.0,6.44,Lake Bonney Stage 3 Wind Farm,-37.737781,140.388137,2026-02-05T06:10:56.981769
2026/02/05 16:10:00,MACARTH1,35.1,AGL Hydro Partnership,Macarthur Wind Farm,Wind,420.0,8.36,Macarthur Wind Farm,-38.048957,142.192112,2026-02-05T06:10:56.981769
2026/02/05 16:10:00,MCINTYR1,28.94,MacIntyre UJV Operator Pty Ltd,MacIntyre Wind Farm,Wind,890.0,3.25,MacIntyre Wind Farm,-28.32,151.54,2026-02-05T06:10:56.981769
2026/02/05 16:10:00,MERCER01,22.6,Mt Mercer Windfarm Pty Ltd,Mt Mercer Wind Farm,Wind,131.0,17.25,Mt Mercer Wind Farm,-37.841111,143.871111,2026-02-05T06:10:56.981769
2026/02/05 16:10:00,MEWF1,28.73,Ergon Energy Queensland Pty Ltd ,Mount Emerald Wind Farm,Wind,178.0,16.14,Mount Emerald Wind Farm,-17.133007,145.380644,2026-02-05T06:10:56.981769
2026/02/05 16:10:00,MRTLSWF1,25.39,Mortlake South Wind Farm Pty Ltd,Mortlake South Wind Farm,Wind,153.0,16.59,Mortlake South Wind Farm,-38.127337,142.857801,2026-02-05T06:10:56.981769
2026/02/05 16:10:00,MTGELWF1,3.32,Mt. Gellibrand Wind Farm Pty Ltd,Mt Gellibrand Wind Farm,Wind,132.0,2.52,Mt Gellibrand Wind Farm,-38.23,143.77,2026-02-05T06:10:56.981769
2026/02/05 16:10:00,MTMILLAR,26.8,Mt Millar Wind Farm Pty Ltd,Mt Millar Wind Farm,Wind,70.0,38.29,Mt Millar Wind Farm,-33.624444,136.703611,2026-02-05T06:10:56.981769
2026/02/05 16:10:00,MUSSELR1,151.6,Hydro-Electric Corporation,Musselroe Wind Farm,Wind,168.0,90.24,Musselroe Wind Farm,-40.780225,148.010799,2026-02-05T06:10:56.981769
2026/02/05 16:10:00,MUWAWF1,2.94,Telstra Energy (Generation) Pty Ltd,Murra Warra Wind Farm,Wind,225.7,1.3,Murra Warra Wind Farm,-36.432404,142.317853,2026-02-05T06:10:56.981769
2026/02/05 16:10:00,MUWAWF2,49.9,Murra Warra II Project Co Pty Ltd ATF The Murra Warra II Project Trust,Murra Warra Wind Farm Stage 2,Wind,203.0,24.58,Murra Warra Wind Farm Stage 2,-36.43,142.32,2026-02-05T06:10:56.981769
2026/02/05 16:10:00,NBHWF1,28.7,AGL SA Generation Pty Limited,North Brown Hill Wind Farm,Wind,132.0,21.74,North Brown Hill Wind Farm,-33.367778,138.728611,2026-02-05T06:10:56.981769
2026/02/05 16:10:00,OAKLAND1,4.2,AGL Hydro Partnership,Oaklands Hill Wind Farm,Wind,63.0,6.67,Oaklands Hill Wind Farm,-37.683078,142.551678,2026-02-05T06:10:56.981769
2026/02/05 16:10:00,PAREPW1,183.37,Iberdrola Australia Energy Markets Pty Limited,Port Augusta Renewable Energy Park,Wind,201.0,91.23,Port Augusta Renewable Energy Park,-32.566944,137.856111,2026-02-05T06:10:56.981769
2026/02/05 16:10:00,RYANCWF1,13.03,Ryan Corner Development Pty Ltd,Ryan Corner Wind Farm,Wind,205.0,6.36,Ryan Corner Wind Farm,-38.271017,142.140647,2026-02-05T06:10:56.981769
2026/02/05 16:10:00,RYEPARK1,0.0,Rye Park Renewable Energy Pty Ltd as trustee for Rye Park Wind Farm Trust,Rye Park Renewable Energy,Wind,384.0,0.0,Rye Park Renewable Energy,-32.138333,148.972778,2026-02-05T06:10:56.981769
2026/02/05 16:10:00,SALTCRK1,4.4,Salt Creek Wind Farm Pty Ltd,Salt Creek Wind Farm,Wind,54.0,8.15,Salt Creek Wind Farm,-37.95,142.63,2026-02-05T06:10:56.981769
2026/02/05 16:10:00,SAPHWF1,2.92,The Trustee For The SWF1 Operations Trust,Sapphire Wind Farm,Wind,270.0,1.08,Sapphire Wind Farm,-29.7,151.41,2026-02-05T06:10:56.981769
2026/02/05 16:10:00,SNOWNTH1,57.6,Snowtown Wind Farm Stage 2 Pty Ltd,Snowtown Wind Farm Stage 2 North,Wind,144.0,40.0,Snowtown Wind Farm Stage 2 North,-33.83,138.118611,2026-02-05T06:10:56.981769
2026/02/05 16:10:00,SNOWSTH1,45.0,Snowtown Wind Farm Stage 2 Pty Ltd,Snowtown South Wind Farm,Wind,126.0,35.71,Snowtown South Wind Farm,-33.83,138.118611,2026-02-05T06:10:56.981769
2026/02/05 16:10:00,SNOWTWN1,27.29,Snowtown Wind Farm Pty Ltd,Snowtown Wind Farm Units 1 And 47,Wind,99.0,27.57,Snowtown Wind Farm Units 1 And 47,-33.83,138.118611,2026-02-05T06:10:56.981769
2026/02/05 16:10:00,STARHLWF,19.59,Starfish Hill Wind Farm Pty Ltd,Starfish Hill Wind Farm,Wind,35.0,55.97,Starfish Hill Wind Farm,-35.58,138.14,2026-02-05T06:10:56.981769
2026/02/05 16:10:00,STOCKYD1,145.28,Stockyard Hill Wind Farm Pty Ltd,Stockyard Hill Wind Farm,Wind,511.0,28.43,Stockyard Hill Wind Farm,-37.535833,143.251389,2026-02-05T06:10:56.981769
2026/02/05 16:10:00,STWF1,0.82,PARF Company 8 Pty Ltd as The Trustee for Silverton Project Trust,Silverton Wind Farm,Wind,198.0,0.41,Silverton Wind Farm,-37.683168,142.551678,2026-02-05T06:10:56.981769
2026/02/05 16:10:00,TARALGA1,0.0,Taralga Wind Farm Nominees No 2 Pty Ltd (ATF Taralga Wind Farm Operating Trust),Taralga Wind Farm,Wind,106.0,0.0,Taralga Wind Farm,-34.42352,149.826267,2026-02-05T06:10:56.981769
2026/02/05 16:10:00,WAMBOWF1,0.63,Stanwell Corporation Limited,Wambo Wind Farm 1,Wind,245.0,0.26,Wambo Wind Farm 1,-35.187301,149.524945,2026-02-05T06:10:56.981769
2026/02/05 16:10:00,WATERLWF,3.3,Waterloo Wind Farm Pty Ltd,Waterloo Wind Farm,Wind,130.0,2.54,Waterloo Wind Farm,-34.00094,138.911567,2026-02-05T06:10:56.981769
2026/02/05 16:10:00,WGWF1,25.5,Willogoleche Power Pty Ltd As The Trustee For The Willogoleche Operating Trust,Willogoleche Wind Farm,Wind,119.0,21.43,Willogoleche Wind Farm,-33.39,138.85,2026-02-05T06:10:56.981769
2026/02/05 16:10:00,WOODLWN1,2.31,Woodlawn Wind Pty Ltd,Woodlawn Wind Farm,Wind,48.0,4.81,Woodlawn Wind Farm,-35.08,149.62,2026-02-05T06:10:56.981769
2026/02/05 16:10:00,WPWF,41.16,AGL SA Generation Pty Limited,Wattle Point Wind Farm,Wind,91.0,45.23,Wattle Point Wind Farm,-35.111624,137.7219,2026-02-05T06:10:56.981769
2026/02/05 16:10:00,WRWF1,0.0,White Rock Wind Farm Pty Ltd,White Rock Wind Farm,Wind,172.0,0.0,White Rock Wind Farm,-29.79,151.54,2026-02-05T06:10:56.981769
2026/02/05 16:10:00,YENDWF1,9.94,Lal Lal Wind Farms Nom Co Pty Ltd,Yendon Wind Farm,Wind,142.0,7.0,Yendon Wind Farm,-37.629987,144.022717,2026-02-05T06:10:56.981769
