SETTLEMENTDATE,DUID,SCADAVALUE,Participant,Station Name,Fuel Source - Primary,MAX_CAP,utilisation_pct,Plant,Latitude,Longitude,timestamp_utc
2026/02/22 02:00:00,CAPTL_WF,0.0,Iberdrola Australia Holdings Pty Limited,Capital Wind Farm,Wind,140.0,0.0,Capital Wind Farm,-35.1,149.31,2026-02-21T15:57:11.496222
2026/02/22 02:00:00,CHALLHWF,11.3,Pacific Hydro Challicum Hills Pty Ltd,Challicum Hills Wind Farm,Wind,52.0,21.73,Challicum Hills Wind Farm,-37.38,143.11,2026-02-21T15:57:11.496222
2026/02/22 02:00:00,CULLRGWF,2.35,Cullerin Range Wind Farm Pty Ltd,Cullerin Range Wind Farm,Wind,30.0,7.83,Cullerin Range Wind Farm,-34.81,149.4,2026-02-21T15:57:11.496222
2026/02/22 02:00:00,DIAPURWF1,8.0,Y.E.S. Energy (SA) Pty Ltd,Diapur Wind Farm,Wind,7.0,114.29,Diapur Wind Farm,-36.3425,141.43,2026-02-21T15:57:11.496222
2026/02/22 02:00:00,MLWF1,11.64,Mortons Lane Windfarm Pty Limited,Mortons Lane Wind Farm,Wind,20.0,58.2,Mortons Lane Wind Farm,-37.84,142.45,2026-02-21T15:57:11.496222
2026/02/22 02:00:00,WAUBRAWF,106.34,Pyrenees Wind Energy Developments Pty Ltd,Waubra Wind Farm,Wind,192.0,55.39,Waubra Wind Farm,-37.394498,143.638982,2026-02-21T15:57:11.496222
2026/02/22 02:00:00,WOOLNTH1,108.44,Hydro-Electric Corporation,Woolnorth Studland Bay / Bluff Point Wind Farm,Wind,140.0,77.46,Woolnorth Studland Bay / Bluff Point Wind Farm,-40.69,144.72,2026-02-21T15:57:11.496222
2026/02/22 02:00:00,YAMBUKWF,3.0,Energy Pacific (Vic) Pty Ltd,Yambuk Wind Farm,Wind,30.0,10.0,Yambuk Wind Farm,-38.299083,142.027577,2026-02-21T15:57:11.496222
2026/02/22 02:00:00,YSWF1,16.6,Pacific Hydro Yaloak South Pty Ltd,Yaloak South Wind Farm,Wind,28.0,59.29,Yaloak South Wind Farm,-37.7163,144.242853,2026-02-21T15:57:11.496222
2026/02/22 02:00:00,ARWF1,29.9,Ararat Wind Farm Pty Ltd,Ararat Wind Farm,Wind,241.0,12.41,Ararat Wind Farm,-37.232778,143.031389,2026-02-21T15:57:11.496222
2026/02/22 02:00:00,BALDHWF1,49.4,Alinta Energy Retail Sales Pty Ltd,Bald Hills Wind Farm,Wind,106.0,46.6,Bald Hills Wind Farm,-38.79,145.93,2026-02-21T15:57:11.496222
2026/02/22 02:00:00,BANGOWF1,16.0,BWF Nominees Pty Ltd as The Trustee for BWF Trust,Bango 973 Wind Farm,Wind,155.0,10.32,Bango 973 Wind Farm,-34.551582,148.732808,2026-02-21T15:57:11.496222
2026/02/22 02:00:00,BANGOWF2,12.7,BWF Nominees Pty Ltd as The Trustee for BWF Trust,Bango 999 Wind Farm,Wind,82.0,15.49,Bango 999 Wind Farm,-34.551582,148.732808,2026-02-21T15:57:11.496222
2026/02/22 02:00:00,BLUFF1,0.0,AGL SA Generation Pty Limited,The Bluff Wind Farm,Wind,53.0,0.0,The Bluff Wind Farm,-33.367778,138.728611,2026-02-21T15:57:11.496222
2026/02/22 02:00:00,BOCORWF1,55.92,Boco Rock Wind Farm Pty Ltd,Boco Rock Wind Farm,Wind,111.0,50.38,Boco Rock Wind Farm,-36.578611,149.103333,2026-02-21T15:57:11.496222
2026/02/22 02:00:00,BRYB1WF1,46.74,Berrybank Development Pty Ltd,Berrybank Wind Farm,Wind,175.9,26.57,Berrybank Wind Farm,-37.94,143.52,2026-02-21T15:57:11.496222
2026/02/22 02:00:00,BRYB2WF2,29.73,Berrybank 2 Asset Pty Ltd as trustee for Berrybank 2 Asset Trust,Berrybank 2 Wind Farm,Wind,105.0,28.31,Berrybank 2 Wind Farm,-37.94,143.52,2026-02-21T15:57:11.496222
2026/02/22 02:00:00,BULGANA1,61.71,Bulgana Wind Farm Pty Ltd,Bulgana Green Power Hub,Wind,204.0,30.25,Bulgana Green Power Hub,-37.0975,142.973611,2026-02-21T15:57:11.496222
2026/02/22 02:00:00,CATHROCK,0.3,Cathedral Rocks Wind Farm Pty Ltd,Cathedral Rocks,Wind,66.0,0.45,Cathedral Rocks,-34.51,135.35,2026-02-21T15:57:11.496222
2026/02/22 02:00:00,CHYTWF1,11.03,Cherry Tree Wind Farm Pty Ltd as trustee for The Cherry Tree Project trust ,Cherry Tree Wind Farm,Wind,57.0,19.35,Cherry Tree Wind Farm,-37.1,145.26,2026-02-21T15:57:11.496222
2026/02/22 02:00:00,CLEMGPWF,4.25,Pacific Hydro Clements Gap Pty Ltd,Clements Gap Wind Farm,Wind,57.0,7.46,Clements Gap Wind Farm,-33.48,138.1,2026-02-21T15:57:11.496222
2026/02/22 02:00:00,CLRKCWF1,225.74,Stanwell Corporation Limited ,Clarke Creek Wind Farm,Wind,338.0,66.79,Clarke Creek Wind Farm,-22.85,149.45,2026-02-21T15:57:11.496222
2026/02/22 02:00:00,CLRKCWF2,68.07,Stanwell Corporation Limited ,Clarke Creek Wind Farm,Wind,101.0,67.4,Clarke Creek Wind Farm,-22.85,149.45,2026-02-21T15:57:11.496222
2026/02/22 02:00:00,CNUNDAWF,22.73,Canunda Power Pty Ltd,Canunda Wind Farm,Wind,46.0,49.41,Canunda Wind Farm,-37.73,140.39,2026-02-21T15:57:11.496222
2026/02/22 02:00:00,COLWF01,0.06,Collector Wind Farm Pty Ltd,Collector Wind Farm 1,Wind,219.0,0.03,Collector Wind Farm 1,-34.8719,149.3967,2026-02-21T15:57:11.496222
2026/02/22 02:00:00,COOPGWF1,284.26,PARF Company 10 Pty Limited as The Trustee for Coopers Gap Project Trust,Coopers Gap Wind Farm,Wind,440.0,64.6,Coopers Gap Wind Farm,-26.74,151.45,2026-02-21T15:57:11.496222
2026/02/22 02:00:00,CROOKWF2,39.52,Crookwell Development Pty Ltd ,Crookwell 2 Wind Farm,Wind,91.0,43.43,Crookwell 2 Wind Farm,-34.52,149.54,2026-02-21T15:57:11.496222
2026/02/22 02:00:00,CROOKWF3,27.44,Crookwell 3 Development Pty Ltd,Crookwell 3 Wind Farm,Wind,56.0,49.0,Crookwell 3 Wind Farm,-34.52,149.54,2026-02-21T15:57:11.496222
2026/02/22 02:00:00,CROWLWF1,37.48,Pacific Hydro Crowlands Pty Ltd ,Crowlands Wind Farm,Wind,79.0,47.44,Crowlands Wind Farm,-37.13,143.16,2026-02-21T15:57:11.496222
2026/02/22 02:00:00,CRURWF1,20.5,CRWF Nominees Pty Ltd As Trustee For The CRWF Trust,Crudine Ridge Wind Farm,Wind,138.0,14.86,Crudine Ridge Wind Farm,-32.97,149.64,2026-02-21T15:57:11.496222
2026/02/22 02:00:00,CTHLWF1,93.19,Wild Cattle Hill Pty Ltd,Cattle Hill Wind Farm,Wind,144.0,64.72,Cattle Hill Wind Farm,-42.15,146.69,2026-02-21T15:57:11.496222
2026/02/22 02:00:00,DULAWF1,139.4,Dulacca Energy Project Co Pty Ltd,Dulacca Wind Farm,Wind,173.0,80.58,Dulacca Wind Farm,-26.63,149.87,2026-02-21T15:57:11.496222
2026/02/22 02:00:00,DUNDWF1,38.9,Dundonnell Wind Farm Pty Ltd,Dundonnell Wind Farm,Wind,168.0,23.15,Dundonnell Wind Farm,-37.52,142.58,2026-02-21T15:57:11.496222
2026/02/22 02:00:00,DUNDWF2,8.83,Dundonnell Wind Farm Pty Ltd,Dundonnell Wind Farm,Wind,46.0,19.2,Dundonnell Wind Farm,-37.52,142.58,2026-02-21T15:57:11.496222
2026/02/22 02:00:00,DUNDWF3,19.93,Dundonnell Wind Farm Pty Ltd,Dundonnell Wind Farm,Wind,122.0,16.34,Dundonnell Wind Farm,-37.52,142.58,2026-02-21T15:57:11.496222
2026/02/22 02:00:00,ELAINWF1,46.15,Lal Lal Wind Farms Nom Co Pty Ltd,Elaine Wind Farm,Wind,82.0,56.28,Elaine Wind Farm,-37.36,144.0,2026-02-21T15:57:11.496222
2026/02/22 02:00:00,FLYCRKWF,53.51,Iberdrola Australia Energy Markets Pty Limited,Flyers Creek Wind Farm,Wind,140.0,38.22,Flyers Creek Wind Farm,-33.365556,148.981944,2026-02-21T15:57:11.496222
2026/02/22 02:00:00,GPWFEST1,58.61,Golden Plains WF1 Pty Ltd as Trustee for the Golden Plains WF1 Unit Trust,Golden Plains Wind Farm East,Wind,240.0,24.42,Golden Plains Wind Farm East,-37.945091,143.752614,2026-02-21T15:57:11.496222
2026/02/22 02:00:00,GPWFEST2,114.11,Golden Plains WF1 Pty Ltd as Trustee for the Golden Plains WF1 Unit Trust,Golden Plains Wind Farm East,Wind,253.0,45.1,Golden Plains Wind Farm East,-37.945091,143.752614,2026-02-21T15:57:11.496222
2026/02/22 02:00:00,GPWFEST3,65.61,Golden Plains WF1 Pty Ltd as Trustee for the Golden Plains WF1 Unit Trust,Golden Plains Wind Farm East,Wind,240.0,27.34,Golden Plains Wind Farm East,-37.945091,143.752614,2026-02-21T15:57:11.496222
2026/02/22 02:00:00,GRANWF1,94.72,Granville Harbour Operations Pty Ltd as The Trustee for Granville Harbour Operations Trust,Granville Harbour Wind Farm,Wind,111.0,85.33,Granville Harbour Wind Farm,-41.8,145.06,2026-02-21T15:57:11.496222
2026/02/22 02:00:00,GSWF1A,140.75,Goyder Wind Farm 1 Pty Ltd as the Trustee for Goyder Wind Farm 1 Trust,Goyder South Wind Farm 1A,Wind,201.0,70.02,Goyder South Wind Farm 1A,-33.679758,138.937597,2026-02-21T15:57:11.496222
2026/02/22 02:00:00,GSWF1B1,86.36,Goyder Wind Farm 1B Pty Ltd as the Trustee for the Goyder Wind Farm 1B Trust,Goyder South Wind Farm 1B,Wind,196.0,44.06,Goyder South Wind Farm 1B,-33.679758,138.937597,2026-02-21T15:57:11.496222
2026/02/22 02:00:00,GULLRWF1,32.71,New Gullen Range Wind Farm Pty Ltd,Gullen Range Wind Farm,Wind,161.0,20.32,Gullen Range Wind Farm,-34.34,149.27,2026-02-21T15:57:11.496222
2026/02/22 02:00:00,GULLRWF2,56.94,New Gullen Range Wind Farm Pty Ltd,Gullen Range Wind Farm,Wind,107.0,53.21,Gullen Range Wind Farm,-34.34,149.27,2026-02-21T15:57:11.496222
2026/02/22 02:00:00,GUNNING1,8.93,Gunning Wind Energy Developments Pty Ltd,Gunning Wind Farm,Wind,47.0,19.0,Gunning Wind Farm,-34.813333,149.4,2026-02-21T15:57:11.496222
2026/02/22 02:00:00,HALLWF1,0.65,AGL SA Generation Pty Limited,Hallett 1 Wind Farm,Wind,95.0,0.68,Hallett 1 Wind Farm,-33.367778,138.728611,2026-02-21T15:57:11.496222
2026/02/22 02:00:00,HALLWF2,14.07,AGL SA Generation Pty Limited,Hallett 2 Wind Farm,Wind,71.0,19.82,Hallett 2 Wind Farm,-33.367778,138.728611,2026-02-21T15:57:11.496222
2026/02/22 02:00:00,HD1WF1,47.48,Hawkesdale Asset Pty Ltd as trustee for Hawkesdale Asset Trust,Hawkesdale Wind Farm,Wind,89.0,53.35,Hawkesdale Wind Farm,-38.147894,142.361381,2026-02-21T15:57:11.496222
2026/02/22 02:00:00,HDWF1,71.9,HWF1 Pty Ltd,Hornsdale Wind Farm,Wind,102.0,70.49,Hornsdale Wind Farm,-33.050556,138.543611,2026-02-21T15:57:11.496222
2026/02/22 02:00:00,HDWF2,72.0,HWF 2 Pty Ltd,Hornsdale Wind Farm 2,Wind,102.0,70.59,Hornsdale Wind Farm 2,-33.06,138.54,2026-02-21T15:57:11.496222
2026/02/22 02:00:00,HDWF3,66.8,HWF3 Pty Ltd,Hornsdale Wind Farm 3,Wind,109.0,61.28,Hornsdale Wind Farm 3,-33.06,138.54,2026-02-21T15:57:11.496222
2026/02/22 02:00:00,KABANWF1,3.59,Kaban Wind Farm Pty Ltd as trustee for Kaban Wind Farm Trust,Kaban Wind Farm,Wind,152.0,2.36,Kaban Wind Farm,-17.56,145.41,2026-02-21T15:57:11.496222
2026/02/22 02:00:00,KEPWF1,0.0,Kennedy Energy Park Pty Ltd,Kennedy Energy Park,Wind,43.0,0.0,Kennedy Energy Park,-20.88,144.42,2026-02-21T15:57:11.496222
2026/02/22 02:00:00,KIATAWF1,24.4,Kiata ProjectCo Pty Ltd Atf Kiata Project Trust,Kiata Wind Farm,Wind,31.0,78.71,Kiata Wind Farm,-36.4,141.75,2026-02-21T15:57:11.496222
2026/02/22 02:00:00,LGAPWF1,4.98,Lincoln Gap Wind Farm (Operations) Pty Ltd,Lincoln Gap Wind Farm,Wind,123.0,4.05,Lincoln Gap Wind Farm,-32.564279,137.557328,2026-02-21T15:57:11.496222
2026/02/22 02:00:00,LGAPWF1,4.98,Lincoln Gap Wind Farm (Operations) Pty Ltd,Lincoln Gap Wind Farm,Wind,123.0,4.05,Lincoln Gap Wind Farm,-32.564279,137.557328,2026-02-21T15:57:11.496222
2026/02/22 02:00:00,LGAPWF2,10.03,Lincoln Gap Wind Farm (Operations) Pty Ltd,Lincoln Gap Wind Farm,Wind,85.0,11.8,Lincoln Gap Wind Farm,-32.564279,137.557328,2026-02-21T15:57:11.496222
2026/02/22 02:00:00,LGAPWF2,10.03,Lincoln Gap Wind Farm (Operations) Pty Ltd,Lincoln Gap Wind Farm,Wind,85.0,11.8,Lincoln Gap Wind Farm,-32.564279,137.557328,2026-02-21T15:57:11.496222
2026/02/22 02:00:00,LKBONNY1,28.31,Lake Bonney Wind Power Pty Ltd,Lake Bonney Wind Farm Stage 1,Wind,81.0,34.95,Lake Bonney Wind Farm Stage 1,-37.76,140.4,2026-02-21T15:57:11.496222
2026/02/22 02:00:00,LKBONNY2,76.54,Lake Bonney Wind Power Pty Ltd,Lake Bonney Stage 2 Windfarm,Wind,159.0,48.14,Lake Bonney Stage 2 Windfarm,-37.76,140.4,2026-02-21T15:57:11.496222
2026/02/22 02:00:00,LKBONNY3,20.15,Lake Bonney Wind Power Pty Ltd,Lake Bonney Stage 3 Wind Farm,Wind,39.0,51.67,Lake Bonney Stage 3 Wind Farm,-37.737781,140.388137,2026-02-21T15:57:11.496222
2026/02/22 02:00:00,MACARTH1,199.4,AGL Hydro Partnership,Macarthur Wind Farm,Wind,420.0,47.48,Macarthur Wind Farm,-38.048957,142.192112,2026-02-21T15:57:11.496222
2026/02/22 02:00:00,MCINTYR1,269.78,MacIntyre UJV Operator Pty Ltd,MacIntyre Wind Farm,Wind,890.0,30.31,MacIntyre Wind Farm,-28.32,151.54,2026-02-21T15:57:11.496222
2026/02/22 02:00:00,MERCER01,72.7,Mt Mercer Windfarm Pty Ltd,Mt Mercer Wind Farm,Wind,131.0,55.5,Mt Mercer Wind Farm,-37.841111,143.871111,2026-02-21T15:57:11.496222
2026/02/22 02:00:00,MEWF1,5.74,Ergon Energy Queensland Pty Ltd ,Mount Emerald Wind Farm,Wind,178.0,3.22,Mount Emerald Wind Farm,-17.133007,145.380644,2026-02-21T15:57:11.496222
2026/02/22 02:00:00,MRTLSWF1,15.59,Mortlake South Wind Farm Pty Ltd,Mortlake South Wind Farm,Wind,153.0,10.19,Mortlake South Wind Farm,-38.127337,142.857801,2026-02-21T15:57:11.496222
2026/02/22 02:00:00,MTGELWF1,22.95,Mt. Gellibrand Wind Farm Pty Ltd,Mt Gellibrand Wind Farm,Wind,132.0,17.39,Mt Gellibrand Wind Farm,-38.23,143.77,2026-02-21T15:57:11.496222
2026/02/22 02:00:00,MTMILLAR,2.8,Mt Millar Wind Farm Pty Ltd,Mt Millar Wind Farm,Wind,70.0,4.0,Mt Millar Wind Farm,-33.624444,136.703611,2026-02-21T15:57:11.496222
2026/02/22 02:00:00,MUSSELR1,14.1,Hydro-Electric Corporation,Musselroe Wind Farm,Wind,168.0,8.39,Musselroe Wind Farm,-40.780225,148.010799,2026-02-21T15:57:11.496222
2026/02/22 02:00:00,MUWAWF1,6.15,Telstra Energy (Generation) Pty Ltd,Murra Warra Wind Farm,Wind,225.7,2.72,Murra Warra Wind Farm,-36.432404,142.317853,2026-02-21T15:57:11.496222
2026/02/22 02:00:00,MUWAWF2,9.1,Murra Warra II Project Co Pty Ltd ATF The Murra Warra II Project Trust,Murra Warra Wind Farm Stage 2,Wind,203.0,4.48,Murra Warra Wind Farm Stage 2,-36.43,142.32,2026-02-21T15:57:11.496222
2026/02/22 02:00:00,NBHWF1,11.0,AGL SA Generation Pty Limited,North Brown Hill Wind Farm,Wind,132.0,8.33,North Brown Hill Wind Farm,-33.367778,138.728611,2026-02-21T15:57:11.496222
2026/02/22 02:00:00,OAKLAND1,15.7,AGL Hydro Partnership,Oaklands Hill Wind Farm,Wind,63.0,24.92,Oaklands Hill Wind Farm,-37.683078,142.551678,2026-02-21T15:57:11.496222
2026/02/22 02:00:00,PAREPW1,84.17,Iberdrola Australia Energy Markets Pty Limited,Port Augusta Renewable Energy Park,Wind,201.0,41.88,Port Augusta Renewable Energy Park,-32.566944,137.856111,2026-02-21T15:57:11.496222
2026/02/22 02:00:00,RYANCWF1,18.7,Ryan Corner Development Pty Ltd,Ryan Corner Wind Farm,Wind,205.0,9.12,Ryan Corner Wind Farm,-38.271017,142.140647,2026-02-21T15:57:11.496222
2026/02/22 02:00:00,RYEPARK1,79.7,Rye Park Renewable Energy Pty Ltd as trustee for Rye Park Wind Farm Trust,Rye Park Renewable Energy,Wind,384.0,20.76,Rye Park Renewable Energy,-32.138333,148.972778,2026-02-21T15:57:11.496222
2026/02/22 02:00:00,SALTCRK1,14.21,Salt Creek Wind Farm Pty Ltd,Salt Creek Wind Farm,Wind,54.0,26.31,Salt Creek Wind Farm,-37.95,142.63,2026-02-21T15:57:11.496222
2026/02/22 02:00:00,SAPHWF1,146.32,The Trustee For The SWF1 Operations Trust,Sapphire Wind Farm,Wind,270.0,54.19,Sapphire Wind Farm,-29.7,151.41,2026-02-21T15:57:11.496222
2026/02/22 02:00:00,SNOWNTH1,40.3,Snowtown Wind Farm Stage 2 Pty Ltd,Snowtown Wind Farm Stage 2 North,Wind,144.0,27.99,Snowtown Wind Farm Stage 2 North,-33.83,138.118611,2026-02-21T15:57:11.496222
2026/02/22 02:00:00,SNOWSTH1,31.8,Snowtown Wind Farm Stage 2 Pty Ltd,Snowtown South Wind Farm,Wind,126.0,25.24,Snowtown South Wind Farm,-33.83,138.118611,2026-02-21T15:57:11.496222
2026/02/22 02:00:00,SNOWTWN1,0.0,Snowtown Wind Farm Pty Ltd,Snowtown Wind Farm Units 1 And 47,Wind,99.0,0.0,Snowtown Wind Farm Units 1 And 47,-33.83,138.118611,2026-02-21T15:57:11.496222
2026/02/22 02:00:00,STARHLWF,2.2,Starfish Hill Wind Farm Pty Ltd,Starfish Hill Wind Farm,Wind,35.0,6.29,Starfish Hill Wind Farm,-35.58,138.14,2026-02-21T15:57:11.496222
2026/02/22 02:00:00,STOCKYD1,224.86,Stockyard Hill Wind Farm Pty Ltd,Stockyard Hill Wind Farm,Wind,511.0,44.0,Stockyard Hill Wind Farm,-37.535833,143.251389,2026-02-21T15:57:11.496222
2026/02/22 02:00:00,STWF1,58.1,PARF Company 8 Pty Ltd as The Trustee for Silverton Project Trust,Silverton Wind Farm,Wind,198.0,29.34,Silverton Wind Farm,-37.683168,142.551678,2026-02-21T15:57:11.496222
2026/02/22 02:00:00,TARALGA1,17.22,Taralga Wind Farm Nominees No 2 Pty Ltd (ATF Taralga Wind Farm Operating Trust),Taralga Wind Farm,Wind,106.0,16.25,Taralga Wind Farm,-34.42352,149.826267,2026-02-21T15:57:11.496222
2026/02/22 02:00:00,WAMBOWF1,118.65,Stanwell Corporation Limited,Wambo Wind Farm 1,Wind,245.0,48.43,Wambo Wind Farm 1,-35.187301,149.524945,2026-02-21T15:57:11.496222
2026/02/22 02:00:00,WATERLWF,22.2,Waterloo Wind Farm Pty Ltd,Waterloo Wind Farm,Wind,130.0,17.08,Waterloo Wind Farm,-34.00094,138.911567,2026-02-21T15:57:11.496222
2026/02/22 02:00:00,WGWF1,0.0,Willogoleche Power Pty Ltd As The Trustee For The Willogoleche Operating Trust,Willogoleche Wind Farm,Wind,119.0,0.0,Willogoleche Wind Farm,-33.39,138.85,2026-02-21T15:57:11.496222
2026/02/22 02:00:00,WOODLWN1,0.0,Woodlawn Wind Pty Ltd,Woodlawn Wind Farm,Wind,48.0,0.0,Woodlawn Wind Farm,-35.08,149.62,2026-02-21T15:57:11.496222
2026/02/22 02:00:00,WPWF,0.0,AGL SA Generation Pty Limited,Wattle Point Wind Farm,Wind,91.0,0.0,Wattle Point Wind Farm,-35.111624,137.7219,2026-02-21T15:57:11.496222
2026/02/22 02:00:00,WRWF1,71.08,White Rock Wind Farm Pty Ltd,White Rock Wind Farm,Wind,172.0,41.33,White Rock Wind Farm,-29.79,151.54,2026-02-21T15:57:11.496222
2026/02/22 02:00:00,YENDWF1,96.02,Lal Lal Wind Farms Nom Co Pty Ltd,Yendon Wind Farm,Wind,142.0,67.62,Yendon Wind Farm,-37.629987,144.022717,2026-02-21T15:57:11.496222
