SETTLEMENTDATE,DUID,SCADAVALUE,Participant,Station Name,Fuel Source - Primary,MAX_CAP,utilisation_pct,Plant,Latitude,Longitude,timestamp_utc
2026/02/22 21:30:00,CAPTL_WF,6.03,Iberdrola Australia Holdings Pty Limited,Capital Wind Farm,Wind,140.0,4.31,Capital Wind Farm,-35.1,149.31,2026-02-22T11:31:15.622704
2026/02/22 21:30:00,CHALLHWF,9.2,Pacific Hydro Challicum Hills Pty Ltd,Challicum Hills Wind Farm,Wind,52.0,17.69,Challicum Hills Wind Farm,-37.38,143.11,2026-02-22T11:31:15.622704
2026/02/22 21:30:00,CULLRGWF,0.29,Cullerin Range Wind Farm Pty Ltd,Cullerin Range Wind Farm,Wind,30.0,0.97,Cullerin Range Wind Farm,-34.81,149.4,2026-02-22T11:31:15.622704
2026/02/22 21:30:00,DIAPURWF1,8.2,Y.E.S. Energy (SA) Pty Ltd,Diapur Wind Farm,Wind,7.0,117.14,Diapur Wind Farm,-36.3425,141.43,2026-02-22T11:31:15.622704
2026/02/22 21:30:00,MLWF1,2.28,Mortons Lane Windfarm Pty Limited,Mortons Lane Wind Farm,Wind,20.0,11.4,Mortons Lane Wind Farm,-37.84,142.45,2026-02-22T11:31:15.622704
2026/02/22 21:30:00,WAUBRAWF,159.79,Pyrenees Wind Energy Developments Pty Ltd,Waubra Wind Farm,Wind,192.0,83.22,Waubra Wind Farm,-37.394498,143.638982,2026-02-22T11:31:15.622704
2026/02/22 21:30:00,WOOLNTH1,91.76,Hydro-Electric Corporation,Woolnorth Studland Bay / Bluff Point Wind Farm,Wind,140.0,65.54,Woolnorth Studland Bay / Bluff Point Wind Farm,-40.69,144.72,2026-02-22T11:31:15.622704
2026/02/22 21:30:00,YAMBUKWF,7.7,Energy Pacific (Vic) Pty Ltd,Yambuk Wind Farm,Wind,30.0,25.67,Yambuk Wind Farm,-38.299083,142.027577,2026-02-22T11:31:15.622704
2026/02/22 21:30:00,YSWF1,10.0,Pacific Hydro Yaloak South Pty Ltd,Yaloak South Wind Farm,Wind,28.0,35.71,Yaloak South Wind Farm,-37.7163,144.242853,2026-02-22T11:31:15.622704
2026/02/22 21:30:00,ARWF1,138.3,Ararat Wind Farm Pty Ltd,Ararat Wind Farm,Wind,241.0,57.39,Ararat Wind Farm,-37.232778,143.031389,2026-02-22T11:31:15.622704
2026/02/22 21:30:00,BALDHWF1,65.51,Alinta Energy Retail Sales Pty Ltd,Bald Hills Wind Farm,Wind,106.0,61.8,Bald Hills Wind Farm,-38.79,145.93,2026-02-22T11:31:15.622704
2026/02/22 21:30:00,BANGOWF1,0.0,BWF Nominees Pty Ltd as The Trustee for BWF Trust,Bango 973 Wind Farm,Wind,155.0,0.0,Bango 973 Wind Farm,-34.551582,148.732808,2026-02-22T11:31:15.622704
2026/02/22 21:30:00,BANGOWF2,0.9,BWF Nominees Pty Ltd as The Trustee for BWF Trust,Bango 999 Wind Farm,Wind,82.0,1.1,Bango 999 Wind Farm,-34.551582,148.732808,2026-02-22T11:31:15.622704
2026/02/22 21:30:00,BLUFF1,11.5,AGL SA Generation Pty Limited,The Bluff Wind Farm,Wind,53.0,21.7,The Bluff Wind Farm,-33.367778,138.728611,2026-02-22T11:31:15.622704
2026/02/22 21:30:00,BOCORWF1,104.21,Boco Rock Wind Farm Pty Ltd,Boco Rock Wind Farm,Wind,111.0,93.88,Boco Rock Wind Farm,-36.578611,149.103333,2026-02-22T11:31:15.622704
2026/02/22 21:30:00,BRYB1WF1,10.99,Berrybank Development Pty Ltd,Berrybank Wind Farm,Wind,175.9,6.25,Berrybank Wind Farm,-37.94,143.52,2026-02-22T11:31:15.622704
2026/02/22 21:30:00,BRYB2WF2,8.39,Berrybank 2 Asset Pty Ltd as trustee for Berrybank 2 Asset Trust,Berrybank 2 Wind Farm,Wind,105.0,7.99,Berrybank 2 Wind Farm,-37.94,143.52,2026-02-22T11:31:15.622704
2026/02/22 21:30:00,BULGANA1,119.99,Bulgana Wind Farm Pty Ltd,Bulgana Green Power Hub,Wind,204.0,58.82,Bulgana Green Power Hub,-37.0975,142.973611,2026-02-22T11:31:15.622704
2026/02/22 21:30:00,CATHROCK,22.2,Cathedral Rocks Wind Farm Pty Ltd,Cathedral Rocks,Wind,66.0,33.64,Cathedral Rocks,-34.51,135.35,2026-02-22T11:31:15.622704
2026/02/22 21:30:00,CHYTWF1,40.63,Cherry Tree Wind Farm Pty Ltd as trustee for The Cherry Tree Project trust ,Cherry Tree Wind Farm,Wind,57.0,71.28,Cherry Tree Wind Farm,-37.1,145.26,2026-02-22T11:31:15.622704
2026/02/22 21:30:00,CLEMGPWF,14.48,Pacific Hydro Clements Gap Pty Ltd,Clements Gap Wind Farm,Wind,57.0,25.4,Clements Gap Wind Farm,-33.48,138.1,2026-02-22T11:31:15.622704
2026/02/22 21:30:00,CLRKCWF1,314.95,Stanwell Corporation Limited ,Clarke Creek Wind Farm,Wind,338.0,93.18,Clarke Creek Wind Farm,-22.85,149.45,2026-02-22T11:31:15.622704
2026/02/22 21:30:00,CLRKCWF2,84.81,Stanwell Corporation Limited ,Clarke Creek Wind Farm,Wind,101.0,83.97,Clarke Creek Wind Farm,-22.85,149.45,2026-02-22T11:31:15.622704
2026/02/22 21:30:00,CNUNDAWF,8.01,Canunda Power Pty Ltd,Canunda Wind Farm,Wind,46.0,17.41,Canunda Wind Farm,-37.73,140.39,2026-02-22T11:31:15.622704
2026/02/22 21:30:00,COLWF01,0.0,Collector Wind Farm Pty Ltd,Collector Wind Farm 1,Wind,219.0,0.0,Collector Wind Farm 1,-34.8719,149.3967,2026-02-22T11:31:15.622704
2026/02/22 21:30:00,COOPGWF1,310.9,PARF Company 10 Pty Limited as The Trustee for Coopers Gap Project Trust,Coopers Gap Wind Farm,Wind,440.0,70.66,Coopers Gap Wind Farm,-26.74,151.45,2026-02-22T11:31:15.622704
2026/02/22 21:30:00,CROOKWF2,62.54,Crookwell Development Pty Ltd ,Crookwell 2 Wind Farm,Wind,91.0,68.73,Crookwell 2 Wind Farm,-34.52,149.54,2026-02-22T11:31:15.622704
2026/02/22 21:30:00,CROOKWF3,47.08,Crookwell 3 Development Pty Ltd,Crookwell 3 Wind Farm,Wind,56.0,84.07,Crookwell 3 Wind Farm,-34.52,149.54,2026-02-22T11:31:15.622704
2026/02/22 21:30:00,CROWLWF1,46.06,Pacific Hydro Crowlands Pty Ltd ,Crowlands Wind Farm,Wind,79.0,58.3,Crowlands Wind Farm,-37.13,143.16,2026-02-22T11:31:15.622704
2026/02/22 21:30:00,CRURWF1,0.0,CRWF Nominees Pty Ltd As Trustee For The CRWF Trust,Crudine Ridge Wind Farm,Wind,138.0,0.0,Crudine Ridge Wind Farm,-32.97,149.64,2026-02-22T11:31:15.622704
2026/02/22 21:30:00,CTHLWF1,114.32,Wild Cattle Hill Pty Ltd,Cattle Hill Wind Farm,Wind,144.0,79.39,Cattle Hill Wind Farm,-42.15,146.69,2026-02-22T11:31:15.622704
2026/02/22 21:30:00,DULAWF1,141.3,Dulacca Energy Project Co Pty Ltd,Dulacca Wind Farm,Wind,173.0,81.68,Dulacca Wind Farm,-26.63,149.87,2026-02-22T11:31:15.622704
2026/02/22 21:30:00,DUNDWF1,6.64,Dundonnell Wind Farm Pty Ltd,Dundonnell Wind Farm,Wind,168.0,3.95,Dundonnell Wind Farm,-37.52,142.58,2026-02-22T11:31:15.622704
2026/02/22 21:30:00,DUNDWF2,2.6,Dundonnell Wind Farm Pty Ltd,Dundonnell Wind Farm,Wind,46.0,5.65,Dundonnell Wind Farm,-37.52,142.58,2026-02-22T11:31:15.622704
2026/02/22 21:30:00,DUNDWF3,3.82,Dundonnell Wind Farm Pty Ltd,Dundonnell Wind Farm,Wind,122.0,3.13,Dundonnell Wind Farm,-37.52,142.58,2026-02-22T11:31:15.622704
2026/02/22 21:30:00,ELAINWF1,10.82,Lal Lal Wind Farms Nom Co Pty Ltd,Elaine Wind Farm,Wind,82.0,13.2,Elaine Wind Farm,-37.36,144.0,2026-02-22T11:31:15.622704
2026/02/22 21:30:00,FLYCRKWF,19.8,Iberdrola Australia Energy Markets Pty Limited,Flyers Creek Wind Farm,Wind,140.0,14.14,Flyers Creek Wind Farm,-33.365556,148.981944,2026-02-22T11:31:15.622704
2026/02/22 21:30:00,GPWFEST1,21.24,Golden Plains WF1 Pty Ltd as Trustee for the Golden Plains WF1 Unit Trust,Golden Plains Wind Farm East,Wind,240.0,8.85,Golden Plains Wind Farm East,-37.945091,143.752614,2026-02-22T11:31:15.622704
2026/02/22 21:30:00,GPWFEST2,17.36,Golden Plains WF1 Pty Ltd as Trustee for the Golden Plains WF1 Unit Trust,Golden Plains Wind Farm East,Wind,253.0,6.86,Golden Plains Wind Farm East,-37.945091,143.752614,2026-02-22T11:31:15.622704
2026/02/22 21:30:00,GPWFEST3,4.51,Golden Plains WF1 Pty Ltd as Trustee for the Golden Plains WF1 Unit Trust,Golden Plains Wind Farm East,Wind,240.0,1.88,Golden Plains Wind Farm East,-37.945091,143.752614,2026-02-22T11:31:15.622704
2026/02/22 21:30:00,GRANWF1,73.83,Granville Harbour Operations Pty Ltd as The Trustee for Granville Harbour Operations Trust,Granville Harbour Wind Farm,Wind,111.0,66.51,Granville Harbour Wind Farm,-41.8,145.06,2026-02-22T11:31:15.622704
2026/02/22 21:30:00,GSWF1A,53.07,Goyder Wind Farm 1 Pty Ltd as the Trustee for Goyder Wind Farm 1 Trust,Goyder South Wind Farm 1A,Wind,201.0,26.4,Goyder South Wind Farm 1A,-33.679758,138.937597,2026-02-22T11:31:15.622704
2026/02/22 21:30:00,GSWF1B1,50.41,Goyder Wind Farm 1B Pty Ltd as the Trustee for the Goyder Wind Farm 1B Trust,Goyder South Wind Farm 1B,Wind,196.0,25.72,Goyder South Wind Farm 1B,-33.679758,138.937597,2026-02-22T11:31:15.622704
2026/02/22 21:30:00,GULLRWF1,21.25,New Gullen Range Wind Farm Pty Ltd,Gullen Range Wind Farm,Wind,161.0,13.2,Gullen Range Wind Farm,-34.34,149.27,2026-02-22T11:31:15.622704
2026/02/22 21:30:00,GULLRWF2,8.63,New Gullen Range Wind Farm Pty Ltd,Gullen Range Wind Farm,Wind,107.0,8.07,Gullen Range Wind Farm,-34.34,149.27,2026-02-22T11:31:15.622704
2026/02/22 21:30:00,GUNNING1,7.65,Gunning Wind Energy Developments Pty Ltd,Gunning Wind Farm,Wind,47.0,16.28,Gunning Wind Farm,-34.813333,149.4,2026-02-22T11:31:15.622704
2026/02/22 21:30:00,HALLWF1,16.4,AGL SA Generation Pty Limited,Hallett 1 Wind Farm,Wind,95.0,17.26,Hallett 1 Wind Farm,-33.367778,138.728611,2026-02-22T11:31:15.622704
2026/02/22 21:30:00,HALLWF2,7.41,AGL SA Generation Pty Limited,Hallett 2 Wind Farm,Wind,71.0,10.44,Hallett 2 Wind Farm,-33.367778,138.728611,2026-02-22T11:31:15.622704
2026/02/22 21:30:00,HD1WF1,12.27,Hawkesdale Asset Pty Ltd as trustee for Hawkesdale Asset Trust,Hawkesdale Wind Farm,Wind,89.0,13.79,Hawkesdale Wind Farm,-38.147894,142.361381,2026-02-22T11:31:15.622704
2026/02/22 21:30:00,HDWF1,29.5,HWF1 Pty Ltd,Hornsdale Wind Farm,Wind,102.0,28.92,Hornsdale Wind Farm,-33.050556,138.543611,2026-02-22T11:31:15.622704
2026/02/22 21:30:00,HDWF2,30.2,HWF 2 Pty Ltd,Hornsdale Wind Farm 2,Wind,102.0,29.61,Hornsdale Wind Farm 2,-33.06,138.54,2026-02-22T11:31:15.622704
2026/02/22 21:30:00,HDWF3,29.7,HWF3 Pty Ltd,Hornsdale Wind Farm 3,Wind,109.0,27.25,Hornsdale Wind Farm 3,-33.06,138.54,2026-02-22T11:31:15.622704
2026/02/22 21:30:00,KABANWF1,0.0,Kaban Wind Farm Pty Ltd as trustee for Kaban Wind Farm Trust,Kaban Wind Farm,Wind,152.0,0.0,Kaban Wind Farm,-17.56,145.41,2026-02-22T11:31:15.622704
2026/02/22 21:30:00,KEPWF1,17.3,Kennedy Energy Park Pty Ltd,Kennedy Energy Park,Wind,43.0,40.23,Kennedy Energy Park,-20.88,144.42,2026-02-22T11:31:15.622704
2026/02/22 21:30:00,KIATAWF1,24.9,Kiata ProjectCo Pty Ltd Atf Kiata Project Trust,Kiata Wind Farm,Wind,31.0,80.32,Kiata Wind Farm,-36.4,141.75,2026-02-22T11:31:15.622704
2026/02/22 21:30:00,LGAPWF1,21.39,Lincoln Gap Wind Farm (Operations) Pty Ltd,Lincoln Gap Wind Farm,Wind,123.0,17.39,Lincoln Gap Wind Farm,-32.564279,137.557328,2026-02-22T11:31:15.622704
2026/02/22 21:30:00,LGAPWF1,21.39,Lincoln Gap Wind Farm (Operations) Pty Ltd,Lincoln Gap Wind Farm,Wind,123.0,17.39,Lincoln Gap Wind Farm,-32.564279,137.557328,2026-02-22T11:31:15.622704
2026/02/22 21:30:00,LGAPWF2,77.51,Lincoln Gap Wind Farm (Operations) Pty Ltd,Lincoln Gap Wind Farm,Wind,85.0,91.19,Lincoln Gap Wind Farm,-32.564279,137.557328,2026-02-22T11:31:15.622704
2026/02/22 21:30:00,LGAPWF2,77.51,Lincoln Gap Wind Farm (Operations) Pty Ltd,Lincoln Gap Wind Farm,Wind,85.0,91.19,Lincoln Gap Wind Farm,-32.564279,137.557328,2026-02-22T11:31:15.622704
2026/02/22 21:30:00,LKBONNY1,15.27,Lake Bonney Wind Power Pty Ltd,Lake Bonney Wind Farm Stage 1,Wind,81.0,18.85,Lake Bonney Wind Farm Stage 1,-37.76,140.4,2026-02-22T11:31:15.622704
2026/02/22 21:30:00,LKBONNY2,28.38,Lake Bonney Wind Power Pty Ltd,Lake Bonney Stage 2 Windfarm,Wind,159.0,17.85,Lake Bonney Stage 2 Windfarm,-37.76,140.4,2026-02-22T11:31:15.622704
2026/02/22 21:30:00,LKBONNY3,10.05,Lake Bonney Wind Power Pty Ltd,Lake Bonney Stage 3 Wind Farm,Wind,39.0,25.77,Lake Bonney Stage 3 Wind Farm,-37.737781,140.388137,2026-02-22T11:31:15.622704
2026/02/22 21:30:00,MACARTH1,14.0,AGL Hydro Partnership,Macarthur Wind Farm,Wind,420.0,3.33,Macarthur Wind Farm,-38.048957,142.192112,2026-02-22T11:31:15.622704
2026/02/22 21:30:00,MCINTYR1,198.82,MacIntyre UJV Operator Pty Ltd,MacIntyre Wind Farm,Wind,890.0,22.34,MacIntyre Wind Farm,-28.32,151.54,2026-02-22T11:31:15.622704
2026/02/22 21:30:00,MERCER01,7.7,Mt Mercer Windfarm Pty Ltd,Mt Mercer Wind Farm,Wind,131.0,5.88,Mt Mercer Wind Farm,-37.841111,143.871111,2026-02-22T11:31:15.622704
2026/02/22 21:30:00,MEWF1,14.47,Ergon Energy Queensland Pty Ltd ,Mount Emerald Wind Farm,Wind,178.0,8.13,Mount Emerald Wind Farm,-17.133007,145.380644,2026-02-22T11:31:15.622704
2026/02/22 21:30:00,MRTLSWF1,35.56,Mortlake South Wind Farm Pty Ltd,Mortlake South Wind Farm,Wind,153.0,23.24,Mortlake South Wind Farm,-38.127337,142.857801,2026-02-22T11:31:15.622704
2026/02/22 21:30:00,MTGELWF1,10.0,Mt. Gellibrand Wind Farm Pty Ltd,Mt Gellibrand Wind Farm,Wind,132.0,7.58,Mt Gellibrand Wind Farm,-38.23,143.77,2026-02-22T11:31:15.622704
2026/02/22 21:30:00,MTMILLAR,59.5,Mt Millar Wind Farm Pty Ltd,Mt Millar Wind Farm,Wind,70.0,85.0,Mt Millar Wind Farm,-33.624444,136.703611,2026-02-22T11:31:15.622704
2026/02/22 21:30:00,MUSSELR1,134.5,Hydro-Electric Corporation,Musselroe Wind Farm,Wind,168.0,80.06,Musselroe Wind Farm,-40.780225,148.010799,2026-02-22T11:31:15.622704
2026/02/22 21:30:00,MUWAWF1,150.05,Telstra Energy (Generation) Pty Ltd,Murra Warra Wind Farm,Wind,225.7,66.48,Murra Warra Wind Farm,-36.432404,142.317853,2026-02-22T11:31:15.622704
2026/02/22 21:30:00,MUWAWF2,134.9,Murra Warra II Project Co Pty Ltd ATF The Murra Warra II Project Trust,Murra Warra Wind Farm Stage 2,Wind,203.0,66.45,Murra Warra Wind Farm Stage 2,-36.43,142.32,2026-02-22T11:31:15.622704
2026/02/22 21:30:00,NBHWF1,25.0,AGL SA Generation Pty Limited,North Brown Hill Wind Farm,Wind,132.0,18.94,North Brown Hill Wind Farm,-33.367778,138.728611,2026-02-22T11:31:15.622704
2026/02/22 21:30:00,OAKLAND1,6.3,AGL Hydro Partnership,Oaklands Hill Wind Farm,Wind,63.0,10.0,Oaklands Hill Wind Farm,-37.683078,142.551678,2026-02-22T11:31:15.622704
2026/02/22 21:30:00,PAREPW1,187.01,Iberdrola Australia Energy Markets Pty Limited,Port Augusta Renewable Energy Park,Wind,201.0,93.04,Port Augusta Renewable Energy Park,-32.566944,137.856111,2026-02-22T11:31:15.622704
2026/02/22 21:30:00,RYANCWF1,36.63,Ryan Corner Development Pty Ltd,Ryan Corner Wind Farm,Wind,205.0,17.87,Ryan Corner Wind Farm,-38.271017,142.140647,2026-02-22T11:31:15.622704
2026/02/22 21:30:00,RYEPARK1,42.92,Rye Park Renewable Energy Pty Ltd as trustee for Rye Park Wind Farm Trust,Rye Park Renewable Energy,Wind,384.0,11.18,Rye Park Renewable Energy,-32.138333,148.972778,2026-02-22T11:31:15.622704
2026/02/22 21:30:00,SALTCRK1,5.35,Salt Creek Wind Farm Pty Ltd,Salt Creek Wind Farm,Wind,54.0,9.91,Salt Creek Wind Farm,-37.95,142.63,2026-02-22T11:31:15.622704
2026/02/22 21:30:00,SAPHWF1,219.0,The Trustee For The SWF1 Operations Trust,Sapphire Wind Farm,Wind,270.0,81.11,Sapphire Wind Farm,-29.7,151.41,2026-02-22T11:31:15.622704
2026/02/22 21:30:00,SNOWNTH1,130.6,Snowtown Wind Farm Stage 2 Pty Ltd,Snowtown Wind Farm Stage 2 North,Wind,144.0,90.69,Snowtown Wind Farm Stage 2 North,-33.83,138.118611,2026-02-22T11:31:15.622704
2026/02/22 21:30:00,SNOWSTH1,121.2,Snowtown Wind Farm Stage 2 Pty Ltd,Snowtown South Wind Farm,Wind,126.0,96.19,Snowtown South Wind Farm,-33.83,138.118611,2026-02-22T11:31:15.622704
2026/02/22 21:30:00,SNOWTWN1,92.73,Snowtown Wind Farm Pty Ltd,Snowtown Wind Farm Units 1 And 47,Wind,99.0,93.67,Snowtown Wind Farm Units 1 And 47,-33.83,138.118611,2026-02-22T11:31:15.622704
2026/02/22 21:30:00,STARHLWF,17.19,Starfish Hill Wind Farm Pty Ltd,Starfish Hill Wind Farm,Wind,35.0,49.11,Starfish Hill Wind Farm,-35.58,138.14,2026-02-22T11:31:15.622704
2026/02/22 21:30:00,STOCKYD1,117.81,Stockyard Hill Wind Farm Pty Ltd,Stockyard Hill Wind Farm,Wind,511.0,23.05,Stockyard Hill Wind Farm,-37.535833,143.251389,2026-02-22T11:31:15.622704
2026/02/22 21:30:00,STWF1,89.37,PARF Company 8 Pty Ltd as The Trustee for Silverton Project Trust,Silverton Wind Farm,Wind,198.0,45.14,Silverton Wind Farm,-37.683168,142.551678,2026-02-22T11:31:15.622704
2026/02/22 21:30:00,TARALGA1,20.81,Taralga Wind Farm Nominees No 2 Pty Ltd (ATF Taralga Wind Farm Operating Trust),Taralga Wind Farm,Wind,106.0,19.63,Taralga Wind Farm,-34.42352,149.826267,2026-02-22T11:31:15.622704
2026/02/22 21:30:00,WAMBOWF1,181.95,Stanwell Corporation Limited,Wambo Wind Farm 1,Wind,245.0,74.27,Wambo Wind Farm 1,-35.187301,149.524945,2026-02-22T11:31:15.622704
2026/02/22 21:30:00,WATERLWF,40.9,Waterloo Wind Farm Pty Ltd,Waterloo Wind Farm,Wind,130.0,31.46,Waterloo Wind Farm,-34.00094,138.911567,2026-02-22T11:31:15.622704
2026/02/22 21:30:00,WGWF1,35.8,Willogoleche Power Pty Ltd As The Trustee For The Willogoleche Operating Trust,Willogoleche Wind Farm,Wind,119.0,30.08,Willogoleche Wind Farm,-33.39,138.85,2026-02-22T11:31:15.622704
2026/02/22 21:30:00,WOODLWN1,10.57,Woodlawn Wind Pty Ltd,Woodlawn Wind Farm,Wind,48.0,22.02,Woodlawn Wind Farm,-35.08,149.62,2026-02-22T11:31:15.622704
2026/02/22 21:30:00,WPWF,76.52,AGL SA Generation Pty Limited,Wattle Point Wind Farm,Wind,91.0,84.09,Wattle Point Wind Farm,-35.111624,137.7219,2026-02-22T11:31:15.622704
2026/02/22 21:30:00,WRWF1,133.45,White Rock Wind Farm Pty Ltd,White Rock Wind Farm,Wind,172.0,77.59,White Rock Wind Farm,-29.79,151.54,2026-02-22T11:31:15.622704
2026/02/22 21:30:00,YENDWF1,56.12,Lal Lal Wind Farms Nom Co Pty Ltd,Yendon Wind Farm,Wind,142.0,39.52,Yendon Wind Farm,-37.629987,144.022717,2026-02-22T11:31:15.622704
