SETTLEMENTDATE,DUID,SCADAVALUE,Participant,Station Name,Fuel Source - Primary,MAX_CAP,utilisation_pct,Plant,Latitude,Longitude,timestamp_utc
2026/02/13 05:40:00,CAPTL_WF,20.51,Iberdrola Australia Holdings Pty Limited,Capital Wind Farm,Wind,140.0,14.65,Capital Wind Farm,-35.1,149.31,2026-02-12T19:40:55.993957
2026/02/13 05:40:00,CHALLHWF,25.4,Pacific Hydro Challicum Hills Pty Ltd,Challicum Hills Wind Farm,Wind,52.0,48.85,Challicum Hills Wind Farm,-37.38,143.11,2026-02-12T19:40:55.993957
2026/02/13 05:40:00,CULLRGWF,20.01,Cullerin Range Wind Farm Pty Ltd,Cullerin Range Wind Farm,Wind,30.0,66.7,Cullerin Range Wind Farm,-34.81,149.4,2026-02-12T19:40:55.993957
2026/02/13 05:40:00,DIAPURWF1,4.1,Y.E.S. Energy (SA) Pty Ltd,Diapur Wind Farm,Wind,7.0,58.57,Diapur Wind Farm,-36.3425,141.43,2026-02-12T19:40:55.993957
2026/02/13 05:40:00,MLWF1,1.27,Mortons Lane Windfarm Pty Limited,Mortons Lane Wind Farm,Wind,20.0,6.35,Mortons Lane Wind Farm,-37.84,142.45,2026-02-12T19:40:55.993957
2026/02/13 05:40:00,WAUBRAWF,93.93,Pyrenees Wind Energy Developments Pty Ltd,Waubra Wind Farm,Wind,192.0,48.92,Waubra Wind Farm,-37.394498,143.638982,2026-02-12T19:40:55.993957
2026/02/13 05:40:00,WOOLNTH1,54.23,Hydro-Electric Corporation,Woolnorth Studland Bay / Bluff Point Wind Farm,Wind,140.0,38.74,Woolnorth Studland Bay / Bluff Point Wind Farm,-40.69,144.72,2026-02-12T19:40:55.993957
2026/02/13 05:40:00,YAMBUKWF,5.7,Energy Pacific (Vic) Pty Ltd,Yambuk Wind Farm,Wind,30.0,19.0,Yambuk Wind Farm,-38.299083,142.027577,2026-02-12T19:40:55.993957
2026/02/13 05:40:00,YSWF1,8.3,Pacific Hydro Yaloak South Pty Ltd,Yaloak South Wind Farm,Wind,28.0,29.64,Yaloak South Wind Farm,-37.7163,144.242853,2026-02-12T19:40:55.993957
2026/02/13 05:40:00,ARWF1,107.3,Ararat Wind Farm Pty Ltd,Ararat Wind Farm,Wind,241.0,44.52,Ararat Wind Farm,-37.232778,143.031389,2026-02-12T19:40:55.993957
2026/02/13 05:40:00,BALDHWF1,0.0,Alinta Energy Retail Sales Pty Ltd,Bald Hills Wind Farm,Wind,106.0,0.0,Bald Hills Wind Farm,-38.79,145.93,2026-02-12T19:40:55.993957
2026/02/13 05:40:00,BANGOWF1,111.2,BWF Nominees Pty Ltd as The Trustee for BWF Trust,Bango 973 Wind Farm,Wind,155.0,71.74,Bango 973 Wind Farm,-34.551582,148.732808,2026-02-12T19:40:55.993957
2026/02/13 05:40:00,BANGOWF2,62.8,BWF Nominees Pty Ltd as The Trustee for BWF Trust,Bango 999 Wind Farm,Wind,82.0,76.59,Bango 999 Wind Farm,-34.551582,148.732808,2026-02-12T19:40:55.993957
2026/02/13 05:40:00,BLUFF1,40.0,AGL SA Generation Pty Limited,The Bluff Wind Farm,Wind,53.0,75.47,The Bluff Wind Farm,-33.367778,138.728611,2026-02-12T19:40:55.993957
2026/02/13 05:40:00,BOCORWF1,0.0,Boco Rock Wind Farm Pty Ltd,Boco Rock Wind Farm,Wind,111.0,0.0,Boco Rock Wind Farm,-36.578611,149.103333,2026-02-12T19:40:55.993957
2026/02/13 05:40:00,BRYB1WF1,18.7,Berrybank Development Pty Ltd,Berrybank Wind Farm,Wind,175.9,10.63,Berrybank Wind Farm,-37.94,143.52,2026-02-12T19:40:55.993957
2026/02/13 05:40:00,BRYB2WF2,14.71,Berrybank 2 Asset Pty Ltd as trustee for Berrybank 2 Asset Trust,Berrybank 2 Wind Farm,Wind,105.0,14.01,Berrybank 2 Wind Farm,-37.94,143.52,2026-02-12T19:40:55.993957
2026/02/13 05:40:00,BULGANA1,103.01,Bulgana Wind Farm Pty Ltd,Bulgana Green Power Hub,Wind,204.0,50.5,Bulgana Green Power Hub,-37.0975,142.973611,2026-02-12T19:40:55.993957
2026/02/13 05:40:00,CATHROCK,16.7,Cathedral Rocks Wind Farm Pty Ltd,Cathedral Rocks,Wind,66.0,25.3,Cathedral Rocks,-34.51,135.35,2026-02-12T19:40:55.993957
2026/02/13 05:40:00,CHYTWF1,53.02,Cherry Tree Wind Farm Pty Ltd as trustee for The Cherry Tree Project trust ,Cherry Tree Wind Farm,Wind,57.0,93.02,Cherry Tree Wind Farm,-37.1,145.26,2026-02-12T19:40:55.993957
2026/02/13 05:40:00,CLEMGPWF,0.0,Pacific Hydro Clements Gap Pty Ltd,Clements Gap Wind Farm,Wind,57.0,0.0,Clements Gap Wind Farm,-33.48,138.1,2026-02-12T19:40:55.993957
2026/02/13 05:40:00,CLRKCWF1,198.71,Stanwell Corporation Limited ,Clarke Creek Wind Farm,Wind,338.0,58.79,Clarke Creek Wind Farm,-22.85,149.45,2026-02-12T19:40:55.993957
2026/02/13 05:40:00,CLRKCWF2,47.94,Stanwell Corporation Limited ,Clarke Creek Wind Farm,Wind,101.0,47.47,Clarke Creek Wind Farm,-22.85,149.45,2026-02-12T19:40:55.993957
2026/02/13 05:40:00,CNUNDAWF,1.1,Canunda Power Pty Ltd,Canunda Wind Farm,Wind,46.0,2.39,Canunda Wind Farm,-37.73,140.39,2026-02-12T19:40:55.993957
2026/02/13 05:40:00,COLWF01,78.59,Collector Wind Farm Pty Ltd,Collector Wind Farm 1,Wind,219.0,35.89,Collector Wind Farm 1,-34.8719,149.3967,2026-02-12T19:40:55.993957
2026/02/13 05:40:00,COOPGWF1,8.56,PARF Company 10 Pty Limited as The Trustee for Coopers Gap Project Trust,Coopers Gap Wind Farm,Wind,440.0,1.95,Coopers Gap Wind Farm,-26.74,151.45,2026-02-12T19:40:55.993957
2026/02/13 05:40:00,CROOKWF2,33.98,Crookwell Development Pty Ltd ,Crookwell 2 Wind Farm,Wind,91.0,37.34,Crookwell 2 Wind Farm,-34.52,149.54,2026-02-12T19:40:55.993957
2026/02/13 05:40:00,CROOKWF3,25.81,Crookwell 3 Development Pty Ltd,Crookwell 3 Wind Farm,Wind,56.0,46.09,Crookwell 3 Wind Farm,-34.52,149.54,2026-02-12T19:40:55.993957
2026/02/13 05:40:00,CROWLWF1,30.52,Pacific Hydro Crowlands Pty Ltd ,Crowlands Wind Farm,Wind,79.0,38.63,Crowlands Wind Farm,-37.13,143.16,2026-02-12T19:40:55.993957
2026/02/13 05:40:00,CRURWF1,95.8,CRWF Nominees Pty Ltd As Trustee For The CRWF Trust,Crudine Ridge Wind Farm,Wind,138.0,69.42,Crudine Ridge Wind Farm,-32.97,149.64,2026-02-12T19:40:55.993957
2026/02/13 05:40:00,CTHLWF1,133.81,Wild Cattle Hill Pty Ltd,Cattle Hill Wind Farm,Wind,144.0,92.92,Cattle Hill Wind Farm,-42.15,146.69,2026-02-12T19:40:55.993957
2026/02/13 05:40:00,DULAWF1,0.0,Dulacca Energy Project Co Pty Ltd,Dulacca Wind Farm,Wind,173.0,0.0,Dulacca Wind Farm,-26.63,149.87,2026-02-12T19:40:55.993957
2026/02/13 05:40:00,DUNDWF1,19.78,Dundonnell Wind Farm Pty Ltd,Dundonnell Wind Farm,Wind,168.0,11.77,Dundonnell Wind Farm,-37.52,142.58,2026-02-12T19:40:55.993957
2026/02/13 05:40:00,DUNDWF2,8.46,Dundonnell Wind Farm Pty Ltd,Dundonnell Wind Farm,Wind,46.0,18.39,Dundonnell Wind Farm,-37.52,142.58,2026-02-12T19:40:55.993957
2026/02/13 05:40:00,DUNDWF3,12.97,Dundonnell Wind Farm Pty Ltd,Dundonnell Wind Farm,Wind,122.0,10.63,Dundonnell Wind Farm,-37.52,142.58,2026-02-12T19:40:55.993957
2026/02/13 05:40:00,ELAINWF1,19.59,Lal Lal Wind Farms Nom Co Pty Ltd,Elaine Wind Farm,Wind,82.0,23.89,Elaine Wind Farm,-37.36,144.0,2026-02-12T19:40:55.993957
2026/02/13 05:40:00,FLYCRKWF,64.32,Iberdrola Australia Energy Markets Pty Limited,Flyers Creek Wind Farm,Wind,140.0,45.94,Flyers Creek Wind Farm,-33.365556,148.981944,2026-02-12T19:40:55.993957
2026/02/13 05:40:00,GPWFEST1,30.25,Golden Plains WF1 Pty Ltd as Trustee for the Golden Plains WF1 Unit Trust,Golden Plains Wind Farm East,Wind,240.0,12.6,Golden Plains Wind Farm East,-37.945091,143.752614,2026-02-12T19:40:55.993957
2026/02/13 05:40:00,GPWFEST2,12.39,Golden Plains WF1 Pty Ltd as Trustee for the Golden Plains WF1 Unit Trust,Golden Plains Wind Farm East,Wind,253.0,4.9,Golden Plains Wind Farm East,-37.945091,143.752614,2026-02-12T19:40:55.993957
2026/02/13 05:40:00,GPWFEST3,12.24,Golden Plains WF1 Pty Ltd as Trustee for the Golden Plains WF1 Unit Trust,Golden Plains Wind Farm East,Wind,240.0,5.1,Golden Plains Wind Farm East,-37.945091,143.752614,2026-02-12T19:40:55.993957
2026/02/13 05:40:00,GRANWF1,15.79,Granville Harbour Operations Pty Ltd as The Trustee for Granville Harbour Operations Trust,Granville Harbour Wind Farm,Wind,111.0,14.23,Granville Harbour Wind Farm,-41.8,145.06,2026-02-12T19:40:55.993957
2026/02/13 05:40:00,GSWF1A,146.52,Goyder Wind Farm 1 Pty Ltd as the Trustee for Goyder Wind Farm 1 Trust,Goyder South Wind Farm 1A,Wind,201.0,72.9,Goyder South Wind Farm 1A,-33.679758,138.937597,2026-02-12T19:40:55.993957
2026/02/13 05:40:00,GSWF1B1,147.71,Goyder Wind Farm 1B Pty Ltd as the Trustee for the Goyder Wind Farm 1B Trust,Goyder South Wind Farm 1B,Wind,196.0,75.36,Goyder South Wind Farm 1B,-33.679758,138.937597,2026-02-12T19:40:55.993957
2026/02/13 05:40:00,GULLRWF1,70.97,New Gullen Range Wind Farm Pty Ltd,Gullen Range Wind Farm,Wind,161.0,44.08,Gullen Range Wind Farm,-34.34,149.27,2026-02-12T19:40:55.993957
2026/02/13 05:40:00,GULLRWF2,102.88,New Gullen Range Wind Farm Pty Ltd,Gullen Range Wind Farm,Wind,107.0,96.15,Gullen Range Wind Farm,-34.34,149.27,2026-02-12T19:40:55.993957
2026/02/13 05:40:00,GUNNING1,36.54,Gunning Wind Energy Developments Pty Ltd,Gunning Wind Farm,Wind,47.0,77.74,Gunning Wind Farm,-34.813333,149.4,2026-02-12T19:40:55.993957
2026/02/13 05:40:00,HALLWF1,64.77,AGL SA Generation Pty Limited,Hallett 1 Wind Farm,Wind,95.0,68.18,Hallett 1 Wind Farm,-33.367778,138.728611,2026-02-12T19:40:55.993957
2026/02/13 05:40:00,HALLWF2,61.7,AGL SA Generation Pty Limited,Hallett 2 Wind Farm,Wind,71.0,86.9,Hallett 2 Wind Farm,-33.367778,138.728611,2026-02-12T19:40:55.993957
2026/02/13 05:40:00,HD1WF1,3.87,Hawkesdale Asset Pty Ltd as trustee for Hawkesdale Asset Trust,Hawkesdale Wind Farm,Wind,89.0,4.35,Hawkesdale Wind Farm,-38.147894,142.361381,2026-02-12T19:40:55.993957
2026/02/13 05:40:00,HDWF1,91.8,HWF1 Pty Ltd,Hornsdale Wind Farm,Wind,102.0,90.0,Hornsdale Wind Farm,-33.050556,138.543611,2026-02-12T19:40:55.993957
2026/02/13 05:40:00,HDWF2,99.5,HWF 2 Pty Ltd,Hornsdale Wind Farm 2,Wind,102.0,97.55,Hornsdale Wind Farm 2,-33.06,138.54,2026-02-12T19:40:55.993957
2026/02/13 05:40:00,HDWF3,101.4,HWF3 Pty Ltd,Hornsdale Wind Farm 3,Wind,109.0,93.03,Hornsdale Wind Farm 3,-33.06,138.54,2026-02-12T19:40:55.993957
2026/02/13 05:40:00,KABANWF1,0.0,Kaban Wind Farm Pty Ltd as trustee for Kaban Wind Farm Trust,Kaban Wind Farm,Wind,152.0,0.0,Kaban Wind Farm,-17.56,145.41,2026-02-12T19:40:55.993957
2026/02/13 05:40:00,KEPWF1,15.1,Kennedy Energy Park Pty Ltd,Kennedy Energy Park,Wind,43.0,35.12,Kennedy Energy Park,-20.88,144.42,2026-02-12T19:40:55.993957
2026/02/13 05:40:00,KIATAWF1,22.2,Kiata ProjectCo Pty Ltd Atf Kiata Project Trust,Kiata Wind Farm,Wind,31.0,71.61,Kiata Wind Farm,-36.4,141.75,2026-02-12T19:40:55.993957
2026/02/13 05:40:00,LGAPWF1,27.17,Lincoln Gap Wind Farm (Operations) Pty Ltd,Lincoln Gap Wind Farm,Wind,123.0,22.09,Lincoln Gap Wind Farm,-32.564279,137.557328,2026-02-12T19:40:55.993957
2026/02/13 05:40:00,LGAPWF1,27.17,Lincoln Gap Wind Farm (Operations) Pty Ltd,Lincoln Gap Wind Farm,Wind,123.0,22.09,Lincoln Gap Wind Farm,-32.564279,137.557328,2026-02-12T19:40:55.993957
2026/02/13 05:40:00,LGAPWF2,7.58,Lincoln Gap Wind Farm (Operations) Pty Ltd,Lincoln Gap Wind Farm,Wind,85.0,8.92,Lincoln Gap Wind Farm,-32.564279,137.557328,2026-02-12T19:40:55.993957
2026/02/13 05:40:00,LGAPWF2,7.58,Lincoln Gap Wind Farm (Operations) Pty Ltd,Lincoln Gap Wind Farm,Wind,85.0,8.92,Lincoln Gap Wind Farm,-32.564279,137.557328,2026-02-12T19:40:55.993957
2026/02/13 05:40:00,LKBONNY1,0.0,Lake Bonney Wind Power Pty Ltd,Lake Bonney Wind Farm Stage 1,Wind,81.0,0.0,Lake Bonney Wind Farm Stage 1,-37.76,140.4,2026-02-12T19:40:55.993957
2026/02/13 05:40:00,LKBONNY2,3.58,Lake Bonney Wind Power Pty Ltd,Lake Bonney Stage 2 Windfarm,Wind,159.0,2.25,Lake Bonney Stage 2 Windfarm,-37.76,140.4,2026-02-12T19:40:55.993957
2026/02/13 05:40:00,LKBONNY3,1.79,Lake Bonney Wind Power Pty Ltd,Lake Bonney Stage 3 Wind Farm,Wind,39.0,4.59,Lake Bonney Stage 3 Wind Farm,-37.737781,140.388137,2026-02-12T19:40:55.993957
2026/02/13 05:40:00,MACARTH1,0.0,AGL Hydro Partnership,Macarthur Wind Farm,Wind,420.0,0.0,Macarthur Wind Farm,-38.048957,142.192112,2026-02-12T19:40:55.993957
2026/02/13 05:40:00,MCINTYR1,338.74,MacIntyre UJV Operator Pty Ltd,MacIntyre Wind Farm,Wind,890.0,38.06,MacIntyre Wind Farm,-28.32,151.54,2026-02-12T19:40:55.993957
2026/02/13 05:40:00,MERCER01,3.7,Mt Mercer Windfarm Pty Ltd,Mt Mercer Wind Farm,Wind,131.0,2.82,Mt Mercer Wind Farm,-37.841111,143.871111,2026-02-12T19:40:55.993957
2026/02/13 05:40:00,MEWF1,19.0,Ergon Energy Queensland Pty Ltd ,Mount Emerald Wind Farm,Wind,178.0,10.67,Mount Emerald Wind Farm,-17.133007,145.380644,2026-02-12T19:40:55.993957
2026/02/13 05:40:00,MRTLSWF1,1.61,Mortlake South Wind Farm Pty Ltd,Mortlake South Wind Farm,Wind,153.0,1.05,Mortlake South Wind Farm,-38.127337,142.857801,2026-02-12T19:40:55.993957
2026/02/13 05:40:00,MTGELWF1,4.08,Mt. Gellibrand Wind Farm Pty Ltd,Mt Gellibrand Wind Farm,Wind,132.0,3.09,Mt Gellibrand Wind Farm,-38.23,143.77,2026-02-12T19:40:55.993957
2026/02/13 05:40:00,MTMILLAR,13.9,Mt Millar Wind Farm Pty Ltd,Mt Millar Wind Farm,Wind,70.0,19.86,Mt Millar Wind Farm,-33.624444,136.703611,2026-02-12T19:40:55.993957
2026/02/13 05:40:00,MUSSELR1,25.1,Hydro-Electric Corporation,Musselroe Wind Farm,Wind,168.0,14.94,Musselroe Wind Farm,-40.780225,148.010799,2026-02-12T19:40:55.993957
2026/02/13 05:40:00,MUWAWF1,139.53,Telstra Energy (Generation) Pty Ltd,Murra Warra Wind Farm,Wind,225.7,61.82,Murra Warra Wind Farm,-36.432404,142.317853,2026-02-12T19:40:55.993957
2026/02/13 05:40:00,MUWAWF2,136.6,Murra Warra II Project Co Pty Ltd ATF The Murra Warra II Project Trust,Murra Warra Wind Farm Stage 2,Wind,203.0,67.29,Murra Warra Wind Farm Stage 2,-36.43,142.32,2026-02-12T19:40:55.993957
2026/02/13 05:40:00,NBHWF1,109.0,AGL SA Generation Pty Limited,North Brown Hill Wind Farm,Wind,132.0,82.58,North Brown Hill Wind Farm,-33.367778,138.728611,2026-02-12T19:40:55.993957
2026/02/13 05:40:00,OAKLAND1,11.6,AGL Hydro Partnership,Oaklands Hill Wind Farm,Wind,63.0,18.41,Oaklands Hill Wind Farm,-37.683078,142.551678,2026-02-12T19:40:55.993957
2026/02/13 05:40:00,PAREPW1,166.2,Iberdrola Australia Energy Markets Pty Limited,Port Augusta Renewable Energy Park,Wind,201.0,82.69,Port Augusta Renewable Energy Park,-32.566944,137.856111,2026-02-12T19:40:55.993957
2026/02/13 05:40:00,RYANCWF1,7.48,Ryan Corner Development Pty Ltd,Ryan Corner Wind Farm,Wind,205.0,3.65,Ryan Corner Wind Farm,-38.271017,142.140647,2026-02-12T19:40:55.993957
2026/02/13 05:40:00,RYEPARK1,295.45,Rye Park Renewable Energy Pty Ltd as trustee for Rye Park Wind Farm Trust,Rye Park Renewable Energy,Wind,384.0,76.94,Rye Park Renewable Energy,-32.138333,148.972778,2026-02-12T19:40:55.993957
2026/02/13 05:40:00,SALTCRK1,0.94,Salt Creek Wind Farm Pty Ltd,Salt Creek Wind Farm,Wind,54.0,1.74,Salt Creek Wind Farm,-37.95,142.63,2026-02-12T19:40:55.993957
2026/02/13 05:40:00,SAPHWF1,178.25,The Trustee For The SWF1 Operations Trust,Sapphire Wind Farm,Wind,270.0,66.02,Sapphire Wind Farm,-29.7,151.41,2026-02-12T19:40:55.993957
2026/02/13 05:40:00,SNOWNTH1,86.3,Snowtown Wind Farm Stage 2 Pty Ltd,Snowtown Wind Farm Stage 2 North,Wind,144.0,59.93,Snowtown Wind Farm Stage 2 North,-33.83,138.118611,2026-02-12T19:40:55.993957
2026/02/13 05:40:00,SNOWSTH1,101.8,Snowtown Wind Farm Stage 2 Pty Ltd,Snowtown South Wind Farm,Wind,126.0,80.79,Snowtown South Wind Farm,-33.83,138.118611,2026-02-12T19:40:55.993957
2026/02/13 05:40:00,SNOWTWN1,84.52,Snowtown Wind Farm Pty Ltd,Snowtown Wind Farm Units 1 And 47,Wind,99.0,85.37,Snowtown Wind Farm Units 1 And 47,-33.83,138.118611,2026-02-12T19:40:55.993957
2026/02/13 05:40:00,STARHLWF,20.19,Starfish Hill Wind Farm Pty Ltd,Starfish Hill Wind Farm,Wind,35.0,57.69,Starfish Hill Wind Farm,-35.58,138.14,2026-02-12T19:40:55.993957
2026/02/13 05:40:00,STOCKYD1,164.07,Stockyard Hill Wind Farm Pty Ltd,Stockyard Hill Wind Farm,Wind,511.0,32.11,Stockyard Hill Wind Farm,-37.535833,143.251389,2026-02-12T19:40:55.993957
2026/02/13 05:40:00,STWF1,104.63,PARF Company 8 Pty Ltd as The Trustee for Silverton Project Trust,Silverton Wind Farm,Wind,198.0,52.84,Silverton Wind Farm,-37.683168,142.551678,2026-02-12T19:40:55.993957
2026/02/13 05:40:00,TARALGA1,19.02,Taralga Wind Farm Nominees No 2 Pty Ltd (ATF Taralga Wind Farm Operating Trust),Taralga Wind Farm,Wind,106.0,17.94,Taralga Wind Farm,-34.42352,149.826267,2026-02-12T19:40:55.993957
2026/02/13 05:40:00,WAMBOWF1,7.51,Stanwell Corporation Limited,Wambo Wind Farm 1,Wind,245.0,3.07,Wambo Wind Farm 1,-35.187301,149.524945,2026-02-12T19:40:55.993957
2026/02/13 05:40:00,WATERLWF,19.4,Waterloo Wind Farm Pty Ltd,Waterloo Wind Farm,Wind,130.0,14.92,Waterloo Wind Farm,-34.00094,138.911567,2026-02-12T19:40:55.993957
2026/02/13 05:40:00,WGWF1,0.2,Willogoleche Power Pty Ltd As The Trustee For The Willogoleche Operating Trust,Willogoleche Wind Farm,Wind,119.0,0.17,Willogoleche Wind Farm,-33.39,138.85,2026-02-12T19:40:55.993957
2026/02/13 05:40:00,WOODLWN1,10.78,Woodlawn Wind Pty Ltd,Woodlawn Wind Farm,Wind,48.0,22.46,Woodlawn Wind Farm,-35.08,149.62,2026-02-12T19:40:55.993957
2026/02/13 05:40:00,WPWF,60.22,AGL SA Generation Pty Limited,Wattle Point Wind Farm,Wind,91.0,66.18,Wattle Point Wind Farm,-35.111624,137.7219,2026-02-12T19:40:55.993957
2026/02/13 05:40:00,WRWF1,166.84,White Rock Wind Farm Pty Ltd,White Rock Wind Farm,Wind,172.0,97.0,White Rock Wind Farm,-29.79,151.54,2026-02-12T19:40:55.993957
2026/02/13 05:40:00,YENDWF1,33.07,Lal Lal Wind Farms Nom Co Pty Ltd,Yendon Wind Farm,Wind,142.0,23.29,Yendon Wind Farm,-37.629987,144.022717,2026-02-12T19:40:55.993957
