SETTLEMENTDATE,DUID,SCADAVALUE,Participant,Station Name,Fuel Source - Primary,MAX_CAP,utilisation_pct,Plant,Latitude,Longitude,timestamp_utc
2026/04/03 03:35:00,CAPTL_WF,0.0,Iberdrola Australia Holdings Pty Limited,Capital Wind Farm,Wind,140.0,0.0,Capital Wind Farm,-35.1,149.31,2026-04-02T17:36:48.143192
2026/04/03 03:35:00,CHALLHWF,11.6,Pacific Hydro Challicum Hills Pty Ltd,Challicum Hills Wind Farm,Wind,52.0,22.31,Challicum Hills Wind Farm,-37.38,143.11,2026-04-02T17:36:48.143192
2026/04/03 03:35:00,CULLRGWF,2.11,Cullerin Range Wind Farm Pty Ltd,Cullerin Range Wind Farm,Wind,30.0,7.03,Cullerin Range Wind Farm,-34.81,149.4,2026-04-02T17:36:48.143192
2026/04/03 03:35:00,DIAPURWF1,7.3,Y.E.S. Energy (SA) Pty Ltd,Diapur Wind Farm,Wind,7.0,104.29,Diapur Wind Farm,-36.3425,141.43,2026-04-02T17:36:48.143192
2026/04/03 03:35:00,MLWF1,4.22,Mortons Lane Windfarm Pty Limited,Mortons Lane Wind Farm,Wind,20.0,21.1,Mortons Lane Wind Farm,-37.84,142.45,2026-04-02T17:36:48.143192
2026/04/03 03:35:00,WAUBRAWF,74.33,Pyrenees Wind Energy Developments Pty Ltd,Waubra Wind Farm,Wind,192.0,38.71,Waubra Wind Farm,-37.394498,143.638982,2026-04-02T17:36:48.143192
2026/04/03 03:35:00,WOOLNTH1,94.94,Hydro-Electric Corporation,Woolnorth Studland Bay / Bluff Point Wind Farm,Wind,140.0,67.81,Woolnorth Studland Bay / Bluff Point Wind Farm,-40.69,144.72,2026-04-02T17:36:48.143192
2026/04/03 03:35:00,YAMBUKWF,8.1,Energy Pacific (Vic) Pty Ltd,Yambuk Wind Farm,Wind,30.0,27.0,Yambuk Wind Farm,-38.299083,142.027577,2026-04-02T17:36:48.143192
2026/04/03 03:35:00,YSWF1,11.3,Pacific Hydro Yaloak South Pty Ltd,Yaloak South Wind Farm,Wind,28.0,40.36,Yaloak South Wind Farm,-37.7163,144.242853,2026-04-02T17:36:48.143192
2026/04/03 03:35:00,ARWF1,78.9,Ararat Wind Farm Pty Ltd,Ararat Wind Farm,Wind,241.0,32.74,Ararat Wind Farm,-37.232778,143.031389,2026-04-02T17:36:48.143192
2026/04/03 03:35:00,BALDHWF1,30.77,Alinta Energy Retail Sales Pty Ltd,Bald Hills Wind Farm,Wind,106.0,29.03,Bald Hills Wind Farm,-38.79,145.93,2026-04-02T17:36:48.143192
2026/04/03 03:35:00,BANGOWF1,23.6,BWF Nominees Pty Ltd as The Trustee for BWF Trust,Bango 973 Wind Farm,Wind,155.0,15.23,Bango 973 Wind Farm,-34.551582,148.732808,2026-04-02T17:36:48.143192
2026/04/03 03:35:00,BANGOWF2,19.1,BWF Nominees Pty Ltd as The Trustee for BWF Trust,Bango 999 Wind Farm,Wind,82.0,23.29,Bango 999 Wind Farm,-34.551582,148.732808,2026-04-02T17:36:48.143192
2026/04/03 03:35:00,BLUFF1,3.2,AGL SA Generation Pty Limited,The Bluff Wind Farm,Wind,53.0,6.04,The Bluff Wind Farm,-33.367778,138.728611,2026-04-02T17:36:48.143192
2026/04/03 03:35:00,BOCORWF1,7.12,Boco Rock Wind Farm Pty Ltd,Boco Rock Wind Farm,Wind,111.0,6.41,Boco Rock Wind Farm,-36.578611,149.103333,2026-04-02T17:36:48.143192
2026/04/03 03:35:00,BRYB1WF1,32.47,Berrybank Development Pty Ltd,Berrybank Wind Farm,Wind,175.9,18.46,Berrybank Wind Farm,-37.94,143.52,2026-04-02T17:36:48.143192
2026/04/03 03:35:00,BRYB2WF2,32.54,Berrybank 2 Asset Pty Ltd as trustee for Berrybank 2 Asset Trust,Berrybank 2 Wind Farm,Wind,105.0,30.99,Berrybank 2 Wind Farm,-37.94,143.52,2026-04-02T17:36:48.143192
2026/04/03 03:35:00,BULGANA1,0.0,Bulgana Wind Farm Pty Ltd,Bulgana Green Power Hub,Wind,204.0,0.0,Bulgana Green Power Hub,-37.0975,142.973611,2026-04-02T17:36:48.143192
2026/04/03 03:35:00,CATHROCK,11.8,Cathedral Rocks Wind Farm Pty Ltd,Cathedral Rocks,Wind,66.0,17.88,Cathedral Rocks,-34.51,135.35,2026-04-02T17:36:48.143192
2026/04/03 03:35:00,CHYTWF1,41.3,Cherry Tree Wind Farm Pty Ltd as trustee for The Cherry Tree Project trust ,Cherry Tree Wind Farm,Wind,57.0,72.46,Cherry Tree Wind Farm,-37.1,145.26,2026-04-02T17:36:48.143192
2026/04/03 03:35:00,CLEMGPWF,55.61,Pacific Hydro Clements Gap Pty Ltd,Clements Gap Wind Farm,Wind,57.0,97.56,Clements Gap Wind Farm,-33.48,138.1,2026-04-02T17:36:48.143192
2026/04/03 03:35:00,CLRKCWF1,291.59,Stanwell Corporation Limited ,Clarke Creek Wind Farm,Wind,338.0,86.27,Clarke Creek Wind Farm,-22.85,149.45,2026-04-02T17:36:48.143192
2026/04/03 03:35:00,CLRKCWF2,72.98,Stanwell Corporation Limited ,Clarke Creek Wind Farm,Wind,101.0,72.26,Clarke Creek Wind Farm,-22.85,149.45,2026-04-02T17:36:48.143192
2026/04/03 03:35:00,CNUNDAWF,2.8,Canunda Power Pty Ltd,Canunda Wind Farm,Wind,46.0,6.09,Canunda Wind Farm,-37.73,140.39,2026-04-02T17:36:48.143192
2026/04/03 03:35:00,COLWF01,8.87,Collector Wind Farm Pty Ltd,Collector Wind Farm 1,Wind,219.0,4.05,Collector Wind Farm 1,-34.8719,149.3967,2026-04-02T17:36:48.143192
2026/04/03 03:35:00,COOPGWF1,96.42,PARF Company 10 Pty Limited as The Trustee for Coopers Gap Project Trust,Coopers Gap Wind Farm,Wind,440.0,21.91,Coopers Gap Wind Farm,-26.74,151.45,2026-04-02T17:36:48.143192
2026/04/03 03:35:00,CROOKWF2,0.58,Crookwell Development Pty Ltd ,Crookwell 2 Wind Farm,Wind,91.0,0.64,Crookwell 2 Wind Farm,-34.52,149.54,2026-04-02T17:36:48.143192
2026/04/03 03:35:00,CROOKWF3,1.82,Crookwell 3 Development Pty Ltd,Crookwell 3 Wind Farm,Wind,56.0,3.25,Crookwell 3 Wind Farm,-34.52,149.54,2026-04-02T17:36:48.143192
2026/04/03 03:35:00,CROWLWF1,30.52,Pacific Hydro Crowlands Pty Ltd ,Crowlands Wind Farm,Wind,79.0,38.63,Crowlands Wind Farm,-37.13,143.16,2026-04-02T17:36:48.143192
2026/04/03 03:35:00,CRURWF1,0.4,CRWF Nominees Pty Ltd As Trustee For The CRWF Trust,Crudine Ridge Wind Farm,Wind,138.0,0.29,Crudine Ridge Wind Farm,-32.97,149.64,2026-04-02T17:36:48.143192
2026/04/03 03:35:00,CTHLWF1,134.01,Wild Cattle Hill Pty Ltd,Cattle Hill Wind Farm,Wind,144.0,93.06,Cattle Hill Wind Farm,-42.15,146.69,2026-04-02T17:36:48.143192
2026/04/03 03:35:00,DULAWF1,79.0,Dulacca Energy Project Co Pty Ltd,Dulacca Wind Farm,Wind,173.0,45.66,Dulacca Wind Farm,-26.63,149.87,2026-04-02T17:36:48.143192
2026/04/03 03:35:00,DUNDWF1,48.95,Dundonnell Wind Farm Pty Ltd,Dundonnell Wind Farm,Wind,168.0,29.14,Dundonnell Wind Farm,-37.52,142.58,2026-04-02T17:36:48.143192
2026/04/03 03:35:00,DUNDWF2,20.02,Dundonnell Wind Farm Pty Ltd,Dundonnell Wind Farm,Wind,46.0,43.52,Dundonnell Wind Farm,-37.52,142.58,2026-04-02T17:36:48.143192
2026/04/03 03:35:00,DUNDWF3,38.29,Dundonnell Wind Farm Pty Ltd,Dundonnell Wind Farm,Wind,122.0,31.39,Dundonnell Wind Farm,-37.52,142.58,2026-04-02T17:36:48.143192
2026/04/03 03:35:00,ELAINWF1,7.27,Lal Lal Wind Farms Nom Co Pty Ltd,Elaine Wind Farm,Wind,82.0,8.87,Elaine Wind Farm,-37.36,144.0,2026-04-02T17:36:48.143192
2026/04/03 03:35:00,FLYCRKWF,6.47,Iberdrola Australia Energy Markets Pty Limited,Flyers Creek Wind Farm,Wind,140.0,4.62,Flyers Creek Wind Farm,-33.365556,148.981944,2026-04-02T17:36:48.143192
2026/04/03 03:35:00,GPWFEST1,63.81,Golden Plains WF1 Pty Ltd as Trustee for the Golden Plains WF1 Unit Trust,Golden Plains Wind Farm East,Wind,240.0,26.59,Golden Plains Wind Farm East,-37.945091,143.752614,2026-04-02T17:36:48.143192
2026/04/03 03:35:00,GPWFEST2,34.45,Golden Plains WF1 Pty Ltd as Trustee for the Golden Plains WF1 Unit Trust,Golden Plains Wind Farm East,Wind,253.0,13.62,Golden Plains Wind Farm East,-37.945091,143.752614,2026-04-02T17:36:48.143192
2026/04/03 03:35:00,GPWFEST3,39.49,Golden Plains WF1 Pty Ltd as Trustee for the Golden Plains WF1 Unit Trust,Golden Plains Wind Farm East,Wind,240.0,16.45,Golden Plains Wind Farm East,-37.945091,143.752614,2026-04-02T17:36:48.143192
2026/04/03 03:35:00,GRANWF1,93.39,Granville Harbour Operations Pty Ltd as The Trustee for Granville Harbour Operations Trust,Granville Harbour Wind Farm,Wind,111.0,84.14,Granville Harbour Wind Farm,-41.8,145.06,2026-04-02T17:36:48.143192
2026/04/03 03:35:00,GSWF1A,144.61,Goyder Wind Farm 1 Pty Ltd as the Trustee for Goyder Wind Farm 1 Trust,Goyder South Wind Farm 1A,Wind,201.0,71.95,Goyder South Wind Farm 1A,-33.679758,138.937597,2026-04-02T17:36:48.143192
2026/04/03 03:35:00,GSWF1B1,79.73,Goyder Wind Farm 1B Pty Ltd as the Trustee for the Goyder Wind Farm 1B Trust,Goyder South Wind Farm 1B,Wind,196.0,40.68,Goyder South Wind Farm 1B,-33.679758,138.937597,2026-04-02T17:36:48.143192
2026/04/03 03:35:00,GULLRWF1,10.01,New Gullen Range Wind Farm Pty Ltd,Gullen Range Wind Farm,Wind,161.0,6.22,Gullen Range Wind Farm,-34.34,149.27,2026-04-02T17:36:48.143192
2026/04/03 03:35:00,GULLRWF2,1.22,New Gullen Range Wind Farm Pty Ltd,Gullen Range Wind Farm,Wind,107.0,1.14,Gullen Range Wind Farm,-34.34,149.27,2026-04-02T17:36:48.143192
2026/04/03 03:35:00,GUNNING1,2.94,Gunning Wind Energy Developments Pty Ltd,Gunning Wind Farm,Wind,47.0,6.26,Gunning Wind Farm,-34.813333,149.4,2026-04-02T17:36:48.143192
2026/04/03 03:35:00,HALLWF1,33.73,AGL SA Generation Pty Limited,Hallett 1 Wind Farm,Wind,95.0,35.51,Hallett 1 Wind Farm,-33.367778,138.728611,2026-04-02T17:36:48.143192
2026/04/03 03:35:00,HALLWF2,36.17,AGL SA Generation Pty Limited,Hallett 2 Wind Farm,Wind,71.0,50.94,Hallett 2 Wind Farm,-33.367778,138.728611,2026-04-02T17:36:48.143192
2026/04/03 03:35:00,HD1WF1,25.98,Hawkesdale Asset Pty Ltd as trustee for Hawkesdale Asset Trust,Hawkesdale Wind Farm,Wind,89.0,29.19,Hawkesdale Wind Farm,-38.147894,142.361381,2026-04-02T17:36:48.143192
2026/04/03 03:35:00,HDWF1,89.1,HWF1 Pty Ltd,Hornsdale Wind Farm,Wind,102.0,87.35,Hornsdale Wind Farm,-33.050556,138.543611,2026-04-02T17:36:48.143192
2026/04/03 03:35:00,HDWF2,88.0,HWF 2 Pty Ltd,Hornsdale Wind Farm 2,Wind,102.0,86.27,Hornsdale Wind Farm 2,-33.06,138.54,2026-04-02T17:36:48.143192
2026/04/03 03:35:00,HDWF3,84.4,HWF3 Pty Ltd,Hornsdale Wind Farm 3,Wind,109.0,77.43,Hornsdale Wind Farm 3,-33.06,138.54,2026-04-02T17:36:48.143192
2026/04/03 03:35:00,KABANWF1,93.32,Kaban Wind Farm Pty Ltd as trustee for Kaban Wind Farm Trust,Kaban Wind Farm,Wind,152.0,61.39,Kaban Wind Farm,-17.56,145.41,2026-04-02T17:36:48.143192
2026/04/03 03:35:00,KEPWF1,27.2,Kennedy Energy Park Pty Ltd,Kennedy Energy Park,Wind,43.0,63.26,Kennedy Energy Park,-20.88,144.42,2026-04-02T17:36:48.143192
2026/04/03 03:35:00,KIATAWF1,30.4,Kiata ProjectCo Pty Ltd Atf Kiata Project Trust,Kiata Wind Farm,Wind,31.0,98.06,Kiata Wind Farm,-36.4,141.75,2026-04-02T17:36:48.143192
2026/04/03 03:35:00,LGAPWF1,29.55,Lincoln Gap Wind Farm (Operations) Pty Ltd,Lincoln Gap Wind Farm,Wind,123.0,24.02,Lincoln Gap Wind Farm,-32.564279,137.557328,2026-04-02T17:36:48.143192
2026/04/03 03:35:00,LGAPWF1,29.55,Lincoln Gap Wind Farm (Operations) Pty Ltd,Lincoln Gap Wind Farm,Wind,123.0,24.02,Lincoln Gap Wind Farm,-32.564279,137.557328,2026-04-02T17:36:48.143192
2026/04/03 03:35:00,LGAPWF2,37.05,Lincoln Gap Wind Farm (Operations) Pty Ltd,Lincoln Gap Wind Farm,Wind,85.0,43.59,Lincoln Gap Wind Farm,-32.564279,137.557328,2026-04-02T17:36:48.143192
2026/04/03 03:35:00,LGAPWF2,37.05,Lincoln Gap Wind Farm (Operations) Pty Ltd,Lincoln Gap Wind Farm,Wind,85.0,43.59,Lincoln Gap Wind Farm,-32.564279,137.557328,2026-04-02T17:36:48.143192
2026/04/03 03:35:00,LKBONNY1,7.86,Lake Bonney Wind Power Pty Ltd,Lake Bonney Wind Farm Stage 1,Wind,81.0,9.7,Lake Bonney Wind Farm Stage 1,-37.76,140.4,2026-04-02T17:36:48.143192
2026/04/03 03:35:00,LKBONNY2,12.6,Lake Bonney Wind Power Pty Ltd,Lake Bonney Stage 2 Windfarm,Wind,159.0,7.92,Lake Bonney Stage 2 Windfarm,-37.76,140.4,2026-04-02T17:36:48.143192
2026/04/03 03:35:00,LKBONNY3,3.29,Lake Bonney Wind Power Pty Ltd,Lake Bonney Stage 3 Wind Farm,Wind,39.0,8.44,Lake Bonney Stage 3 Wind Farm,-37.737781,140.388137,2026-04-02T17:36:48.143192
2026/04/03 03:35:00,MACARTH1,45.5,AGL Hydro Partnership,Macarthur Wind Farm,Wind,420.0,10.83,Macarthur Wind Farm,-38.048957,142.192112,2026-04-02T17:36:48.143192
2026/04/03 03:35:00,MCINTYR1,315.05,MacIntyre UJV Operator Pty Ltd,MacIntyre Wind Farm,Wind,890.0,35.4,MacIntyre Wind Farm,-28.32,151.54,2026-04-02T17:36:48.143192
2026/04/03 03:35:00,MERCER01,11.0,Mt Mercer Windfarm Pty Ltd,Mt Mercer Wind Farm,Wind,131.0,8.4,Mt Mercer Wind Farm,-37.841111,143.871111,2026-04-02T17:36:48.143192
2026/04/03 03:35:00,MEWF1,84.19,Ergon Energy Queensland Pty Ltd ,Mount Emerald Wind Farm,Wind,178.0,47.3,Mount Emerald Wind Farm,-17.133007,145.380644,2026-04-02T17:36:48.143192
2026/04/03 03:35:00,MRTLSWF1,49.06,Mortlake South Wind Farm Pty Ltd,Mortlake South Wind Farm,Wind,153.0,32.07,Mortlake South Wind Farm,-38.127337,142.857801,2026-04-02T17:36:48.143192
2026/04/03 03:35:00,MTGELWF1,17.91,Mt. Gellibrand Wind Farm Pty Ltd,Mt Gellibrand Wind Farm,Wind,132.0,13.57,Mt Gellibrand Wind Farm,-38.23,143.77,2026-04-02T17:36:48.143192
2026/04/03 03:35:00,MTMILLAR,21.6,Mt Millar Wind Farm Pty Ltd,Mt Millar Wind Farm,Wind,70.0,30.86,Mt Millar Wind Farm,-33.624444,136.703611,2026-04-02T17:36:48.143192
2026/04/03 03:35:00,MUSSELR1,152.4,Hydro-Electric Corporation,Musselroe Wind Farm,Wind,168.0,90.71,Musselroe Wind Farm,-40.780225,148.010799,2026-04-02T17:36:48.143192
2026/04/03 03:35:00,MUWAWF1,137.95,Telstra Energy (Generation) Pty Ltd,Murra Warra Wind Farm,Wind,225.7,61.12,Murra Warra Wind Farm,-36.432404,142.317853,2026-04-02T17:36:48.143192
2026/04/03 03:35:00,MUWAWF2,152.6,Murra Warra II Project Co Pty Ltd ATF The Murra Warra II Project Trust,Murra Warra Wind Farm Stage 2,Wind,203.0,75.17,Murra Warra Wind Farm Stage 2,-36.43,142.32,2026-04-02T17:36:48.143192
2026/04/03 03:35:00,NBHWF1,94.4,AGL SA Generation Pty Limited,North Brown Hill Wind Farm,Wind,132.0,71.52,North Brown Hill Wind Farm,-33.367778,138.728611,2026-04-02T17:36:48.143192
2026/04/03 03:35:00,OAKLAND1,16.0,AGL Hydro Partnership,Oaklands Hill Wind Farm,Wind,63.0,25.4,Oaklands Hill Wind Farm,-37.683078,142.551678,2026-04-02T17:36:48.143192
2026/04/03 03:35:00,PAREPW1,73.84,Iberdrola Australia Energy Markets Pty Limited,Port Augusta Renewable Energy Park,Wind,201.0,36.74,Port Augusta Renewable Energy Park,-32.566944,137.856111,2026-04-02T17:36:48.143192
2026/04/03 03:35:00,RYANCWF1,48.13,Ryan Corner Development Pty Ltd,Ryan Corner Wind Farm,Wind,205.0,23.48,Ryan Corner Wind Farm,-38.271017,142.140647,2026-04-02T17:36:48.143192
2026/04/03 03:35:00,RYEPARK1,55.21,Rye Park Renewable Energy Pty Ltd as trustee for Rye Park Wind Farm Trust,Rye Park Renewable Energy,Wind,384.0,14.38,Rye Park Renewable Energy,-32.138333,148.972778,2026-04-02T17:36:48.143192
2026/04/03 03:35:00,SALTCRK1,10.99,Salt Creek Wind Farm Pty Ltd,Salt Creek Wind Farm,Wind,54.0,20.35,Salt Creek Wind Farm,-37.95,142.63,2026-04-02T17:36:48.143192
2026/04/03 03:35:00,SAPHWF1,34.79,The Trustee For The SWF1 Operations Trust,Sapphire Wind Farm,Wind,270.0,12.89,Sapphire Wind Farm,-29.7,151.41,2026-04-02T17:36:48.143192
2026/04/03 03:35:00,SNOWNTH1,54.0,Snowtown Wind Farm Stage 2 Pty Ltd,Snowtown Wind Farm Stage 2 North,Wind,144.0,37.5,Snowtown Wind Farm Stage 2 North,-33.83,138.118611,2026-04-02T17:36:48.143192
2026/04/03 03:35:00,SNOWSTH1,91.4,Snowtown Wind Farm Stage 2 Pty Ltd,Snowtown South Wind Farm,Wind,126.0,72.54,Snowtown South Wind Farm,-33.83,138.118611,2026-04-02T17:36:48.143192
2026/04/03 03:35:00,SNOWTWN1,75.53,Snowtown Wind Farm Pty Ltd,Snowtown Wind Farm Units 1 And 47,Wind,99.0,76.29,Snowtown Wind Farm Units 1 And 47,-33.83,138.118611,2026-04-02T17:36:48.143192
2026/04/03 03:35:00,STARHLWF,10.3,Starfish Hill Wind Farm Pty Ltd,Starfish Hill Wind Farm,Wind,35.0,29.43,Starfish Hill Wind Farm,-35.58,138.14,2026-04-02T17:36:48.143192
2026/04/03 03:35:00,STOCKYD1,178.57,Stockyard Hill Wind Farm Pty Ltd,Stockyard Hill Wind Farm,Wind,511.0,34.95,Stockyard Hill Wind Farm,-37.535833,143.251389,2026-04-02T17:36:48.143192
2026/04/03 03:35:00,STWF1,144.96,PARF Company 8 Pty Ltd as The Trustee for Silverton Project Trust,Silverton Wind Farm,Wind,198.0,73.21,Silverton Wind Farm,-37.683168,142.551678,2026-04-02T17:36:48.143192
2026/04/03 03:35:00,TARALGA1,0.68,Taralga Wind Farm Nominees No 2 Pty Ltd (ATF Taralga Wind Farm Operating Trust),Taralga Wind Farm,Wind,106.0,0.64,Taralga Wind Farm,-34.42352,149.826267,2026-04-02T17:36:48.143192
2026/04/03 03:35:00,WAMBOWF1,66.32,Stanwell Corporation Limited,Wambo Wind Farm 1,Wind,245.0,27.07,Wambo Wind Farm 1,-35.187301,149.524945,2026-04-02T17:36:48.143192
2026/04/03 03:35:00,WATERLWF,49.5,Waterloo Wind Farm Pty Ltd,Waterloo Wind Farm,Wind,130.0,38.08,Waterloo Wind Farm,-34.00094,138.911567,2026-04-02T17:36:48.143192
2026/04/03 03:35:00,WGWF1,102.6,Willogoleche Power Pty Ltd As The Trustee For The Willogoleche Operating Trust,Willogoleche Wind Farm,Wind,119.0,86.22,Willogoleche Wind Farm,-33.39,138.85,2026-04-02T17:36:48.143192
2026/04/03 03:35:00,WOODLWN1,0.0,Woodlawn Wind Pty Ltd,Woodlawn Wind Farm,Wind,48.0,0.0,Woodlawn Wind Farm,-35.08,149.62,2026-04-02T17:36:48.143192
2026/04/03 03:35:00,WPWF,30.91,AGL SA Generation Pty Limited,Wattle Point Wind Farm,Wind,91.0,33.97,Wattle Point Wind Farm,-35.111624,137.7219,2026-04-02T17:36:48.143192
2026/04/03 03:35:00,WRWF1,8.14,White Rock Wind Farm Pty Ltd,White Rock Wind Farm,Wind,172.0,4.73,White Rock Wind Farm,-29.79,151.54,2026-04-02T17:36:48.143192
2026/04/03 03:35:00,YENDWF1,24.35,Lal Lal Wind Farms Nom Co Pty Ltd,Yendon Wind Farm,Wind,142.0,17.15,Yendon Wind Farm,-37.629987,144.022717,2026-04-02T17:36:48.143192
