SETTLEMENTDATE,DUID,SCADAVALUE,Participant,Station Name,Fuel Source - Primary,MAX_CAP,utilisation_pct,Plant,Latitude,Longitude,timestamp_utc
2026/03/26 21:15:00,CAPTL_WF,87.88,Iberdrola Australia Holdings Pty Limited,Capital Wind Farm,Wind,140.0,62.77,Capital Wind Farm,-35.1,149.31,2026-03-26T11:15:58.275821
2026/03/26 21:15:00,CHALLHWF,38.7,Pacific Hydro Challicum Hills Pty Ltd,Challicum Hills Wind Farm,Wind,52.0,74.42,Challicum Hills Wind Farm,-37.38,143.11,2026-03-26T11:15:58.275821
2026/03/26 21:15:00,CULLRGWF,26.04,Cullerin Range Wind Farm Pty Ltd,Cullerin Range Wind Farm,Wind,30.0,86.8,Cullerin Range Wind Farm,-34.81,149.4,2026-03-26T11:15:58.275821
2026/03/26 21:15:00,DIAPURWF1,8.3,Y.E.S. Energy (SA) Pty Ltd,Diapur Wind Farm,Wind,7.0,118.57,Diapur Wind Farm,-36.3425,141.43,2026-03-26T11:15:58.275821
2026/03/26 21:15:00,MLWF1,18.64,Mortons Lane Windfarm Pty Limited,Mortons Lane Wind Farm,Wind,20.0,93.2,Mortons Lane Wind Farm,-37.84,142.45,2026-03-26T11:15:58.275821
2026/03/26 21:15:00,WAUBRAWF,172.92,Pyrenees Wind Energy Developments Pty Ltd,Waubra Wind Farm,Wind,192.0,90.06,Waubra Wind Farm,-37.394498,143.638982,2026-03-26T11:15:58.275821
2026/03/26 21:15:00,WOOLNTH1,111.5,Hydro-Electric Corporation,Woolnorth Studland Bay / Bluff Point Wind Farm,Wind,140.0,79.64,Woolnorth Studland Bay / Bluff Point Wind Farm,-40.69,144.72,2026-03-26T11:15:58.275821
2026/03/26 21:15:00,YAMBUKWF,30.0,Energy Pacific (Vic) Pty Ltd,Yambuk Wind Farm,Wind,30.0,100.0,Yambuk Wind Farm,-38.299083,142.027577,2026-03-26T11:15:58.275821
2026/03/26 21:15:00,YSWF1,13.7,Pacific Hydro Yaloak South Pty Ltd,Yaloak South Wind Farm,Wind,28.0,48.93,Yaloak South Wind Farm,-37.7163,144.242853,2026-03-26T11:15:58.275821
2026/03/26 21:15:00,ARWF1,151.7,Ararat Wind Farm Pty Ltd,Ararat Wind Farm,Wind,241.0,62.95,Ararat Wind Farm,-37.232778,143.031389,2026-03-26T11:15:58.275821
2026/03/26 21:15:00,BALDHWF1,96.08,Alinta Energy Retail Sales Pty Ltd,Bald Hills Wind Farm,Wind,106.0,90.64,Bald Hills Wind Farm,-38.79,145.93,2026-03-26T11:15:58.275821
2026/03/26 21:15:00,BANGOWF1,122.0,BWF Nominees Pty Ltd as The Trustee for BWF Trust,Bango 973 Wind Farm,Wind,155.0,78.71,Bango 973 Wind Farm,-34.551582,148.732808,2026-03-26T11:15:58.275821
2026/03/26 21:15:00,BANGOWF2,66.1,BWF Nominees Pty Ltd as The Trustee for BWF Trust,Bango 999 Wind Farm,Wind,82.0,80.61,Bango 999 Wind Farm,-34.551582,148.732808,2026-03-26T11:15:58.275821
2026/03/26 21:15:00,BLUFF1,32.2,AGL SA Generation Pty Limited,The Bluff Wind Farm,Wind,53.0,60.75,The Bluff Wind Farm,-33.367778,138.728611,2026-03-26T11:15:58.275821
2026/03/26 21:15:00,BOCORWF1,24.8,Boco Rock Wind Farm Pty Ltd,Boco Rock Wind Farm,Wind,111.0,22.34,Boco Rock Wind Farm,-36.578611,149.103333,2026-03-26T11:15:58.275821
2026/03/26 21:15:00,BRYB1WF1,112.68,Berrybank Development Pty Ltd,Berrybank Wind Farm,Wind,175.9,64.06,Berrybank Wind Farm,-37.94,143.52,2026-03-26T11:15:58.275821
2026/03/26 21:15:00,BRYB2WF2,83.11,Berrybank 2 Asset Pty Ltd as trustee for Berrybank 2 Asset Trust,Berrybank 2 Wind Farm,Wind,105.0,79.15,Berrybank 2 Wind Farm,-37.94,143.52,2026-03-26T11:15:58.275821
2026/03/26 21:15:00,BULGANA1,103.6,Bulgana Wind Farm Pty Ltd,Bulgana Green Power Hub,Wind,204.0,50.78,Bulgana Green Power Hub,-37.0975,142.973611,2026-03-26T11:15:58.275821
2026/03/26 21:15:00,CATHROCK,30.3,Cathedral Rocks Wind Farm Pty Ltd,Cathedral Rocks,Wind,66.0,45.91,Cathedral Rocks,-34.51,135.35,2026-03-26T11:15:58.275821
2026/03/26 21:15:00,CHYTWF1,45.13,Cherry Tree Wind Farm Pty Ltd as trustee for The Cherry Tree Project trust ,Cherry Tree Wind Farm,Wind,57.0,79.18,Cherry Tree Wind Farm,-37.1,145.26,2026-03-26T11:15:58.275821
2026/03/26 21:15:00,CLEMGPWF,33.57,Pacific Hydro Clements Gap Pty Ltd,Clements Gap Wind Farm,Wind,57.0,58.89,Clements Gap Wind Farm,-33.48,138.1,2026-03-26T11:15:58.275821
2026/03/26 21:15:00,CLRKCWF1,270.34,Stanwell Corporation Limited ,Clarke Creek Wind Farm,Wind,338.0,79.98,Clarke Creek Wind Farm,-22.85,149.45,2026-03-26T11:15:58.275821
2026/03/26 21:15:00,CLRKCWF2,64.64,Stanwell Corporation Limited ,Clarke Creek Wind Farm,Wind,101.0,64.0,Clarke Creek Wind Farm,-22.85,149.45,2026-03-26T11:15:58.275821
2026/03/26 21:15:00,CNUNDAWF,0.0,Canunda Power Pty Ltd,Canunda Wind Farm,Wind,46.0,0.0,Canunda Wind Farm,-37.73,140.39,2026-03-26T11:15:58.275821
2026/03/26 21:15:00,COLWF01,89.31,Collector Wind Farm Pty Ltd,Collector Wind Farm 1,Wind,219.0,40.78,Collector Wind Farm 1,-34.8719,149.3967,2026-03-26T11:15:58.275821
2026/03/26 21:15:00,COOPGWF1,108.2,PARF Company 10 Pty Limited as The Trustee for Coopers Gap Project Trust,Coopers Gap Wind Farm,Wind,440.0,24.59,Coopers Gap Wind Farm,-26.74,151.45,2026-03-26T11:15:58.275821
2026/03/26 21:15:00,CROOKWF2,57.53,Crookwell Development Pty Ltd ,Crookwell 2 Wind Farm,Wind,91.0,63.22,Crookwell 2 Wind Farm,-34.52,149.54,2026-03-26T11:15:58.275821
2026/03/26 21:15:00,CROOKWF3,47.32,Crookwell 3 Development Pty Ltd,Crookwell 3 Wind Farm,Wind,56.0,84.5,Crookwell 3 Wind Farm,-34.52,149.54,2026-03-26T11:15:58.275821
2026/03/26 21:15:00,CROWLWF1,50.33,Pacific Hydro Crowlands Pty Ltd ,Crowlands Wind Farm,Wind,79.0,63.71,Crowlands Wind Farm,-37.13,143.16,2026-03-26T11:15:58.275821
2026/03/26 21:15:00,CRURWF1,135.1,CRWF Nominees Pty Ltd As Trustee For The CRWF Trust,Crudine Ridge Wind Farm,Wind,138.0,97.9,Crudine Ridge Wind Farm,-32.97,149.64,2026-03-26T11:15:58.275821
2026/03/26 21:15:00,CTHLWF1,35.86,Wild Cattle Hill Pty Ltd,Cattle Hill Wind Farm,Wind,144.0,24.9,Cattle Hill Wind Farm,-42.15,146.69,2026-03-26T11:15:58.275821
2026/03/26 21:15:00,DULAWF1,106.4,Dulacca Energy Project Co Pty Ltd,Dulacca Wind Farm,Wind,173.0,61.5,Dulacca Wind Farm,-26.63,149.87,2026-03-26T11:15:58.275821
2026/03/26 21:15:00,DUNDWF1,83.61,Dundonnell Wind Farm Pty Ltd,Dundonnell Wind Farm,Wind,168.0,49.77,Dundonnell Wind Farm,-37.52,142.58,2026-03-26T11:15:58.275821
2026/03/26 21:15:00,DUNDWF2,23.01,Dundonnell Wind Farm Pty Ltd,Dundonnell Wind Farm,Wind,46.0,50.02,Dundonnell Wind Farm,-37.52,142.58,2026-03-26T11:15:58.275821
2026/03/26 21:15:00,DUNDWF3,60.67,Dundonnell Wind Farm Pty Ltd,Dundonnell Wind Farm,Wind,122.0,49.73,Dundonnell Wind Farm,-37.52,142.58,2026-03-26T11:15:58.275821
2026/03/26 21:15:00,ELAINWF1,35.96,Lal Lal Wind Farms Nom Co Pty Ltd,Elaine Wind Farm,Wind,82.0,43.85,Elaine Wind Farm,-37.36,144.0,2026-03-26T11:15:58.275821
2026/03/26 21:15:00,FLYCRKWF,110.59,Iberdrola Australia Energy Markets Pty Limited,Flyers Creek Wind Farm,Wind,140.0,78.99,Flyers Creek Wind Farm,-33.365556,148.981944,2026-03-26T11:15:58.275821
2026/03/26 21:15:00,GPWFEST1,0.0,Golden Plains WF1 Pty Ltd as Trustee for the Golden Plains WF1 Unit Trust,Golden Plains Wind Farm East,Wind,240.0,0.0,Golden Plains Wind Farm East,-37.945091,143.752614,2026-03-26T11:15:58.275821
2026/03/26 21:15:00,GPWFEST2,0.0,Golden Plains WF1 Pty Ltd as Trustee for the Golden Plains WF1 Unit Trust,Golden Plains Wind Farm East,Wind,253.0,0.0,Golden Plains Wind Farm East,-37.945091,143.752614,2026-03-26T11:15:58.275821
2026/03/26 21:15:00,GPWFEST3,159.2,Golden Plains WF1 Pty Ltd as Trustee for the Golden Plains WF1 Unit Trust,Golden Plains Wind Farm East,Wind,240.0,66.33,Golden Plains Wind Farm East,-37.945091,143.752614,2026-03-26T11:15:58.275821
2026/03/26 21:15:00,GRANWF1,83.23,Granville Harbour Operations Pty Ltd as The Trustee for Granville Harbour Operations Trust,Granville Harbour Wind Farm,Wind,111.0,74.98,Granville Harbour Wind Farm,-41.8,145.06,2026-03-26T11:15:58.275821
2026/03/26 21:15:00,GSWF1A,139.98,Goyder Wind Farm 1 Pty Ltd as the Trustee for Goyder Wind Farm 1 Trust,Goyder South Wind Farm 1A,Wind,201.0,69.64,Goyder South Wind Farm 1A,-33.679758,138.937597,2026-03-26T11:15:58.275821
2026/03/26 21:15:00,GSWF1B1,135.91,Goyder Wind Farm 1B Pty Ltd as the Trustee for the Goyder Wind Farm 1B Trust,Goyder South Wind Farm 1B,Wind,196.0,69.34,Goyder South Wind Farm 1B,-33.679758,138.937597,2026-03-26T11:15:58.275821
2026/03/26 21:15:00,GULLRWF1,97.93,New Gullen Range Wind Farm Pty Ltd,Gullen Range Wind Farm,Wind,161.0,60.83,Gullen Range Wind Farm,-34.34,149.27,2026-03-26T11:15:58.275821
2026/03/26 21:15:00,GULLRWF2,68.61,New Gullen Range Wind Farm Pty Ltd,Gullen Range Wind Farm,Wind,107.0,64.12,Gullen Range Wind Farm,-34.34,149.27,2026-03-26T11:15:58.275821
2026/03/26 21:15:00,GUNNING1,26.3,Gunning Wind Energy Developments Pty Ltd,Gunning Wind Farm,Wind,47.0,55.96,Gunning Wind Farm,-34.813333,149.4,2026-03-26T11:15:58.275821
2026/03/26 21:15:00,HALLWF1,75.21,AGL SA Generation Pty Limited,Hallett 1 Wind Farm,Wind,95.0,79.17,Hallett 1 Wind Farm,-33.367778,138.728611,2026-03-26T11:15:58.275821
2026/03/26 21:15:00,HALLWF2,30.52,AGL SA Generation Pty Limited,Hallett 2 Wind Farm,Wind,71.0,42.99,Hallett 2 Wind Farm,-33.367778,138.728611,2026-03-26T11:15:58.275821
2026/03/26 21:15:00,HD1WF1,0.0,Hawkesdale Asset Pty Ltd as trustee for Hawkesdale Asset Trust,Hawkesdale Wind Farm,Wind,89.0,0.0,Hawkesdale Wind Farm,-38.147894,142.361381,2026-03-26T11:15:58.275821
2026/03/26 21:15:00,HDWF1,62.4,HWF1 Pty Ltd,Hornsdale Wind Farm,Wind,102.0,61.18,Hornsdale Wind Farm,-33.050556,138.543611,2026-03-26T11:15:58.275821
2026/03/26 21:15:00,HDWF2,77.0,HWF 2 Pty Ltd,Hornsdale Wind Farm 2,Wind,102.0,75.49,Hornsdale Wind Farm 2,-33.06,138.54,2026-03-26T11:15:58.275821
2026/03/26 21:15:00,HDWF3,75.8,HWF3 Pty Ltd,Hornsdale Wind Farm 3,Wind,109.0,69.54,Hornsdale Wind Farm 3,-33.06,138.54,2026-03-26T11:15:58.275821
2026/03/26 21:15:00,KABANWF1,96.63,Kaban Wind Farm Pty Ltd as trustee for Kaban Wind Farm Trust,Kaban Wind Farm,Wind,152.0,63.57,Kaban Wind Farm,-17.56,145.41,2026-03-26T11:15:58.275821
2026/03/26 21:15:00,KEPWF1,3.9,Kennedy Energy Park Pty Ltd,Kennedy Energy Park,Wind,43.0,9.07,Kennedy Energy Park,-20.88,144.42,2026-03-26T11:15:58.275821
2026/03/26 21:15:00,KIATAWF1,0.0,Kiata ProjectCo Pty Ltd Atf Kiata Project Trust,Kiata Wind Farm,Wind,31.0,0.0,Kiata Wind Farm,-36.4,141.75,2026-03-26T11:15:58.275821
2026/03/26 21:15:00,LGAPWF1,10.34,Lincoln Gap Wind Farm (Operations) Pty Ltd,Lincoln Gap Wind Farm,Wind,123.0,8.41,Lincoln Gap Wind Farm,-32.564279,137.557328,2026-03-26T11:15:58.275821
2026/03/26 21:15:00,LGAPWF1,10.34,Lincoln Gap Wind Farm (Operations) Pty Ltd,Lincoln Gap Wind Farm,Wind,123.0,8.41,Lincoln Gap Wind Farm,-32.564279,137.557328,2026-03-26T11:15:58.275821
2026/03/26 21:15:00,LGAPWF2,15.05,Lincoln Gap Wind Farm (Operations) Pty Ltd,Lincoln Gap Wind Farm,Wind,85.0,17.71,Lincoln Gap Wind Farm,-32.564279,137.557328,2026-03-26T11:15:58.275821
2026/03/26 21:15:00,LGAPWF2,15.05,Lincoln Gap Wind Farm (Operations) Pty Ltd,Lincoln Gap Wind Farm,Wind,85.0,17.71,Lincoln Gap Wind Farm,-32.564279,137.557328,2026-03-26T11:15:58.275821
2026/03/26 21:15:00,LKBONNY1,36.08,Lake Bonney Wind Power Pty Ltd,Lake Bonney Wind Farm Stage 1,Wind,81.0,44.54,Lake Bonney Wind Farm Stage 1,-37.76,140.4,2026-03-26T11:15:58.275821
2026/03/26 21:15:00,LKBONNY2,79.04,Lake Bonney Wind Power Pty Ltd,Lake Bonney Stage 2 Windfarm,Wind,159.0,49.71,Lake Bonney Stage 2 Windfarm,-37.76,140.4,2026-03-26T11:15:58.275821
2026/03/26 21:15:00,LKBONNY3,19.59,Lake Bonney Wind Power Pty Ltd,Lake Bonney Stage 3 Wind Farm,Wind,39.0,50.23,Lake Bonney Stage 3 Wind Farm,-37.737781,140.388137,2026-03-26T11:15:58.275821
2026/03/26 21:15:00,MACARTH1,216.4,AGL Hydro Partnership,Macarthur Wind Farm,Wind,420.0,51.52,Macarthur Wind Farm,-38.048957,142.192112,2026-03-26T11:15:58.275821
2026/03/26 21:15:00,MCINTYR1,106.75,MacIntyre UJV Operator Pty Ltd,MacIntyre Wind Farm,Wind,890.0,11.99,MacIntyre Wind Farm,-28.32,151.54,2026-03-26T11:15:58.275821
2026/03/26 21:15:00,MERCER01,33.0,Mt Mercer Windfarm Pty Ltd,Mt Mercer Wind Farm,Wind,131.0,25.19,Mt Mercer Wind Farm,-37.841111,143.871111,2026-03-26T11:15:58.275821
2026/03/26 21:15:00,MEWF1,86.86,Ergon Energy Queensland Pty Ltd ,Mount Emerald Wind Farm,Wind,178.0,48.8,Mount Emerald Wind Farm,-17.133007,145.380644,2026-03-26T11:15:58.275821
2026/03/26 21:15:00,MRTLSWF1,142.94,Mortlake South Wind Farm Pty Ltd,Mortlake South Wind Farm,Wind,153.0,93.42,Mortlake South Wind Farm,-38.127337,142.857801,2026-03-26T11:15:58.275821
2026/03/26 21:15:00,MTGELWF1,50.56,Mt. Gellibrand Wind Farm Pty Ltd,Mt Gellibrand Wind Farm,Wind,132.0,38.3,Mt Gellibrand Wind Farm,-38.23,143.77,2026-03-26T11:15:58.275821
2026/03/26 21:15:00,MTMILLAR,55.6,Mt Millar Wind Farm Pty Ltd,Mt Millar Wind Farm,Wind,70.0,79.43,Mt Millar Wind Farm,-33.624444,136.703611,2026-03-26T11:15:58.275821
2026/03/26 21:15:00,MUSSELR1,76.0,Hydro-Electric Corporation,Musselroe Wind Farm,Wind,168.0,45.24,Musselroe Wind Farm,-40.780225,148.010799,2026-03-26T11:15:58.275821
2026/03/26 21:15:00,MUWAWF1,142.32,Telstra Energy (Generation) Pty Ltd,Murra Warra Wind Farm,Wind,225.7,63.06,Murra Warra Wind Farm,-36.432404,142.317853,2026-03-26T11:15:58.275821
2026/03/26 21:15:00,MUWAWF2,128.9,Murra Warra II Project Co Pty Ltd ATF The Murra Warra II Project Trust,Murra Warra Wind Farm Stage 2,Wind,203.0,63.5,Murra Warra Wind Farm Stage 2,-36.43,142.32,2026-03-26T11:15:58.275821
2026/03/26 21:15:00,NBHWF1,115.1,AGL SA Generation Pty Limited,North Brown Hill Wind Farm,Wind,132.0,87.2,North Brown Hill Wind Farm,-33.367778,138.728611,2026-03-26T11:15:58.275821
2026/03/26 21:15:00,OAKLAND1,56.8,AGL Hydro Partnership,Oaklands Hill Wind Farm,Wind,63.0,90.16,Oaklands Hill Wind Farm,-37.683078,142.551678,2026-03-26T11:15:58.275821
2026/03/26 21:15:00,PAREPW1,203.51,Iberdrola Australia Energy Markets Pty Limited,Port Augusta Renewable Energy Park,Wind,201.0,101.25,Port Augusta Renewable Energy Park,-32.566944,137.856111,2026-03-26T11:15:58.275821
2026/03/26 21:15:00,RYANCWF1,149.56,Ryan Corner Development Pty Ltd,Ryan Corner Wind Farm,Wind,205.0,72.96,Ryan Corner Wind Farm,-38.271017,142.140647,2026-03-26T11:15:58.275821
2026/03/26 21:15:00,RYEPARK1,260.43,Rye Park Renewable Energy Pty Ltd as trustee for Rye Park Wind Farm Trust,Rye Park Renewable Energy,Wind,384.0,67.82,Rye Park Renewable Energy,-32.138333,148.972778,2026-03-26T11:15:58.275821
2026/03/26 21:15:00,SALTCRK1,51.68,Salt Creek Wind Farm Pty Ltd,Salt Creek Wind Farm,Wind,54.0,95.7,Salt Creek Wind Farm,-37.95,142.63,2026-03-26T11:15:58.275821
2026/03/26 21:15:00,SAPHWF1,103.67,The Trustee For The SWF1 Operations Trust,Sapphire Wind Farm,Wind,270.0,38.4,Sapphire Wind Farm,-29.7,151.41,2026-03-26T11:15:58.275821
2026/03/26 21:15:00,SNOWNTH1,117.0,Snowtown Wind Farm Stage 2 Pty Ltd,Snowtown Wind Farm Stage 2 North,Wind,144.0,81.25,Snowtown Wind Farm Stage 2 North,-33.83,138.118611,2026-03-26T11:15:58.275821
2026/03/26 21:15:00,SNOWSTH1,86.2,Snowtown Wind Farm Stage 2 Pty Ltd,Snowtown South Wind Farm,Wind,126.0,68.41,Snowtown South Wind Farm,-33.83,138.118611,2026-03-26T11:15:58.275821
2026/03/26 21:15:00,SNOWTWN1,81.41,Snowtown Wind Farm Pty Ltd,Snowtown Wind Farm Units 1 And 47,Wind,99.0,82.23,Snowtown Wind Farm Units 1 And 47,-33.83,138.118611,2026-03-26T11:15:58.275821
2026/03/26 21:15:00,STARHLWF,23.69,Starfish Hill Wind Farm Pty Ltd,Starfish Hill Wind Farm,Wind,35.0,67.69,Starfish Hill Wind Farm,-35.58,138.14,2026-03-26T11:15:58.275821
2026/03/26 21:15:00,STOCKYD1,481.49,Stockyard Hill Wind Farm Pty Ltd,Stockyard Hill Wind Farm,Wind,511.0,94.23,Stockyard Hill Wind Farm,-37.535833,143.251389,2026-03-26T11:15:58.275821
2026/03/26 21:15:00,STWF1,147.0,PARF Company 8 Pty Ltd as The Trustee for Silverton Project Trust,Silverton Wind Farm,Wind,198.0,74.24,Silverton Wind Farm,-37.683168,142.551678,2026-03-26T11:15:58.275821
2026/03/26 21:15:00,TARALGA1,96.16,Taralga Wind Farm Nominees No 2 Pty Ltd (ATF Taralga Wind Farm Operating Trust),Taralga Wind Farm,Wind,106.0,90.72,Taralga Wind Farm,-34.42352,149.826267,2026-03-26T11:15:58.275821
2026/03/26 21:15:00,WAMBOWF1,158.48,Stanwell Corporation Limited,Wambo Wind Farm 1,Wind,245.0,64.69,Wambo Wind Farm 1,-35.187301,149.524945,2026-03-26T11:15:58.275821
2026/03/26 21:15:00,WATERLWF,28.7,Waterloo Wind Farm Pty Ltd,Waterloo Wind Farm,Wind,130.0,22.08,Waterloo Wind Farm,-34.00094,138.911567,2026-03-26T11:15:58.275821
2026/03/26 21:15:00,WGWF1,82.8,Willogoleche Power Pty Ltd As The Trustee For The Willogoleche Operating Trust,Willogoleche Wind Farm,Wind,119.0,69.58,Willogoleche Wind Farm,-33.39,138.85,2026-03-26T11:15:58.275821
2026/03/26 21:15:00,WOODLWN1,33.9,Woodlawn Wind Pty Ltd,Woodlawn Wind Farm,Wind,48.0,70.62,Woodlawn Wind Farm,-35.08,149.62,2026-03-26T11:15:58.275821
2026/03/26 21:15:00,WPWF,76.36,AGL SA Generation Pty Limited,Wattle Point Wind Farm,Wind,91.0,83.91,Wattle Point Wind Farm,-35.111624,137.7219,2026-03-26T11:15:58.275821
2026/03/26 21:15:00,WRWF1,143.88,White Rock Wind Farm Pty Ltd,White Rock Wind Farm,Wind,172.0,83.65,White Rock Wind Farm,-29.79,151.54,2026-03-26T11:15:58.275821
2026/03/26 21:15:00,YENDWF1,71.51,Lal Lal Wind Farms Nom Co Pty Ltd,Yendon Wind Farm,Wind,142.0,50.36,Yendon Wind Farm,-37.629987,144.022717,2026-03-26T11:15:58.275821
