SETTLEMENTDATE,DUID,SCADAVALUE,Participant,Station Name,Fuel Source - Primary,MAX_CAP,utilisation_pct,Plant,Latitude,Longitude,timestamp_utc
2026/04/23 22:15:00,CAPTL_WF,27.0,Iberdrola Australia Holdings Pty Limited,Capital Wind Farm,Wind,140.0,19.29,Capital Wind Farm,-35.1,149.31,2026-04-23T12:12:37.688100
2026/04/23 22:15:00,CHALLHWF,7.3,Pacific Hydro Challicum Hills Pty Ltd,Challicum Hills Wind Farm,Wind,52.0,14.04,Challicum Hills Wind Farm,-37.38,143.11,2026-04-23T12:12:37.688100
2026/04/23 22:15:00,CULLRGWF,13.9,Cullerin Range Wind Farm Pty Ltd,Cullerin Range Wind Farm,Wind,30.0,46.33,Cullerin Range Wind Farm,-34.81,149.4,2026-04-23T12:12:37.688100
2026/04/23 22:15:00,DIAPURWF1,7.3,Y.E.S. Energy (SA) Pty Ltd,Diapur Wind Farm,Wind,7.0,104.29,Diapur Wind Farm,-36.3425,141.43,2026-04-23T12:12:37.688100
2026/04/23 22:15:00,MLWF1,6.04,Mortons Lane Windfarm Pty Limited,Mortons Lane Wind Farm,Wind,20.0,30.2,Mortons Lane Wind Farm,-37.84,142.45,2026-04-23T12:12:37.688100
2026/04/23 22:15:00,WAUBRAWF,52.39,Pyrenees Wind Energy Developments Pty Ltd,Waubra Wind Farm,Wind,192.0,27.29,Waubra Wind Farm,-37.394498,143.638982,2026-04-23T12:12:37.688100
2026/04/23 22:15:00,WOOLNTH1,55.35,Hydro-Electric Corporation,Woolnorth Studland Bay / Bluff Point Wind Farm,Wind,140.0,39.54,Woolnorth Studland Bay / Bluff Point Wind Farm,-40.69,144.72,2026-04-23T12:12:37.688100
2026/04/23 22:15:00,YAMBUKWF,14.7,Energy Pacific (Vic) Pty Ltd,Yambuk Wind Farm,Wind,30.0,49.0,Yambuk Wind Farm,-38.299083,142.027577,2026-04-23T12:12:37.688100
2026/04/23 22:15:00,YSWF1,2.1,Pacific Hydro Yaloak South Pty Ltd,Yaloak South Wind Farm,Wind,28.0,7.5,Yaloak South Wind Farm,-37.7163,144.242853,2026-04-23T12:12:37.688100
2026/04/23 22:15:00,ARWF1,20.2,Ararat Wind Farm Pty Ltd,Ararat Wind Farm,Wind,241.0,8.38,Ararat Wind Farm,-37.232778,143.031389,2026-04-23T12:12:37.688100
2026/04/23 22:15:00,BALDHWF1,11.79,Alinta Energy Retail Sales Pty Ltd,Bald Hills Wind Farm,Wind,106.0,11.12,Bald Hills Wind Farm,-38.79,145.93,2026-04-23T12:12:37.688100
2026/04/23 22:15:00,BANGOWF1,99.5,BWF Nominees Pty Ltd as The Trustee for BWF Trust,Bango 973 Wind Farm,Wind,155.0,64.19,Bango 973 Wind Farm,-34.551582,148.732808,2026-04-23T12:12:37.688100
2026/04/23 22:15:00,BANGOWF2,63.1,BWF Nominees Pty Ltd as The Trustee for BWF Trust,Bango 999 Wind Farm,Wind,82.0,76.95,Bango 999 Wind Farm,-34.551582,148.732808,2026-04-23T12:12:37.688100
2026/04/23 22:15:00,BLUFF1,37.9,AGL SA Generation Pty Limited,The Bluff Wind Farm,Wind,53.0,71.51,The Bluff Wind Farm,-33.367778,138.728611,2026-04-23T12:12:37.688100
2026/04/23 22:15:00,BOCORWF1,0.0,Boco Rock Wind Farm Pty Ltd,Boco Rock Wind Farm,Wind,111.0,0.0,Boco Rock Wind Farm,-36.578611,149.103333,2026-04-23T12:12:37.688100
2026/04/23 22:15:00,BRYB1WF1,58.57,Berrybank Development Pty Ltd,Berrybank Wind Farm,Wind,175.9,33.3,Berrybank Wind Farm,-37.94,143.52,2026-04-23T12:12:37.688100
2026/04/23 22:15:00,BRYB2WF2,36.96,Berrybank 2 Asset Pty Ltd as trustee for Berrybank 2 Asset Trust,Berrybank 2 Wind Farm,Wind,105.0,35.2,Berrybank 2 Wind Farm,-37.94,143.52,2026-04-23T12:12:37.688100
2026/04/23 22:15:00,BULGANA1,59.95,Bulgana Wind Farm Pty Ltd,Bulgana Green Power Hub,Wind,204.0,29.39,Bulgana Green Power Hub,-37.0975,142.973611,2026-04-23T12:12:37.688100
2026/04/23 22:15:00,CATHROCK,17.4,Cathedral Rocks Wind Farm Pty Ltd,Cathedral Rocks,Wind,66.0,26.36,Cathedral Rocks,-34.51,135.35,2026-04-23T12:12:37.688100
2026/04/23 22:15:00,CHYTWF1,0.0,Cherry Tree Wind Farm Pty Ltd as trustee for The Cherry Tree Project trust ,Cherry Tree Wind Farm,Wind,57.0,0.0,Cherry Tree Wind Farm,-37.1,145.26,2026-04-23T12:12:37.688100
2026/04/23 22:15:00,CLEMGPWF,43.37,Pacific Hydro Clements Gap Pty Ltd,Clements Gap Wind Farm,Wind,57.0,76.09,Clements Gap Wind Farm,-33.48,138.1,2026-04-23T12:12:37.688100
2026/04/23 22:15:00,CLRKCWF1,241.0,Stanwell Corporation Limited ,Clarke Creek Wind Farm,Wind,338.0,71.3,Clarke Creek Wind Farm,-22.85,149.45,2026-04-23T12:12:37.688100
2026/04/23 22:15:00,CLRKCWF2,98.06,Stanwell Corporation Limited ,Clarke Creek Wind Farm,Wind,101.0,97.09,Clarke Creek Wind Farm,-22.85,149.45,2026-04-23T12:12:37.688100
2026/04/23 22:15:00,CNUNDAWF,14.62,Canunda Power Pty Ltd,Canunda Wind Farm,Wind,46.0,31.78,Canunda Wind Farm,-37.73,140.39,2026-04-23T12:12:37.688100
2026/04/23 22:15:00,COLWF01,53.57,Collector Wind Farm Pty Ltd,Collector Wind Farm 1,Wind,219.0,24.46,Collector Wind Farm 1,-34.8719,149.3967,2026-04-23T12:12:37.688100
2026/04/23 22:15:00,COOPGWF1,174.55,PARF Company 10 Pty Limited as The Trustee for Coopers Gap Project Trust,Coopers Gap Wind Farm,Wind,440.0,39.67,Coopers Gap Wind Farm,-26.74,151.45,2026-04-23T12:12:37.688100
2026/04/23 22:15:00,CROOKWF2,22.86,Crookwell Development Pty Ltd ,Crookwell 2 Wind Farm,Wind,91.0,25.12,Crookwell 2 Wind Farm,-34.52,149.54,2026-04-23T12:12:37.688100
2026/04/23 22:15:00,CROOKWF3,17.13,Crookwell 3 Development Pty Ltd,Crookwell 3 Wind Farm,Wind,56.0,30.59,Crookwell 3 Wind Farm,-34.52,149.54,2026-04-23T12:12:37.688100
2026/04/23 22:15:00,CROWLWF1,15.54,Pacific Hydro Crowlands Pty Ltd ,Crowlands Wind Farm,Wind,79.0,19.67,Crowlands Wind Farm,-37.13,143.16,2026-04-23T12:12:37.688100
2026/04/23 22:15:00,CRURWF1,77.6,CRWF Nominees Pty Ltd As Trustee For The CRWF Trust,Crudine Ridge Wind Farm,Wind,138.0,56.23,Crudine Ridge Wind Farm,-32.97,149.64,2026-04-23T12:12:37.688100
2026/04/23 22:15:00,CTHLWF1,92.29,Wild Cattle Hill Pty Ltd,Cattle Hill Wind Farm,Wind,144.0,64.09,Cattle Hill Wind Farm,-42.15,146.69,2026-04-23T12:12:37.688100
2026/04/23 22:15:00,DULAWF1,157.9,Dulacca Energy Project Co Pty Ltd,Dulacca Wind Farm,Wind,173.0,91.27,Dulacca Wind Farm,-26.63,149.87,2026-04-23T12:12:37.688100
2026/04/23 22:15:00,DUNDWF1,97.85,Dundonnell Wind Farm Pty Ltd,Dundonnell Wind Farm,Wind,168.0,58.24,Dundonnell Wind Farm,-37.52,142.58,2026-04-23T12:12:37.688100
2026/04/23 22:15:00,DUNDWF2,21.73,Dundonnell Wind Farm Pty Ltd,Dundonnell Wind Farm,Wind,46.0,47.24,Dundonnell Wind Farm,-37.52,142.58,2026-04-23T12:12:37.688100
2026/04/23 22:15:00,DUNDWF3,34.75,Dundonnell Wind Farm Pty Ltd,Dundonnell Wind Farm,Wind,122.0,28.48,Dundonnell Wind Farm,-37.52,142.58,2026-04-23T12:12:37.688100
2026/04/23 22:15:00,ELAINWF1,20.35,Lal Lal Wind Farms Nom Co Pty Ltd,Elaine Wind Farm,Wind,82.0,24.82,Elaine Wind Farm,-37.36,144.0,2026-04-23T12:12:37.688100
2026/04/23 22:15:00,FLYCRKWF,116.06,Iberdrola Australia Energy Markets Pty Limited,Flyers Creek Wind Farm,Wind,140.0,82.9,Flyers Creek Wind Farm,-33.365556,148.981944,2026-04-23T12:12:37.688100
2026/04/23 22:15:00,GPWFEST1,48.1,Golden Plains WF1 Pty Ltd as Trustee for the Golden Plains WF1 Unit Trust,Golden Plains Wind Farm East,Wind,240.0,20.04,Golden Plains Wind Farm East,-37.945091,143.752614,2026-04-23T12:12:37.688100
2026/04/23 22:15:00,GPWFEST2,136.93,Golden Plains WF1 Pty Ltd as Trustee for the Golden Plains WF1 Unit Trust,Golden Plains Wind Farm East,Wind,253.0,54.12,Golden Plains Wind Farm East,-37.945091,143.752614,2026-04-23T12:12:37.688100
2026/04/23 22:15:00,GPWFEST3,124.64,Golden Plains WF1 Pty Ltd as Trustee for the Golden Plains WF1 Unit Trust,Golden Plains Wind Farm East,Wind,240.0,51.93,Golden Plains Wind Farm East,-37.945091,143.752614,2026-04-23T12:12:37.688100
2026/04/23 22:15:00,GRANWF1,102.64,Granville Harbour Operations Pty Ltd as The Trustee for Granville Harbour Operations Trust,Granville Harbour Wind Farm,Wind,111.0,92.47,Granville Harbour Wind Farm,-41.8,145.06,2026-04-23T12:12:37.688100
2026/04/23 22:15:00,GSWF1A,0.0,Goyder Wind Farm 1 Pty Ltd as the Trustee for Goyder Wind Farm 1 Trust,Goyder South Wind Farm 1A,Wind,201.0,0.0,Goyder South Wind Farm 1A,-33.679758,138.937597,2026-04-23T12:12:37.688100
2026/04/23 22:15:00,GSWF1B1,112.37,Goyder Wind Farm 1B Pty Ltd as the Trustee for the Goyder Wind Farm 1B Trust,Goyder South Wind Farm 1B,Wind,196.0,57.33,Goyder South Wind Farm 1B,-33.679758,138.937597,2026-04-23T12:12:37.688100
2026/04/23 22:15:00,GULLRWF1,53.29,New Gullen Range Wind Farm Pty Ltd,Gullen Range Wind Farm,Wind,161.0,33.1,Gullen Range Wind Farm,-34.34,149.27,2026-04-23T12:12:37.688100
2026/04/23 22:15:00,GULLRWF2,71.02,New Gullen Range Wind Farm Pty Ltd,Gullen Range Wind Farm,Wind,107.0,66.37,Gullen Range Wind Farm,-34.34,149.27,2026-04-23T12:12:37.688100
2026/04/23 22:15:00,GUNNING1,23.46,Gunning Wind Energy Developments Pty Ltd,Gunning Wind Farm,Wind,47.0,49.91,Gunning Wind Farm,-34.813333,149.4,2026-04-23T12:12:37.688100
2026/04/23 22:15:00,HALLWF1,84.03,AGL SA Generation Pty Limited,Hallett 1 Wind Farm,Wind,95.0,88.45,Hallett 1 Wind Farm,-33.367778,138.728611,2026-04-23T12:12:37.688100
2026/04/23 22:15:00,HALLWF2,50.87,AGL SA Generation Pty Limited,Hallett 2 Wind Farm,Wind,71.0,71.65,Hallett 2 Wind Farm,-33.367778,138.728611,2026-04-23T12:12:37.688100
2026/04/23 22:15:00,HD1WF1,43.22,Hawkesdale Asset Pty Ltd as trustee for Hawkesdale Asset Trust,Hawkesdale Wind Farm,Wind,89.0,48.56,Hawkesdale Wind Farm,-38.147894,142.361381,2026-04-23T12:12:37.688100
2026/04/23 22:15:00,HDWF1,71.8,HWF1 Pty Ltd,Hornsdale Wind Farm,Wind,102.0,70.39,Hornsdale Wind Farm,-33.050556,138.543611,2026-04-23T12:12:37.688100
2026/04/23 22:15:00,HDWF2,50.5,HWF 2 Pty Ltd,Hornsdale Wind Farm 2,Wind,102.0,49.51,Hornsdale Wind Farm 2,-33.06,138.54,2026-04-23T12:12:37.688100
2026/04/23 22:15:00,HDWF3,66.0,HWF3 Pty Ltd,Hornsdale Wind Farm 3,Wind,109.0,60.55,Hornsdale Wind Farm 3,-33.06,138.54,2026-04-23T12:12:37.688100
2026/04/23 22:15:00,KABANWF1,85.48,Kaban Wind Farm Pty Ltd as trustee for Kaban Wind Farm Trust,Kaban Wind Farm,Wind,152.0,56.24,Kaban Wind Farm,-17.56,145.41,2026-04-23T12:12:37.688100
2026/04/23 22:15:00,KEPWF1,27.1,Kennedy Energy Park Pty Ltd,Kennedy Energy Park,Wind,43.0,63.02,Kennedy Energy Park,-20.88,144.42,2026-04-23T12:12:37.688100
2026/04/23 22:15:00,KIATAWF1,30.3,Kiata ProjectCo Pty Ltd Atf Kiata Project Trust,Kiata Wind Farm,Wind,31.0,97.74,Kiata Wind Farm,-36.4,141.75,2026-04-23T12:12:37.688100
2026/04/23 22:15:00,LGAPWF1,71.4,Lincoln Gap Wind Farm (Operations) Pty Ltd,Lincoln Gap Wind Farm,Wind,123.0,58.05,Lincoln Gap Wind Farm,-32.564279,137.557328,2026-04-23T12:12:37.688100
2026/04/23 22:15:00,LGAPWF1,71.4,Lincoln Gap Wind Farm (Operations) Pty Ltd,Lincoln Gap Wind Farm,Wind,123.0,58.05,Lincoln Gap Wind Farm,-32.564279,137.557328,2026-04-23T12:12:37.688100
2026/04/23 22:15:00,LGAPWF2,65.17,Lincoln Gap Wind Farm (Operations) Pty Ltd,Lincoln Gap Wind Farm,Wind,85.0,76.67,Lincoln Gap Wind Farm,-32.564279,137.557328,2026-04-23T12:12:37.688100
2026/04/23 22:15:00,LGAPWF2,65.17,Lincoln Gap Wind Farm (Operations) Pty Ltd,Lincoln Gap Wind Farm,Wind,85.0,76.67,Lincoln Gap Wind Farm,-32.564279,137.557328,2026-04-23T12:12:37.688100
2026/04/23 22:15:00,LKBONNY1,32.33,Lake Bonney Wind Power Pty Ltd,Lake Bonney Wind Farm Stage 1,Wind,81.0,39.91,Lake Bonney Wind Farm Stage 1,-37.76,140.4,2026-04-23T12:12:37.688100
2026/04/23 22:15:00,LKBONNY2,53.02,Lake Bonney Wind Power Pty Ltd,Lake Bonney Stage 2 Windfarm,Wind,159.0,33.35,Lake Bonney Stage 2 Windfarm,-37.76,140.4,2026-04-23T12:12:37.688100
2026/04/23 22:15:00,LKBONNY3,13.17,Lake Bonney Wind Power Pty Ltd,Lake Bonney Stage 3 Wind Farm,Wind,39.0,33.77,Lake Bonney Stage 3 Wind Farm,-37.737781,140.388137,2026-04-23T12:12:37.688100
2026/04/23 22:15:00,MACARTH1,83.4,AGL Hydro Partnership,Macarthur Wind Farm,Wind,420.0,19.86,Macarthur Wind Farm,-38.048957,142.192112,2026-04-23T12:12:37.688100
2026/04/23 22:15:00,MCINTYR1,360.66,MacIntyre UJV Operator Pty Ltd,MacIntyre Wind Farm,Wind,890.0,40.52,MacIntyre Wind Farm,-28.32,151.54,2026-04-23T12:12:37.688100
2026/04/23 22:15:00,MERCER01,28.9,Mt Mercer Windfarm Pty Ltd,Mt Mercer Wind Farm,Wind,131.0,22.06,Mt Mercer Wind Farm,-37.841111,143.871111,2026-04-23T12:12:37.688100
2026/04/23 22:15:00,MEWF1,97.62,Ergon Energy Queensland Pty Ltd ,Mount Emerald Wind Farm,Wind,178.0,54.84,Mount Emerald Wind Farm,-17.133007,145.380644,2026-04-23T12:12:37.688100
2026/04/23 22:15:00,MRTLSWF1,81.54,Mortlake South Wind Farm Pty Ltd,Mortlake South Wind Farm,Wind,153.0,53.29,Mortlake South Wind Farm,-38.127337,142.857801,2026-04-23T12:12:37.688100
2026/04/23 22:15:00,MTGELWF1,6.73,Mt. Gellibrand Wind Farm Pty Ltd,Mt Gellibrand Wind Farm,Wind,132.0,5.1,Mt Gellibrand Wind Farm,-38.23,143.77,2026-04-23T12:12:37.688100
2026/04/23 22:15:00,MTMILLAR,20.6,Mt Millar Wind Farm Pty Ltd,Mt Millar Wind Farm,Wind,70.0,29.43,Mt Millar Wind Farm,-33.624444,136.703611,2026-04-23T12:12:37.688100
2026/04/23 22:15:00,MUSSELR1,0.0,Hydro-Electric Corporation,Musselroe Wind Farm,Wind,168.0,0.0,Musselroe Wind Farm,-40.780225,148.010799,2026-04-23T12:12:37.688100
2026/04/23 22:15:00,MUWAWF1,105.95,Telstra Energy (Generation) Pty Ltd,Murra Warra Wind Farm,Wind,225.7,46.94,Murra Warra Wind Farm,-36.432404,142.317853,2026-04-23T12:12:37.688100
2026/04/23 22:15:00,MUWAWF2,142.4,Murra Warra II Project Co Pty Ltd ATF The Murra Warra II Project Trust,Murra Warra Wind Farm Stage 2,Wind,203.0,70.15,Murra Warra Wind Farm Stage 2,-36.43,142.32,2026-04-23T12:12:37.688100
2026/04/23 22:15:00,NBHWF1,116.6,AGL SA Generation Pty Limited,North Brown Hill Wind Farm,Wind,132.0,88.33,North Brown Hill Wind Farm,-33.367778,138.728611,2026-04-23T12:12:37.688100
2026/04/23 22:15:00,OAKLAND1,33.3,AGL Hydro Partnership,Oaklands Hill Wind Farm,Wind,63.0,52.86,Oaklands Hill Wind Farm,-37.683078,142.551678,2026-04-23T12:12:37.688100
2026/04/23 22:15:00,PAREPW1,25.77,Iberdrola Australia Energy Markets Pty Limited,Port Augusta Renewable Energy Park,Wind,201.0,12.82,Port Augusta Renewable Energy Park,-32.566944,137.856111,2026-04-23T12:12:37.688100
2026/04/23 22:15:00,RYANCWF1,84.25,Ryan Corner Development Pty Ltd,Ryan Corner Wind Farm,Wind,205.0,41.1,Ryan Corner Wind Farm,-38.271017,142.140647,2026-04-23T12:12:37.688100
2026/04/23 22:15:00,RYEPARK1,273.68,Rye Park Renewable Energy Pty Ltd as trustee for Rye Park Wind Farm Trust,Rye Park Renewable Energy,Wind,384.0,71.27,Rye Park Renewable Energy,-32.138333,148.972778,2026-04-23T12:12:37.688100
2026/04/23 22:15:00,SALTCRK1,30.63,Salt Creek Wind Farm Pty Ltd,Salt Creek Wind Farm,Wind,54.0,56.72,Salt Creek Wind Farm,-37.95,142.63,2026-04-23T12:12:37.688100
2026/04/23 22:15:00,SAPHWF1,107.46,The Trustee For The SWF1 Operations Trust,Sapphire Wind Farm,Wind,270.0,39.8,Sapphire Wind Farm,-29.7,151.41,2026-04-23T12:12:37.688100
2026/04/23 22:15:00,SNOWNTH1,73.9,Snowtown Wind Farm Stage 2 Pty Ltd,Snowtown Wind Farm Stage 2 North,Wind,144.0,51.32,Snowtown Wind Farm Stage 2 North,-33.83,138.118611,2026-04-23T12:12:37.688100
2026/04/23 22:15:00,SNOWSTH1,92.7,Snowtown Wind Farm Stage 2 Pty Ltd,Snowtown South Wind Farm,Wind,126.0,73.57,Snowtown South Wind Farm,-33.83,138.118611,2026-04-23T12:12:37.688100
2026/04/23 22:15:00,SNOWTWN1,53.16,Snowtown Wind Farm Pty Ltd,Snowtown Wind Farm Units 1 And 47,Wind,99.0,53.7,Snowtown Wind Farm Units 1 And 47,-33.83,138.118611,2026-04-23T12:12:37.688100
2026/04/23 22:15:00,STARHLWF,14.3,Starfish Hill Wind Farm Pty Ltd,Starfish Hill Wind Farm,Wind,35.0,40.86,Starfish Hill Wind Farm,-35.58,138.14,2026-04-23T12:12:37.688100
2026/04/23 22:15:00,STOCKYD1,134.55,Stockyard Hill Wind Farm Pty Ltd,Stockyard Hill Wind Farm,Wind,511.0,26.33,Stockyard Hill Wind Farm,-37.535833,143.251389,2026-04-23T12:12:37.688100
2026/04/23 22:15:00,STWF1,92.98,PARF Company 8 Pty Ltd as The Trustee for Silverton Project Trust,Silverton Wind Farm,Wind,198.0,46.96,Silverton Wind Farm,-37.683168,142.551678,2026-04-23T12:12:37.688100
2026/04/23 22:15:00,TARALGA1,22.18,Taralga Wind Farm Nominees No 2 Pty Ltd (ATF Taralga Wind Farm Operating Trust),Taralga Wind Farm,Wind,106.0,20.92,Taralga Wind Farm,-34.42352,149.826267,2026-04-23T12:12:37.688100
2026/04/23 22:15:00,WAMBOWF1,101.91,Stanwell Corporation Limited,Wambo Wind Farm 1,Wind,245.0,41.6,Wambo Wind Farm 1,-35.187301,149.524945,2026-04-23T12:12:37.688100
2026/04/23 22:15:00,WATERLWF,63.5,Waterloo Wind Farm Pty Ltd,Waterloo Wind Farm,Wind,130.0,48.85,Waterloo Wind Farm,-34.00094,138.911567,2026-04-23T12:12:37.688100
2026/04/23 22:15:00,WGWF1,84.3,Willogoleche Power Pty Ltd As The Trustee For The Willogoleche Operating Trust,Willogoleche Wind Farm,Wind,119.0,70.84,Willogoleche Wind Farm,-33.39,138.85,2026-04-23T12:12:37.688100
2026/04/23 22:15:00,WOODLWN1,13.94,Woodlawn Wind Pty Ltd,Woodlawn Wind Farm,Wind,48.0,29.04,Woodlawn Wind Farm,-35.08,149.62,2026-04-23T12:12:37.688100
2026/04/23 22:15:00,WPWF,28.06,AGL SA Generation Pty Limited,Wattle Point Wind Farm,Wind,91.0,30.84,Wattle Point Wind Farm,-35.111624,137.7219,2026-04-23T12:12:37.688100
2026/04/23 22:15:00,WRWF1,148.11,White Rock Wind Farm Pty Ltd,White Rock Wind Farm,Wind,172.0,86.11,White Rock Wind Farm,-29.79,151.54,2026-04-23T12:12:37.688100
2026/04/23 22:15:00,YENDWF1,28.53,Lal Lal Wind Farms Nom Co Pty Ltd,Yendon Wind Farm,Wind,142.0,20.09,Yendon Wind Farm,-37.629987,144.022717,2026-04-23T12:12:37.688100
