SETTLEMENTDATE,DUID,SCADAVALUE,Participant,Station Name,Fuel Source - Primary,MAX_CAP,utilisation_pct,Plant,Latitude,Longitude,timestamp_utc
2026/02/09 19:40:00,CAPTL_WF,21.76,Iberdrola Australia Holdings Pty Limited,Capital Wind Farm,Wind,140.0,15.54,Capital Wind Farm,-35.1,149.31,2026-02-09T09:42:43.718381
2026/02/09 19:40:00,CHALLHWF,14.6,Pacific Hydro Challicum Hills Pty Ltd,Challicum Hills Wind Farm,Wind,52.0,28.08,Challicum Hills Wind Farm,-37.38,143.11,2026-02-09T09:42:43.718381
2026/02/09 19:40:00,CULLRGWF,6.8,Cullerin Range Wind Farm Pty Ltd,Cullerin Range Wind Farm,Wind,30.0,22.67,Cullerin Range Wind Farm,-34.81,149.4,2026-02-09T09:42:43.718381
2026/02/09 19:40:00,DIAPURWF1,0.8,Y.E.S. Energy (SA) Pty Ltd,Diapur Wind Farm,Wind,7.0,11.43,Diapur Wind Farm,-36.3425,141.43,2026-02-09T09:42:43.718381
2026/02/09 19:40:00,MLWF1,6.4,Mortons Lane Windfarm Pty Limited,Mortons Lane Wind Farm,Wind,20.0,32.0,Mortons Lane Wind Farm,-37.84,142.45,2026-02-09T09:42:43.718381
2026/02/09 19:40:00,WAUBRAWF,36.07,Pyrenees Wind Energy Developments Pty Ltd,Waubra Wind Farm,Wind,192.0,18.79,Waubra Wind Farm,-37.394498,143.638982,2026-02-09T09:42:43.718381
2026/02/09 19:40:00,WOOLNTH1,53.39,Hydro-Electric Corporation,Woolnorth Studland Bay / Bluff Point Wind Farm,Wind,140.0,38.14,Woolnorth Studland Bay / Bluff Point Wind Farm,-40.69,144.72,2026-02-09T09:42:43.718381
2026/02/09 19:40:00,YAMBUKWF,3.3,Energy Pacific (Vic) Pty Ltd,Yambuk Wind Farm,Wind,30.0,11.0,Yambuk Wind Farm,-38.299083,142.027577,2026-02-09T09:42:43.718381
2026/02/09 19:40:00,YSWF1,4.4,Pacific Hydro Yaloak South Pty Ltd,Yaloak South Wind Farm,Wind,28.0,15.71,Yaloak South Wind Farm,-37.7163,144.242853,2026-02-09T09:42:43.718381
2026/02/09 19:40:00,ARWF1,81.0,Ararat Wind Farm Pty Ltd,Ararat Wind Farm,Wind,241.0,33.61,Ararat Wind Farm,-37.232778,143.031389,2026-02-09T09:42:43.718381
2026/02/09 19:40:00,BALDHWF1,6.61,Alinta Energy Retail Sales Pty Ltd,Bald Hills Wind Farm,Wind,106.0,6.24,Bald Hills Wind Farm,-38.79,145.93,2026-02-09T09:42:43.718381
2026/02/09 19:40:00,BANGOWF1,39.3,BWF Nominees Pty Ltd as The Trustee for BWF Trust,Bango 973 Wind Farm,Wind,155.0,25.35,Bango 973 Wind Farm,-34.551582,148.732808,2026-02-09T09:42:43.718381
2026/02/09 19:40:00,BANGOWF2,23.0,BWF Nominees Pty Ltd as The Trustee for BWF Trust,Bango 999 Wind Farm,Wind,82.0,28.05,Bango 999 Wind Farm,-34.551582,148.732808,2026-02-09T09:42:43.718381
2026/02/09 19:40:00,BLUFF1,7.0,AGL SA Generation Pty Limited,The Bluff Wind Farm,Wind,53.0,13.21,The Bluff Wind Farm,-33.367778,138.728611,2026-02-09T09:42:43.718381
2026/02/09 19:40:00,BOCORWF1,17.14,Boco Rock Wind Farm Pty Ltd,Boco Rock Wind Farm,Wind,111.0,15.44,Boco Rock Wind Farm,-36.578611,149.103333,2026-02-09T09:42:43.718381
2026/02/09 19:40:00,BRYB1WF1,33.8,Berrybank Development Pty Ltd,Berrybank Wind Farm,Wind,175.9,19.22,Berrybank Wind Farm,-37.94,143.52,2026-02-09T09:42:43.718381
2026/02/09 19:40:00,BRYB2WF2,19.85,Berrybank 2 Asset Pty Ltd as trustee for Berrybank 2 Asset Trust,Berrybank 2 Wind Farm,Wind,105.0,18.9,Berrybank 2 Wind Farm,-37.94,143.52,2026-02-09T09:42:43.718381
2026/02/09 19:40:00,BULGANA1,86.48,Bulgana Wind Farm Pty Ltd,Bulgana Green Power Hub,Wind,204.0,42.39,Bulgana Green Power Hub,-37.0975,142.973611,2026-02-09T09:42:43.718381
2026/02/09 19:40:00,CATHROCK,10.4,Cathedral Rocks Wind Farm Pty Ltd,Cathedral Rocks,Wind,66.0,15.76,Cathedral Rocks,-34.51,135.35,2026-02-09T09:42:43.718381
2026/02/09 19:40:00,CHYTWF1,28.25,Cherry Tree Wind Farm Pty Ltd as trustee for The Cherry Tree Project trust ,Cherry Tree Wind Farm,Wind,57.0,49.56,Cherry Tree Wind Farm,-37.1,145.26,2026-02-09T09:42:43.718381
2026/02/09 19:40:00,CLEMGPWF,20.39,Pacific Hydro Clements Gap Pty Ltd,Clements Gap Wind Farm,Wind,57.0,35.77,Clements Gap Wind Farm,-33.48,138.1,2026-02-09T09:42:43.718381
2026/02/09 19:40:00,CLRKCWF1,263.94,Stanwell Corporation Limited ,Clarke Creek Wind Farm,Wind,338.0,78.09,Clarke Creek Wind Farm,-22.85,149.45,2026-02-09T09:42:43.718381
2026/02/09 19:40:00,CLRKCWF2,65.41,Stanwell Corporation Limited ,Clarke Creek Wind Farm,Wind,101.0,64.76,Clarke Creek Wind Farm,-22.85,149.45,2026-02-09T09:42:43.718381
2026/02/09 19:40:00,CNUNDAWF,14.12,Canunda Power Pty Ltd,Canunda Wind Farm,Wind,46.0,30.7,Canunda Wind Farm,-37.73,140.39,2026-02-09T09:42:43.718381
2026/02/09 19:40:00,COLWF01,24.41,Collector Wind Farm Pty Ltd,Collector Wind Farm 1,Wind,219.0,11.15,Collector Wind Farm 1,-34.8719,149.3967,2026-02-09T09:42:43.718381
2026/02/09 19:40:00,COOPGWF1,127.64,PARF Company 10 Pty Limited as The Trustee for Coopers Gap Project Trust,Coopers Gap Wind Farm,Wind,440.0,29.01,Coopers Gap Wind Farm,-26.74,151.45,2026-02-09T09:42:43.718381
2026/02/09 19:40:00,CROOKWF2,15.74,Crookwell Development Pty Ltd ,Crookwell 2 Wind Farm,Wind,91.0,17.3,Crookwell 2 Wind Farm,-34.52,149.54,2026-02-09T09:42:43.718381
2026/02/09 19:40:00,CROOKWF3,13.29,Crookwell 3 Development Pty Ltd,Crookwell 3 Wind Farm,Wind,56.0,23.73,Crookwell 3 Wind Farm,-34.52,149.54,2026-02-09T09:42:43.718381
2026/02/09 19:40:00,CROWLWF1,41.6,Pacific Hydro Crowlands Pty Ltd ,Crowlands Wind Farm,Wind,79.0,52.66,Crowlands Wind Farm,-37.13,143.16,2026-02-09T09:42:43.718381
2026/02/09 19:40:00,CRURWF1,0.0,CRWF Nominees Pty Ltd As Trustee For The CRWF Trust,Crudine Ridge Wind Farm,Wind,138.0,0.0,Crudine Ridge Wind Farm,-32.97,149.64,2026-02-09T09:42:43.718381
2026/02/09 19:40:00,CTHLWF1,8.85,Wild Cattle Hill Pty Ltd,Cattle Hill Wind Farm,Wind,144.0,6.15,Cattle Hill Wind Farm,-42.15,146.69,2026-02-09T09:42:43.718381
2026/02/09 19:40:00,DULAWF1,14.0,Dulacca Energy Project Co Pty Ltd,Dulacca Wind Farm,Wind,173.0,8.09,Dulacca Wind Farm,-26.63,149.87,2026-02-09T09:42:43.718381
2026/02/09 19:40:00,DUNDWF1,72.87,Dundonnell Wind Farm Pty Ltd,Dundonnell Wind Farm,Wind,168.0,43.38,Dundonnell Wind Farm,-37.52,142.58,2026-02-09T09:42:43.718381
2026/02/09 19:40:00,DUNDWF2,20.46,Dundonnell Wind Farm Pty Ltd,Dundonnell Wind Farm,Wind,46.0,44.48,Dundonnell Wind Farm,-37.52,142.58,2026-02-09T09:42:43.718381
2026/02/09 19:40:00,DUNDWF3,53.36,Dundonnell Wind Farm Pty Ltd,Dundonnell Wind Farm,Wind,122.0,43.74,Dundonnell Wind Farm,-37.52,142.58,2026-02-09T09:42:43.718381
2026/02/09 19:40:00,ELAINWF1,32.79,Lal Lal Wind Farms Nom Co Pty Ltd,Elaine Wind Farm,Wind,82.0,39.99,Elaine Wind Farm,-37.36,144.0,2026-02-09T09:42:43.718381
2026/02/09 19:40:00,FLYCRKWF,1.91,Iberdrola Australia Energy Markets Pty Limited,Flyers Creek Wind Farm,Wind,140.0,1.36,Flyers Creek Wind Farm,-33.365556,148.981944,2026-02-09T09:42:43.718381
2026/02/09 19:40:00,GPWFEST1,79.67,Golden Plains WF1 Pty Ltd as Trustee for the Golden Plains WF1 Unit Trust,Golden Plains Wind Farm East,Wind,240.0,33.2,Golden Plains Wind Farm East,-37.945091,143.752614,2026-02-09T09:42:43.718381
2026/02/09 19:40:00,GPWFEST2,75.78,Golden Plains WF1 Pty Ltd as Trustee for the Golden Plains WF1 Unit Trust,Golden Plains Wind Farm East,Wind,253.0,29.95,Golden Plains Wind Farm East,-37.945091,143.752614,2026-02-09T09:42:43.718381
2026/02/09 19:40:00,GPWFEST3,56.08,Golden Plains WF1 Pty Ltd as Trustee for the Golden Plains WF1 Unit Trust,Golden Plains Wind Farm East,Wind,240.0,23.37,Golden Plains Wind Farm East,-37.945091,143.752614,2026-02-09T09:42:43.718381
2026/02/09 19:40:00,GRANWF1,26.32,Granville Harbour Operations Pty Ltd as The Trustee for Granville Harbour Operations Trust,Granville Harbour Wind Farm,Wind,111.0,23.71,Granville Harbour Wind Farm,-41.8,145.06,2026-02-09T09:42:43.718381
2026/02/09 19:40:00,GSWF1A,27.68,Goyder Wind Farm 1 Pty Ltd as the Trustee for Goyder Wind Farm 1 Trust,Goyder South Wind Farm 1A,Wind,201.0,13.77,Goyder South Wind Farm 1A,-33.679758,138.937597,2026-02-09T09:42:43.718381
2026/02/09 19:40:00,GSWF1B1,24.88,Goyder Wind Farm 1B Pty Ltd as the Trustee for the Goyder Wind Farm 1B Trust,Goyder South Wind Farm 1B,Wind,196.0,12.69,Goyder South Wind Farm 1B,-33.679758,138.937597,2026-02-09T09:42:43.718381
2026/02/09 19:40:00,GULLRWF1,2.91,New Gullen Range Wind Farm Pty Ltd,Gullen Range Wind Farm,Wind,161.0,1.81,Gullen Range Wind Farm,-34.34,149.27,2026-02-09T09:42:43.718381
2026/02/09 19:40:00,GULLRWF2,7.0,New Gullen Range Wind Farm Pty Ltd,Gullen Range Wind Farm,Wind,107.0,6.54,Gullen Range Wind Farm,-34.34,149.27,2026-02-09T09:42:43.718381
2026/02/09 19:40:00,GUNNING1,7.71,Gunning Wind Energy Developments Pty Ltd,Gunning Wind Farm,Wind,47.0,16.4,Gunning Wind Farm,-34.813333,149.4,2026-02-09T09:42:43.718381
2026/02/09 19:40:00,HALLWF1,8.89,AGL SA Generation Pty Limited,Hallett 1 Wind Farm,Wind,95.0,9.36,Hallett 1 Wind Farm,-33.367778,138.728611,2026-02-09T09:42:43.718381
2026/02/09 19:40:00,HALLWF2,8.68,AGL SA Generation Pty Limited,Hallett 2 Wind Farm,Wind,71.0,12.23,Hallett 2 Wind Farm,-33.367778,138.728611,2026-02-09T09:42:43.718381
2026/02/09 19:40:00,HD1WF1,18.48,Hawkesdale Asset Pty Ltd as trustee for Hawkesdale Asset Trust,Hawkesdale Wind Farm,Wind,89.0,20.76,Hawkesdale Wind Farm,-38.147894,142.361381,2026-02-09T09:42:43.718381
2026/02/09 19:40:00,HDWF1,29.3,HWF1 Pty Ltd,Hornsdale Wind Farm,Wind,102.0,28.73,Hornsdale Wind Farm,-33.050556,138.543611,2026-02-09T09:42:43.718381
2026/02/09 19:40:00,HDWF2,30.0,HWF 2 Pty Ltd,Hornsdale Wind Farm 2,Wind,102.0,29.41,Hornsdale Wind Farm 2,-33.06,138.54,2026-02-09T09:42:43.718381
2026/02/09 19:40:00,HDWF3,36.1,HWF3 Pty Ltd,Hornsdale Wind Farm 3,Wind,109.0,33.12,Hornsdale Wind Farm 3,-33.06,138.54,2026-02-09T09:42:43.718381
2026/02/09 19:40:00,KABANWF1,49.89,Kaban Wind Farm Pty Ltd as trustee for Kaban Wind Farm Trust,Kaban Wind Farm,Wind,152.0,32.82,Kaban Wind Farm,-17.56,145.41,2026-02-09T09:42:43.718381
2026/02/09 19:40:00,KEPWF1,11.8,Kennedy Energy Park Pty Ltd,Kennedy Energy Park,Wind,43.0,27.44,Kennedy Energy Park,-20.88,144.42,2026-02-09T09:42:43.718381
2026/02/09 19:40:00,KIATAWF1,11.1,Kiata ProjectCo Pty Ltd Atf Kiata Project Trust,Kiata Wind Farm,Wind,31.0,35.81,Kiata Wind Farm,-36.4,141.75,2026-02-09T09:42:43.718381
2026/02/09 19:40:00,LGAPWF1,48.26,Lincoln Gap Wind Farm (Operations) Pty Ltd,Lincoln Gap Wind Farm,Wind,123.0,39.24,Lincoln Gap Wind Farm,-32.564279,137.557328,2026-02-09T09:42:43.718381
2026/02/09 19:40:00,LGAPWF1,48.26,Lincoln Gap Wind Farm (Operations) Pty Ltd,Lincoln Gap Wind Farm,Wind,123.0,39.24,Lincoln Gap Wind Farm,-32.564279,137.557328,2026-02-09T09:42:43.718381
2026/02/09 19:40:00,LGAPWF2,37.8,Lincoln Gap Wind Farm (Operations) Pty Ltd,Lincoln Gap Wind Farm,Wind,85.0,44.47,Lincoln Gap Wind Farm,-32.564279,137.557328,2026-02-09T09:42:43.718381
2026/02/09 19:40:00,LGAPWF2,37.8,Lincoln Gap Wind Farm (Operations) Pty Ltd,Lincoln Gap Wind Farm,Wind,85.0,44.47,Lincoln Gap Wind Farm,-32.564279,137.557328,2026-02-09T09:42:43.718381
2026/02/09 19:40:00,LKBONNY1,15.0,Lake Bonney Wind Power Pty Ltd,Lake Bonney Wind Farm Stage 1,Wind,81.0,18.52,Lake Bonney Wind Farm Stage 1,-37.76,140.4,2026-02-09T09:42:43.718381
2026/02/09 19:40:00,LKBONNY2,38.82,Lake Bonney Wind Power Pty Ltd,Lake Bonney Stage 2 Windfarm,Wind,159.0,24.42,Lake Bonney Stage 2 Windfarm,-37.76,140.4,2026-02-09T09:42:43.718381
2026/02/09 19:40:00,LKBONNY3,9.1,Lake Bonney Wind Power Pty Ltd,Lake Bonney Stage 3 Wind Farm,Wind,39.0,23.33,Lake Bonney Stage 3 Wind Farm,-37.737781,140.388137,2026-02-09T09:42:43.718381
2026/02/09 19:40:00,MACARTH1,43.1,AGL Hydro Partnership,Macarthur Wind Farm,Wind,420.0,10.26,Macarthur Wind Farm,-38.048957,142.192112,2026-02-09T09:42:43.718381
2026/02/09 19:40:00,MCINTYR1,282.9,MacIntyre UJV Operator Pty Ltd,MacIntyre Wind Farm,Wind,890.0,31.79,MacIntyre Wind Farm,-28.32,151.54,2026-02-09T09:42:43.718381
2026/02/09 19:40:00,MERCER01,31.8,Mt Mercer Windfarm Pty Ltd,Mt Mercer Wind Farm,Wind,131.0,24.27,Mt Mercer Wind Farm,-37.841111,143.871111,2026-02-09T09:42:43.718381
2026/02/09 19:40:00,MEWF1,75.47,Ergon Energy Queensland Pty Ltd ,Mount Emerald Wind Farm,Wind,178.0,42.4,Mount Emerald Wind Farm,-17.133007,145.380644,2026-02-09T09:42:43.718381
2026/02/09 19:40:00,MRTLSWF1,42.51,Mortlake South Wind Farm Pty Ltd,Mortlake South Wind Farm,Wind,153.0,27.78,Mortlake South Wind Farm,-38.127337,142.857801,2026-02-09T09:42:43.718381
2026/02/09 19:40:00,MTGELWF1,13.76,Mt. Gellibrand Wind Farm Pty Ltd,Mt Gellibrand Wind Farm,Wind,132.0,10.42,Mt Gellibrand Wind Farm,-38.23,143.77,2026-02-09T09:42:43.718381
2026/02/09 19:40:00,MTMILLAR,21.1,Mt Millar Wind Farm Pty Ltd,Mt Millar Wind Farm,Wind,70.0,30.14,Mt Millar Wind Farm,-33.624444,136.703611,2026-02-09T09:42:43.718381
2026/02/09 19:40:00,MUSSELR1,0.0,Hydro-Electric Corporation,Musselroe Wind Farm,Wind,168.0,0.0,Musselroe Wind Farm,-40.780225,148.010799,2026-02-09T09:42:43.718381
2026/02/09 19:40:00,MUWAWF1,104.34,Telstra Energy (Generation) Pty Ltd,Murra Warra Wind Farm,Wind,225.7,46.23,Murra Warra Wind Farm,-36.432404,142.317853,2026-02-09T09:42:43.718381
2026/02/09 19:40:00,MUWAWF2,86.8,Murra Warra II Project Co Pty Ltd ATF The Murra Warra II Project Trust,Murra Warra Wind Farm Stage 2,Wind,203.0,42.76,Murra Warra Wind Farm Stage 2,-36.43,142.32,2026-02-09T09:42:43.718381
2026/02/09 19:40:00,NBHWF1,34.2,AGL SA Generation Pty Limited,North Brown Hill Wind Farm,Wind,132.0,25.91,North Brown Hill Wind Farm,-33.367778,138.728611,2026-02-09T09:42:43.718381
2026/02/09 19:40:00,OAKLAND1,24.3,AGL Hydro Partnership,Oaklands Hill Wind Farm,Wind,63.0,38.57,Oaklands Hill Wind Farm,-37.683078,142.551678,2026-02-09T09:42:43.718381
2026/02/09 19:40:00,PAREPW1,145.41,Iberdrola Australia Energy Markets Pty Limited,Port Augusta Renewable Energy Park,Wind,201.0,72.34,Port Augusta Renewable Energy Park,-32.566944,137.856111,2026-02-09T09:42:43.718381
2026/02/09 19:40:00,RYANCWF1,15.42,Ryan Corner Development Pty Ltd,Ryan Corner Wind Farm,Wind,205.0,7.52,Ryan Corner Wind Farm,-38.271017,142.140647,2026-02-09T09:42:43.718381
2026/02/09 19:40:00,RYEPARK1,115.25,Rye Park Renewable Energy Pty Ltd as trustee for Rye Park Wind Farm Trust,Rye Park Renewable Energy,Wind,384.0,30.01,Rye Park Renewable Energy,-32.138333,148.972778,2026-02-09T09:42:43.718381
2026/02/09 19:40:00,SALTCRK1,17.45,Salt Creek Wind Farm Pty Ltd,Salt Creek Wind Farm,Wind,54.0,32.31,Salt Creek Wind Farm,-37.95,142.63,2026-02-09T09:42:43.718381
2026/02/09 19:40:00,SAPHWF1,38.33,The Trustee For The SWF1 Operations Trust,Sapphire Wind Farm,Wind,270.0,14.2,Sapphire Wind Farm,-29.7,151.41,2026-02-09T09:42:43.718381
2026/02/09 19:40:00,SNOWNTH1,75.9,Snowtown Wind Farm Stage 2 Pty Ltd,Snowtown Wind Farm Stage 2 North,Wind,144.0,52.71,Snowtown Wind Farm Stage 2 North,-33.83,138.118611,2026-02-09T09:42:43.718381
2026/02/09 19:40:00,SNOWSTH1,44.1,Snowtown Wind Farm Stage 2 Pty Ltd,Snowtown South Wind Farm,Wind,126.0,35.0,Snowtown South Wind Farm,-33.83,138.118611,2026-02-09T09:42:43.718381
2026/02/09 19:40:00,SNOWTWN1,53.0,Snowtown Wind Farm Pty Ltd,Snowtown Wind Farm Units 1 And 47,Wind,99.0,53.54,Snowtown Wind Farm Units 1 And 47,-33.83,138.118611,2026-02-09T09:42:43.718381
2026/02/09 19:40:00,STARHLWF,20.39,Starfish Hill Wind Farm Pty Ltd,Starfish Hill Wind Farm,Wind,35.0,58.26,Starfish Hill Wind Farm,-35.58,138.14,2026-02-09T09:42:43.718381
2026/02/09 19:40:00,STOCKYD1,298.32,Stockyard Hill Wind Farm Pty Ltd,Stockyard Hill Wind Farm,Wind,511.0,58.38,Stockyard Hill Wind Farm,-37.535833,143.251389,2026-02-09T09:42:43.718381
2026/02/09 19:40:00,STWF1,11.02,PARF Company 8 Pty Ltd as The Trustee for Silverton Project Trust,Silverton Wind Farm,Wind,198.0,5.57,Silverton Wind Farm,-37.683168,142.551678,2026-02-09T09:42:43.718381
2026/02/09 19:40:00,TARALGA1,6.37,Taralga Wind Farm Nominees No 2 Pty Ltd (ATF Taralga Wind Farm Operating Trust),Taralga Wind Farm,Wind,106.0,6.01,Taralga Wind Farm,-34.42352,149.826267,2026-02-09T09:42:43.718381
2026/02/09 19:40:00,WAMBOWF1,45.01,Stanwell Corporation Limited,Wambo Wind Farm 1,Wind,245.0,18.37,Wambo Wind Farm 1,-35.187301,149.524945,2026-02-09T09:42:43.718381
2026/02/09 19:40:00,WATERLWF,1.7,Waterloo Wind Farm Pty Ltd,Waterloo Wind Farm,Wind,130.0,1.31,Waterloo Wind Farm,-34.00094,138.911567,2026-02-09T09:42:43.718381
2026/02/09 19:40:00,WGWF1,22.4,Willogoleche Power Pty Ltd As The Trustee For The Willogoleche Operating Trust,Willogoleche Wind Farm,Wind,119.0,18.82,Willogoleche Wind Farm,-33.39,138.85,2026-02-09T09:42:43.718381
2026/02/09 19:40:00,WOODLWN1,18.73,Woodlawn Wind Pty Ltd,Woodlawn Wind Farm,Wind,48.0,39.02,Woodlawn Wind Farm,-35.08,149.62,2026-02-09T09:42:43.718381
2026/02/09 19:40:00,WPWF,60.85,AGL SA Generation Pty Limited,Wattle Point Wind Farm,Wind,91.0,66.87,Wattle Point Wind Farm,-35.111624,137.7219,2026-02-09T09:42:43.718381
2026/02/09 19:40:00,WRWF1,0.35,White Rock Wind Farm Pty Ltd,White Rock Wind Farm,Wind,172.0,0.2,White Rock Wind Farm,-29.79,151.54,2026-02-09T09:42:43.718381
2026/02/09 19:40:00,YENDWF1,31.52,Lal Lal Wind Farms Nom Co Pty Ltd,Yendon Wind Farm,Wind,142.0,22.2,Yendon Wind Farm,-37.629987,144.022717,2026-02-09T09:42:43.718381
