SETTLEMENTDATE,DUID,SCADAVALUE,Participant,Station Name,Fuel Source - Primary,MAX_CAP,utilisation_pct,Plant,Latitude,Longitude,timestamp_utc
2026/02/28 23:50:00,CAPTL_WF,84.08,Iberdrola Australia Holdings Pty Limited,Capital Wind Farm,Wind,140.0,60.06,Capital Wind Farm,-35.1,149.31,2026-02-28T13:48:13.196292
2026/02/28 23:50:00,CHALLHWF,11.0,Pacific Hydro Challicum Hills Pty Ltd,Challicum Hills Wind Farm,Wind,52.0,21.15,Challicum Hills Wind Farm,-37.38,143.11,2026-02-28T13:48:13.196292
2026/02/28 23:50:00,CULLRGWF,26.18,Cullerin Range Wind Farm Pty Ltd,Cullerin Range Wind Farm,Wind,30.0,87.27,Cullerin Range Wind Farm,-34.81,149.4,2026-02-28T13:48:13.196292
2026/02/28 23:50:00,DIAPURWF1,8.3,Y.E.S. Energy (SA) Pty Ltd,Diapur Wind Farm,Wind,7.0,118.57,Diapur Wind Farm,-36.3425,141.43,2026-02-28T13:48:13.196292
2026/02/28 23:50:00,MLWF1,6.69,Mortons Lane Windfarm Pty Limited,Mortons Lane Wind Farm,Wind,20.0,33.45,Mortons Lane Wind Farm,-37.84,142.45,2026-02-28T13:48:13.196292
2026/02/28 23:50:00,WAUBRAWF,90.64,Pyrenees Wind Energy Developments Pty Ltd,Waubra Wind Farm,Wind,192.0,47.21,Waubra Wind Farm,-37.394498,143.638982,2026-02-28T13:48:13.196292
2026/02/28 23:50:00,WOOLNTH1,124.1,Hydro-Electric Corporation,Woolnorth Studland Bay / Bluff Point Wind Farm,Wind,140.0,88.64,Woolnorth Studland Bay / Bluff Point Wind Farm,-40.69,144.72,2026-02-28T13:48:13.196292
2026/02/28 23:50:00,YAMBUKWF,1.2,Energy Pacific (Vic) Pty Ltd,Yambuk Wind Farm,Wind,30.0,4.0,Yambuk Wind Farm,-38.299083,142.027577,2026-02-28T13:48:13.196292
2026/02/28 23:50:00,YSWF1,0.1,Pacific Hydro Yaloak South Pty Ltd,Yaloak South Wind Farm,Wind,28.0,0.36,Yaloak South Wind Farm,-37.7163,144.242853,2026-02-28T13:48:13.196292
2026/02/28 23:50:00,ARWF1,26.4,Ararat Wind Farm Pty Ltd,Ararat Wind Farm,Wind,241.0,10.95,Ararat Wind Farm,-37.232778,143.031389,2026-02-28T13:48:13.196292
2026/02/28 23:50:00,BALDHWF1,103.08,Alinta Energy Retail Sales Pty Ltd,Bald Hills Wind Farm,Wind,106.0,97.25,Bald Hills Wind Farm,-38.79,145.93,2026-02-28T13:48:13.196292
2026/02/28 23:50:00,BANGOWF1,102.1,BWF Nominees Pty Ltd as The Trustee for BWF Trust,Bango 973 Wind Farm,Wind,155.0,65.87,Bango 973 Wind Farm,-34.551582,148.732808,2026-02-28T13:48:13.196292
2026/02/28 23:50:00,BANGOWF2,58.0,BWF Nominees Pty Ltd as The Trustee for BWF Trust,Bango 999 Wind Farm,Wind,82.0,70.73,Bango 999 Wind Farm,-34.551582,148.732808,2026-02-28T13:48:13.196292
2026/02/28 23:50:00,BLUFF1,12.6,AGL SA Generation Pty Limited,The Bluff Wind Farm,Wind,53.0,23.77,The Bluff Wind Farm,-33.367778,138.728611,2026-02-28T13:48:13.196292
2026/02/28 23:50:00,BOCORWF1,58.92,Boco Rock Wind Farm Pty Ltd,Boco Rock Wind Farm,Wind,111.0,53.08,Boco Rock Wind Farm,-36.578611,149.103333,2026-02-28T13:48:13.196292
2026/02/28 23:50:00,BRYB1WF1,39.89,Berrybank Development Pty Ltd,Berrybank Wind Farm,Wind,175.9,22.68,Berrybank Wind Farm,-37.94,143.52,2026-02-28T13:48:13.196292
2026/02/28 23:50:00,BRYB2WF2,35.09,Berrybank 2 Asset Pty Ltd as trustee for Berrybank 2 Asset Trust,Berrybank 2 Wind Farm,Wind,105.0,33.42,Berrybank 2 Wind Farm,-37.94,143.52,2026-02-28T13:48:13.196292
2026/02/28 23:50:00,BULGANA1,12.91,Bulgana Wind Farm Pty Ltd,Bulgana Green Power Hub,Wind,204.0,6.33,Bulgana Green Power Hub,-37.0975,142.973611,2026-02-28T13:48:13.196292
2026/02/28 23:50:00,CATHROCK,17.8,Cathedral Rocks Wind Farm Pty Ltd,Cathedral Rocks,Wind,66.0,26.97,Cathedral Rocks,-34.51,135.35,2026-02-28T13:48:13.196292
2026/02/28 23:50:00,CHYTWF1,4.24,Cherry Tree Wind Farm Pty Ltd as trustee for The Cherry Tree Project trust ,Cherry Tree Wind Farm,Wind,57.0,7.44,Cherry Tree Wind Farm,-37.1,145.26,2026-02-28T13:48:13.196292
2026/02/28 23:50:00,CLEMGPWF,32.99,Pacific Hydro Clements Gap Pty Ltd,Clements Gap Wind Farm,Wind,57.0,57.88,Clements Gap Wind Farm,-33.48,138.1,2026-02-28T13:48:13.196292
2026/02/28 23:50:00,CLRKCWF1,258.91,Stanwell Corporation Limited ,Clarke Creek Wind Farm,Wind,338.0,76.6,Clarke Creek Wind Farm,-22.85,149.45,2026-02-28T13:48:13.196292
2026/02/28 23:50:00,CLRKCWF2,84.62,Stanwell Corporation Limited ,Clarke Creek Wind Farm,Wind,101.0,83.78,Clarke Creek Wind Farm,-22.85,149.45,2026-02-28T13:48:13.196292
2026/02/28 23:50:00,CNUNDAWF,12.81,Canunda Power Pty Ltd,Canunda Wind Farm,Wind,46.0,27.85,Canunda Wind Farm,-37.73,140.39,2026-02-28T13:48:13.196292
2026/02/28 23:50:00,COLWF01,119.4,Collector Wind Farm Pty Ltd,Collector Wind Farm 1,Wind,219.0,54.52,Collector Wind Farm 1,-34.8719,149.3967,2026-02-28T13:48:13.196292
2026/02/28 23:50:00,COOPGWF1,202.48,PARF Company 10 Pty Limited as The Trustee for Coopers Gap Project Trust,Coopers Gap Wind Farm,Wind,440.0,46.02,Coopers Gap Wind Farm,-26.74,151.45,2026-02-28T13:48:13.196292
2026/02/28 23:50:00,CROOKWF2,35.84,Crookwell Development Pty Ltd ,Crookwell 2 Wind Farm,Wind,91.0,39.38,Crookwell 2 Wind Farm,-34.52,149.54,2026-02-28T13:48:13.196292
2026/02/28 23:50:00,CROOKWF3,39.19,Crookwell 3 Development Pty Ltd,Crookwell 3 Wind Farm,Wind,56.0,69.98,Crookwell 3 Wind Farm,-34.52,149.54,2026-02-28T13:48:13.196292
2026/02/28 23:50:00,CROWLWF1,14.72,Pacific Hydro Crowlands Pty Ltd ,Crowlands Wind Farm,Wind,79.0,18.63,Crowlands Wind Farm,-37.13,143.16,2026-02-28T13:48:13.196292
2026/02/28 23:50:00,CRURWF1,117.0,CRWF Nominees Pty Ltd As Trustee For The CRWF Trust,Crudine Ridge Wind Farm,Wind,138.0,84.78,Crudine Ridge Wind Farm,-32.97,149.64,2026-02-28T13:48:13.196292
2026/02/28 23:50:00,CTHLWF1,44.53,Wild Cattle Hill Pty Ltd,Cattle Hill Wind Farm,Wind,144.0,30.92,Cattle Hill Wind Farm,-42.15,146.69,2026-02-28T13:48:13.196292
2026/02/28 23:50:00,DULAWF1,170.9,Dulacca Energy Project Co Pty Ltd,Dulacca Wind Farm,Wind,173.0,98.79,Dulacca Wind Farm,-26.63,149.87,2026-02-28T13:48:13.196292
2026/02/28 23:50:00,DUNDWF1,3.58,Dundonnell Wind Farm Pty Ltd,Dundonnell Wind Farm,Wind,168.0,2.13,Dundonnell Wind Farm,-37.52,142.58,2026-02-28T13:48:13.196292
2026/02/28 23:50:00,DUNDWF2,1.58,Dundonnell Wind Farm Pty Ltd,Dundonnell Wind Farm,Wind,46.0,3.43,Dundonnell Wind Farm,-37.52,142.58,2026-02-28T13:48:13.196292
2026/02/28 23:50:00,DUNDWF3,4.02,Dundonnell Wind Farm Pty Ltd,Dundonnell Wind Farm,Wind,122.0,3.3,Dundonnell Wind Farm,-37.52,142.58,2026-02-28T13:48:13.196292
2026/02/28 23:50:00,ELAINWF1,11.0,Lal Lal Wind Farms Nom Co Pty Ltd,Elaine Wind Farm,Wind,82.0,13.41,Elaine Wind Farm,-37.36,144.0,2026-02-28T13:48:13.196292
2026/02/28 23:50:00,FLYCRKWF,74.9,Iberdrola Australia Energy Markets Pty Limited,Flyers Creek Wind Farm,Wind,140.0,53.5,Flyers Creek Wind Farm,-33.365556,148.981944,2026-02-28T13:48:13.196292
2026/02/28 23:50:00,GPWFEST1,21.02,Golden Plains WF1 Pty Ltd as Trustee for the Golden Plains WF1 Unit Trust,Golden Plains Wind Farm East,Wind,240.0,8.76,Golden Plains Wind Farm East,-37.945091,143.752614,2026-02-28T13:48:13.196292
2026/02/28 23:50:00,GPWFEST2,16.55,Golden Plains WF1 Pty Ltd as Trustee for the Golden Plains WF1 Unit Trust,Golden Plains Wind Farm East,Wind,253.0,6.54,Golden Plains Wind Farm East,-37.945091,143.752614,2026-02-28T13:48:13.196292
2026/02/28 23:50:00,GPWFEST3,26.95,Golden Plains WF1 Pty Ltd as Trustee for the Golden Plains WF1 Unit Trust,Golden Plains Wind Farm East,Wind,240.0,11.23,Golden Plains Wind Farm East,-37.945091,143.752614,2026-02-28T13:48:13.196292
2026/02/28 23:50:00,GRANWF1,88.59,Granville Harbour Operations Pty Ltd as The Trustee for Granville Harbour Operations Trust,Granville Harbour Wind Farm,Wind,111.0,79.81,Granville Harbour Wind Farm,-41.8,145.06,2026-02-28T13:48:13.196292
2026/02/28 23:50:00,GSWF1A,148.27,Goyder Wind Farm 1 Pty Ltd as the Trustee for Goyder Wind Farm 1 Trust,Goyder South Wind Farm 1A,Wind,201.0,73.77,Goyder South Wind Farm 1A,-33.679758,138.937597,2026-02-28T13:48:13.196292
2026/02/28 23:50:00,GSWF1B1,107.21,Goyder Wind Farm 1B Pty Ltd as the Trustee for the Goyder Wind Farm 1B Trust,Goyder South Wind Farm 1B,Wind,196.0,54.7,Goyder South Wind Farm 1B,-33.679758,138.937597,2026-02-28T13:48:13.196292
2026/02/28 23:50:00,GULLRWF1,88.49,New Gullen Range Wind Farm Pty Ltd,Gullen Range Wind Farm,Wind,161.0,54.96,Gullen Range Wind Farm,-34.34,149.27,2026-02-28T13:48:13.196292
2026/02/28 23:50:00,GULLRWF2,107.79,New Gullen Range Wind Farm Pty Ltd,Gullen Range Wind Farm,Wind,107.0,100.74,Gullen Range Wind Farm,-34.34,149.27,2026-02-28T13:48:13.196292
2026/02/28 23:50:00,GUNNING1,45.45,Gunning Wind Energy Developments Pty Ltd,Gunning Wind Farm,Wind,47.0,96.7,Gunning Wind Farm,-34.813333,149.4,2026-02-28T13:48:13.196292
2026/02/28 23:50:00,HALLWF1,65.12,AGL SA Generation Pty Limited,Hallett 1 Wind Farm,Wind,95.0,68.55,Hallett 1 Wind Farm,-33.367778,138.728611,2026-02-28T13:48:13.196292
2026/02/28 23:50:00,HALLWF2,19.39,AGL SA Generation Pty Limited,Hallett 2 Wind Farm,Wind,71.0,27.31,Hallett 2 Wind Farm,-33.367778,138.728611,2026-02-28T13:48:13.196292
2026/02/28 23:50:00,HD1WF1,58.05,Hawkesdale Asset Pty Ltd as trustee for Hawkesdale Asset Trust,Hawkesdale Wind Farm,Wind,89.0,65.22,Hawkesdale Wind Farm,-38.147894,142.361381,2026-02-28T13:48:13.196292
2026/02/28 23:50:00,HDWF1,84.3,HWF1 Pty Ltd,Hornsdale Wind Farm,Wind,102.0,82.65,Hornsdale Wind Farm,-33.050556,138.543611,2026-02-28T13:48:13.196292
2026/02/28 23:50:00,HDWF2,98.6,HWF 2 Pty Ltd,Hornsdale Wind Farm 2,Wind,102.0,96.67,Hornsdale Wind Farm 2,-33.06,138.54,2026-02-28T13:48:13.196292
2026/02/28 23:50:00,HDWF3,95.0,HWF3 Pty Ltd,Hornsdale Wind Farm 3,Wind,109.0,87.16,Hornsdale Wind Farm 3,-33.06,138.54,2026-02-28T13:48:13.196292
2026/02/28 23:50:00,KABANWF1,32.74,Kaban Wind Farm Pty Ltd as trustee for Kaban Wind Farm Trust,Kaban Wind Farm,Wind,152.0,21.54,Kaban Wind Farm,-17.56,145.41,2026-02-28T13:48:13.196292
2026/02/28 23:50:00,KEPWF1,41.4,Kennedy Energy Park Pty Ltd,Kennedy Energy Park,Wind,43.0,96.28,Kennedy Energy Park,-20.88,144.42,2026-02-28T13:48:13.196292
2026/02/28 23:50:00,KIATAWF1,29.5,Kiata ProjectCo Pty Ltd Atf Kiata Project Trust,Kiata Wind Farm,Wind,31.0,95.16,Kiata Wind Farm,-36.4,141.75,2026-02-28T13:48:13.196292
2026/02/28 23:50:00,LGAPWF1,20.41,Lincoln Gap Wind Farm (Operations) Pty Ltd,Lincoln Gap Wind Farm,Wind,123.0,16.59,Lincoln Gap Wind Farm,-32.564279,137.557328,2026-02-28T13:48:13.196292
2026/02/28 23:50:00,LGAPWF1,20.41,Lincoln Gap Wind Farm (Operations) Pty Ltd,Lincoln Gap Wind Farm,Wind,123.0,16.59,Lincoln Gap Wind Farm,-32.564279,137.557328,2026-02-28T13:48:13.196292
2026/02/28 23:50:00,LGAPWF2,36.66,Lincoln Gap Wind Farm (Operations) Pty Ltd,Lincoln Gap Wind Farm,Wind,85.0,43.13,Lincoln Gap Wind Farm,-32.564279,137.557328,2026-02-28T13:48:13.196292
2026/02/28 23:50:00,LGAPWF2,36.66,Lincoln Gap Wind Farm (Operations) Pty Ltd,Lincoln Gap Wind Farm,Wind,85.0,43.13,Lincoln Gap Wind Farm,-32.564279,137.557328,2026-02-28T13:48:13.196292
2026/02/28 23:50:00,LKBONNY1,18.84,Lake Bonney Wind Power Pty Ltd,Lake Bonney Wind Farm Stage 1,Wind,81.0,23.26,Lake Bonney Wind Farm Stage 1,-37.76,140.4,2026-02-28T13:48:13.196292
2026/02/28 23:50:00,LKBONNY2,49.18,Lake Bonney Wind Power Pty Ltd,Lake Bonney Stage 2 Windfarm,Wind,159.0,30.93,Lake Bonney Stage 2 Windfarm,-37.76,140.4,2026-02-28T13:48:13.196292
2026/02/28 23:50:00,LKBONNY3,17.25,Lake Bonney Wind Power Pty Ltd,Lake Bonney Stage 3 Wind Farm,Wind,39.0,44.23,Lake Bonney Stage 3 Wind Farm,-37.737781,140.388137,2026-02-28T13:48:13.196292
2026/02/28 23:50:00,MACARTH1,1.7,AGL Hydro Partnership,Macarthur Wind Farm,Wind,420.0,0.4,Macarthur Wind Farm,-38.048957,142.192112,2026-02-28T13:48:13.196292
2026/02/28 23:50:00,MCINTYR1,250.45,MacIntyre UJV Operator Pty Ltd,MacIntyre Wind Farm,Wind,890.0,28.14,MacIntyre Wind Farm,-28.32,151.54,2026-02-28T13:48:13.196292
2026/02/28 23:50:00,MERCER01,18.1,Mt Mercer Windfarm Pty Ltd,Mt Mercer Wind Farm,Wind,131.0,13.82,Mt Mercer Wind Farm,-37.841111,143.871111,2026-02-28T13:48:13.196292
2026/02/28 23:50:00,MEWF1,37.49,Ergon Energy Queensland Pty Ltd ,Mount Emerald Wind Farm,Wind,178.0,21.06,Mount Emerald Wind Farm,-17.133007,145.380644,2026-02-28T13:48:13.196292
2026/02/28 23:50:00,MRTLSWF1,136.4,Mortlake South Wind Farm Pty Ltd,Mortlake South Wind Farm,Wind,153.0,89.15,Mortlake South Wind Farm,-38.127337,142.857801,2026-02-28T13:48:13.196292
2026/02/28 23:50:00,MTGELWF1,16.32,Mt. Gellibrand Wind Farm Pty Ltd,Mt Gellibrand Wind Farm,Wind,132.0,12.36,Mt Gellibrand Wind Farm,-38.23,143.77,2026-02-28T13:48:13.196292
2026/02/28 23:50:00,MTMILLAR,19.6,Mt Millar Wind Farm Pty Ltd,Mt Millar Wind Farm,Wind,70.0,28.0,Mt Millar Wind Farm,-33.624444,136.703611,2026-02-28T13:48:13.196292
2026/02/28 23:50:00,MUSSELR1,54.9,Hydro-Electric Corporation,Musselroe Wind Farm,Wind,168.0,32.68,Musselroe Wind Farm,-40.780225,148.010799,2026-02-28T13:48:13.196292
2026/02/28 23:50:00,MUWAWF1,85.11,Telstra Energy (Generation) Pty Ltd,Murra Warra Wind Farm,Wind,225.7,37.71,Murra Warra Wind Farm,-36.432404,142.317853,2026-02-28T13:48:13.196292
2026/02/28 23:50:00,MUWAWF2,99.4,Murra Warra II Project Co Pty Ltd ATF The Murra Warra II Project Trust,Murra Warra Wind Farm Stage 2,Wind,203.0,48.97,Murra Warra Wind Farm Stage 2,-36.43,142.32,2026-02-28T13:48:13.196292
2026/02/28 23:50:00,NBHWF1,106.5,AGL SA Generation Pty Limited,North Brown Hill Wind Farm,Wind,132.0,80.68,North Brown Hill Wind Farm,-33.367778,138.728611,2026-02-28T13:48:13.196292
2026/02/28 23:50:00,OAKLAND1,10.5,AGL Hydro Partnership,Oaklands Hill Wind Farm,Wind,63.0,16.67,Oaklands Hill Wind Farm,-37.683078,142.551678,2026-02-28T13:48:13.196292
2026/02/28 23:50:00,PAREPW1,162.23,Iberdrola Australia Energy Markets Pty Limited,Port Augusta Renewable Energy Park,Wind,201.0,80.71,Port Augusta Renewable Energy Park,-32.566944,137.856111,2026-02-28T13:48:13.196292
2026/02/28 23:50:00,RYANCWF1,34.6,Ryan Corner Development Pty Ltd,Ryan Corner Wind Farm,Wind,205.0,16.88,Ryan Corner Wind Farm,-38.271017,142.140647,2026-02-28T13:48:13.196292
2026/02/28 23:50:00,RYEPARK1,231.28,Rye Park Renewable Energy Pty Ltd as trustee for Rye Park Wind Farm Trust,Rye Park Renewable Energy,Wind,384.0,60.23,Rye Park Renewable Energy,-32.138333,148.972778,2026-02-28T13:48:13.196292
2026/02/28 23:50:00,SALTCRK1,6.3,Salt Creek Wind Farm Pty Ltd,Salt Creek Wind Farm,Wind,54.0,11.67,Salt Creek Wind Farm,-37.95,142.63,2026-02-28T13:48:13.196292
2026/02/28 23:50:00,SAPHWF1,240.96,The Trustee For The SWF1 Operations Trust,Sapphire Wind Farm,Wind,270.0,89.24,Sapphire Wind Farm,-29.7,151.41,2026-02-28T13:48:13.196292
2026/02/28 23:50:00,SNOWNTH1,47.1,Snowtown Wind Farm Stage 2 Pty Ltd,Snowtown Wind Farm Stage 2 North,Wind,144.0,32.71,Snowtown Wind Farm Stage 2 North,-33.83,138.118611,2026-02-28T13:48:13.196292
2026/02/28 23:50:00,SNOWSTH1,61.3,Snowtown Wind Farm Stage 2 Pty Ltd,Snowtown South Wind Farm,Wind,126.0,48.65,Snowtown South Wind Farm,-33.83,138.118611,2026-02-28T13:48:13.196292
2026/02/28 23:50:00,SNOWTWN1,60.67,Snowtown Wind Farm Pty Ltd,Snowtown Wind Farm Units 1 And 47,Wind,99.0,61.28,Snowtown Wind Farm Units 1 And 47,-33.83,138.118611,2026-02-28T13:48:13.196292
2026/02/28 23:50:00,STARHLWF,19.79,Starfish Hill Wind Farm Pty Ltd,Starfish Hill Wind Farm,Wind,35.0,56.54,Starfish Hill Wind Farm,-35.58,138.14,2026-02-28T13:48:13.196292
2026/02/28 23:50:00,STOCKYD1,230.96,Stockyard Hill Wind Farm Pty Ltd,Stockyard Hill Wind Farm,Wind,511.0,45.2,Stockyard Hill Wind Farm,-37.535833,143.251389,2026-02-28T13:48:13.196292
2026/02/28 23:50:00,STWF1,42.4,PARF Company 8 Pty Ltd as The Trustee for Silverton Project Trust,Silverton Wind Farm,Wind,198.0,21.41,Silverton Wind Farm,-37.683168,142.551678,2026-02-28T13:48:13.196292
2026/02/28 23:50:00,TARALGA1,47.79,Taralga Wind Farm Nominees No 2 Pty Ltd (ATF Taralga Wind Farm Operating Trust),Taralga Wind Farm,Wind,106.0,45.08,Taralga Wind Farm,-34.42352,149.826267,2026-02-28T13:48:13.196292
2026/02/28 23:50:00,WAMBOWF1,81.8,Stanwell Corporation Limited,Wambo Wind Farm 1,Wind,245.0,33.39,Wambo Wind Farm 1,-35.187301,149.524945,2026-02-28T13:48:13.196292
2026/02/28 23:50:00,WATERLWF,93.2,Waterloo Wind Farm Pty Ltd,Waterloo Wind Farm,Wind,130.0,71.69,Waterloo Wind Farm,-34.00094,138.911567,2026-02-28T13:48:13.196292
2026/02/28 23:50:00,WGWF1,59.5,Willogoleche Power Pty Ltd As The Trustee For The Willogoleche Operating Trust,Willogoleche Wind Farm,Wind,119.0,50.0,Willogoleche Wind Farm,-33.39,138.85,2026-02-28T13:48:13.196292
2026/02/28 23:50:00,WOODLWN1,38.16,Woodlawn Wind Pty Ltd,Woodlawn Wind Farm,Wind,48.0,79.5,Woodlawn Wind Farm,-35.08,149.62,2026-02-28T13:48:13.196292
2026/02/28 23:50:00,WPWF,44.66,AGL SA Generation Pty Limited,Wattle Point Wind Farm,Wind,91.0,49.08,Wattle Point Wind Farm,-35.111624,137.7219,2026-02-28T13:48:13.196292
2026/02/28 23:50:00,WRWF1,161.69,White Rock Wind Farm Pty Ltd,White Rock Wind Farm,Wind,172.0,94.01,White Rock Wind Farm,-29.79,151.54,2026-02-28T13:48:13.196292
2026/02/28 23:50:00,YENDWF1,19.09,Lal Lal Wind Farms Nom Co Pty Ltd,Yendon Wind Farm,Wind,142.0,13.44,Yendon Wind Farm,-37.629987,144.022717,2026-02-28T13:48:13.196292
