SETTLEMENTDATE,DUID,SCADAVALUE,Participant,Station Name,Fuel Source - Primary,MAX_CAP,utilisation_pct,Plant,Latitude,Longitude,timestamp_utc
2026/02/06 18:25:00,CAPTL_WF,109.51,Iberdrola Australia Holdings Pty Limited,Capital Wind Farm,Wind,140.0,78.22,Capital Wind Farm,-35.1,149.31,2026-02-06T08:24:06.147356
2026/02/06 18:25:00,CHALLHWF,3.2,Pacific Hydro Challicum Hills Pty Ltd,Challicum Hills Wind Farm,Wind,52.0,6.15,Challicum Hills Wind Farm,-37.38,143.11,2026-02-06T08:24:06.147356
2026/02/06 18:25:00,CULLRGWF,12.2,Cullerin Range Wind Farm Pty Ltd,Cullerin Range Wind Farm,Wind,30.0,40.67,Cullerin Range Wind Farm,-34.81,149.4,2026-02-06T08:24:06.147356
2026/02/06 18:25:00,DIAPURWF1,1.9,Y.E.S. Energy (SA) Pty Ltd,Diapur Wind Farm,Wind,7.0,27.14,Diapur Wind Farm,-36.3425,141.43,2026-02-06T08:24:06.147356
2026/02/06 18:25:00,MLWF1,6.64,Mortons Lane Windfarm Pty Limited,Mortons Lane Wind Farm,Wind,20.0,33.2,Mortons Lane Wind Farm,-37.84,142.45,2026-02-06T08:24:06.147356
2026/02/06 18:25:00,WAUBRAWF,23.23,Pyrenees Wind Energy Developments Pty Ltd,Waubra Wind Farm,Wind,192.0,12.1,Waubra Wind Farm,-37.394498,143.638982,2026-02-06T08:24:06.147356
2026/02/06 18:25:00,WOOLNTH1,42.61,Hydro-Electric Corporation,Woolnorth Studland Bay / Bluff Point Wind Farm,Wind,140.0,30.44,Woolnorth Studland Bay / Bluff Point Wind Farm,-40.69,144.72,2026-02-06T08:24:06.147356
2026/02/06 18:25:00,YAMBUKWF,2.8,Energy Pacific (Vic) Pty Ltd,Yambuk Wind Farm,Wind,30.0,9.33,Yambuk Wind Farm,-38.299083,142.027577,2026-02-06T08:24:06.147356
2026/02/06 18:25:00,YSWF1,4.5,Pacific Hydro Yaloak South Pty Ltd,Yaloak South Wind Farm,Wind,28.0,16.07,Yaloak South Wind Farm,-37.7163,144.242853,2026-02-06T08:24:06.147356
2026/02/06 18:25:00,ARWF1,18.1,Ararat Wind Farm Pty Ltd,Ararat Wind Farm,Wind,241.0,7.51,Ararat Wind Farm,-37.232778,143.031389,2026-02-06T08:24:06.147356
2026/02/06 18:25:00,BALDHWF1,2.24,Alinta Energy Retail Sales Pty Ltd,Bald Hills Wind Farm,Wind,106.0,2.11,Bald Hills Wind Farm,-38.79,145.93,2026-02-06T08:24:06.147356
2026/02/06 18:25:00,BANGOWF1,39.0,BWF Nominees Pty Ltd as The Trustee for BWF Trust,Bango 973 Wind Farm,Wind,155.0,25.16,Bango 973 Wind Farm,-34.551582,148.732808,2026-02-06T08:24:06.147356
2026/02/06 18:25:00,BANGOWF2,25.4,BWF Nominees Pty Ltd as The Trustee for BWF Trust,Bango 999 Wind Farm,Wind,82.0,30.98,Bango 999 Wind Farm,-34.551582,148.732808,2026-02-06T08:24:06.147356
2026/02/06 18:25:00,BLUFF1,9.3,AGL SA Generation Pty Limited,The Bluff Wind Farm,Wind,53.0,17.55,The Bluff Wind Farm,-33.367778,138.728611,2026-02-06T08:24:06.147356
2026/02/06 18:25:00,BOCORWF1,52.78,Boco Rock Wind Farm Pty Ltd,Boco Rock Wind Farm,Wind,111.0,47.55,Boco Rock Wind Farm,-36.578611,149.103333,2026-02-06T08:24:06.147356
2026/02/06 18:25:00,BRYB1WF1,38.3,Berrybank Development Pty Ltd,Berrybank Wind Farm,Wind,175.9,21.77,Berrybank Wind Farm,-37.94,143.52,2026-02-06T08:24:06.147356
2026/02/06 18:25:00,BRYB2WF2,28.53,Berrybank 2 Asset Pty Ltd as trustee for Berrybank 2 Asset Trust,Berrybank 2 Wind Farm,Wind,105.0,27.17,Berrybank 2 Wind Farm,-37.94,143.52,2026-02-06T08:24:06.147356
2026/02/06 18:25:00,BULGANA1,15.17,Bulgana Wind Farm Pty Ltd,Bulgana Green Power Hub,Wind,204.0,7.44,Bulgana Green Power Hub,-37.0975,142.973611,2026-02-06T08:24:06.147356
2026/02/06 18:25:00,CATHROCK,16.6,Cathedral Rocks Wind Farm Pty Ltd,Cathedral Rocks,Wind,66.0,25.15,Cathedral Rocks,-34.51,135.35,2026-02-06T08:24:06.147356
2026/02/06 18:25:00,CHYTWF1,12.09,Cherry Tree Wind Farm Pty Ltd as trustee for The Cherry Tree Project trust ,Cherry Tree Wind Farm,Wind,57.0,21.21,Cherry Tree Wind Farm,-37.1,145.26,2026-02-06T08:24:06.147356
2026/02/06 18:25:00,CLEMGPWF,17.5,Pacific Hydro Clements Gap Pty Ltd,Clements Gap Wind Farm,Wind,57.0,30.7,Clements Gap Wind Farm,-33.48,138.1,2026-02-06T08:24:06.147356
2026/02/06 18:25:00,CLRKCWF1,237.77,Stanwell Corporation Limited ,Clarke Creek Wind Farm,Wind,338.0,70.35,Clarke Creek Wind Farm,-22.85,149.45,2026-02-06T08:24:06.147356
2026/02/06 18:25:00,CLRKCWF2,65.72,Stanwell Corporation Limited ,Clarke Creek Wind Farm,Wind,101.0,65.07,Clarke Creek Wind Farm,-22.85,149.45,2026-02-06T08:24:06.147356
2026/02/06 18:25:00,CNUNDAWF,7.01,Canunda Power Pty Ltd,Canunda Wind Farm,Wind,46.0,15.24,Canunda Wind Farm,-37.73,140.39,2026-02-06T08:24:06.147356
2026/02/06 18:25:00,COLWF01,38.83,Collector Wind Farm Pty Ltd,Collector Wind Farm 1,Wind,219.0,17.73,Collector Wind Farm 1,-34.8719,149.3967,2026-02-06T08:24:06.147356
2026/02/06 18:25:00,COOPGWF1,182.79,PARF Company 10 Pty Limited as The Trustee for Coopers Gap Project Trust,Coopers Gap Wind Farm,Wind,440.0,41.54,Coopers Gap Wind Farm,-26.74,151.45,2026-02-06T08:24:06.147356
2026/02/06 18:25:00,CROOKWF2,14.48,Crookwell Development Pty Ltd ,Crookwell 2 Wind Farm,Wind,91.0,15.91,Crookwell 2 Wind Farm,-34.52,149.54,2026-02-06T08:24:06.147356
2026/02/06 18:25:00,CROOKWF3,6.71,Crookwell 3 Development Pty Ltd,Crookwell 3 Wind Farm,Wind,56.0,11.98,Crookwell 3 Wind Farm,-34.52,149.54,2026-02-06T08:24:06.147356
2026/02/06 18:25:00,CROWLWF1,5.14,Pacific Hydro Crowlands Pty Ltd ,Crowlands Wind Farm,Wind,79.0,6.51,Crowlands Wind Farm,-37.13,143.16,2026-02-06T08:24:06.147356
2026/02/06 18:25:00,CRURWF1,22.5,CRWF Nominees Pty Ltd As Trustee For The CRWF Trust,Crudine Ridge Wind Farm,Wind,138.0,16.3,Crudine Ridge Wind Farm,-32.97,149.64,2026-02-06T08:24:06.147356
2026/02/06 18:25:00,CTHLWF1,58.07,Wild Cattle Hill Pty Ltd,Cattle Hill Wind Farm,Wind,144.0,40.33,Cattle Hill Wind Farm,-42.15,146.69,2026-02-06T08:24:06.147356
2026/02/06 18:25:00,DULAWF1,93.7,Dulacca Energy Project Co Pty Ltd,Dulacca Wind Farm,Wind,173.0,54.16,Dulacca Wind Farm,-26.63,149.87,2026-02-06T08:24:06.147356
2026/02/06 18:25:00,DUNDWF1,79.74,Dundonnell Wind Farm Pty Ltd,Dundonnell Wind Farm,Wind,168.0,47.46,Dundonnell Wind Farm,-37.52,142.58,2026-02-06T08:24:06.147356
2026/02/06 18:25:00,DUNDWF2,23.38,Dundonnell Wind Farm Pty Ltd,Dundonnell Wind Farm,Wind,46.0,50.83,Dundonnell Wind Farm,-37.52,142.58,2026-02-06T08:24:06.147356
2026/02/06 18:25:00,DUNDWF3,49.76,Dundonnell Wind Farm Pty Ltd,Dundonnell Wind Farm,Wind,122.0,40.79,Dundonnell Wind Farm,-37.52,142.58,2026-02-06T08:24:06.147356
2026/02/06 18:25:00,ELAINWF1,13.96,Lal Lal Wind Farms Nom Co Pty Ltd,Elaine Wind Farm,Wind,82.0,17.02,Elaine Wind Farm,-37.36,144.0,2026-02-06T08:24:06.147356
2026/02/06 18:25:00,FLYCRKWF,52.74,Iberdrola Australia Energy Markets Pty Limited,Flyers Creek Wind Farm,Wind,140.0,37.67,Flyers Creek Wind Farm,-33.365556,148.981944,2026-02-06T08:24:06.147356
2026/02/06 18:25:00,GPWFEST1,75.19,Golden Plains WF1 Pty Ltd as Trustee for the Golden Plains WF1 Unit Trust,Golden Plains Wind Farm East,Wind,240.0,31.33,Golden Plains Wind Farm East,-37.945091,143.752614,2026-02-06T08:24:06.147356
2026/02/06 18:25:00,GPWFEST2,68.15,Golden Plains WF1 Pty Ltd as Trustee for the Golden Plains WF1 Unit Trust,Golden Plains Wind Farm East,Wind,253.0,26.94,Golden Plains Wind Farm East,-37.945091,143.752614,2026-02-06T08:24:06.147356
2026/02/06 18:25:00,GPWFEST3,63.24,Golden Plains WF1 Pty Ltd as Trustee for the Golden Plains WF1 Unit Trust,Golden Plains Wind Farm East,Wind,240.0,26.35,Golden Plains Wind Farm East,-37.945091,143.752614,2026-02-06T08:24:06.147356
2026/02/06 18:25:00,GRANWF1,26.12,Granville Harbour Operations Pty Ltd as The Trustee for Granville Harbour Operations Trust,Granville Harbour Wind Farm,Wind,111.0,23.53,Granville Harbour Wind Farm,-41.8,145.06,2026-02-06T08:24:06.147356
2026/02/06 18:25:00,GSWF1A,107.93,Goyder Wind Farm 1 Pty Ltd as the Trustee for Goyder Wind Farm 1 Trust,Goyder South Wind Farm 1A,Wind,201.0,53.7,Goyder South Wind Farm 1A,-33.679758,138.937597,2026-02-06T08:24:06.147356
2026/02/06 18:25:00,GSWF1B1,123.86,Goyder Wind Farm 1B Pty Ltd as the Trustee for the Goyder Wind Farm 1B Trust,Goyder South Wind Farm 1B,Wind,196.0,63.19,Goyder South Wind Farm 1B,-33.679758,138.937597,2026-02-06T08:24:06.147356
2026/02/06 18:25:00,GULLRWF1,2.9,New Gullen Range Wind Farm Pty Ltd,Gullen Range Wind Farm,Wind,161.0,1.8,Gullen Range Wind Farm,-34.34,149.27,2026-02-06T08:24:06.147356
2026/02/06 18:25:00,GULLRWF2,10.29,New Gullen Range Wind Farm Pty Ltd,Gullen Range Wind Farm,Wind,107.0,9.62,Gullen Range Wind Farm,-34.34,149.27,2026-02-06T08:24:06.147356
2026/02/06 18:25:00,GUNNING1,0.81,Gunning Wind Energy Developments Pty Ltd,Gunning Wind Farm,Wind,47.0,1.72,Gunning Wind Farm,-34.813333,149.4,2026-02-06T08:24:06.147356
2026/02/06 18:25:00,HALLWF1,61.88,AGL SA Generation Pty Limited,Hallett 1 Wind Farm,Wind,95.0,65.14,Hallett 1 Wind Farm,-33.367778,138.728611,2026-02-06T08:24:06.147356
2026/02/06 18:25:00,HALLWF2,55.59,AGL SA Generation Pty Limited,Hallett 2 Wind Farm,Wind,71.0,78.3,Hallett 2 Wind Farm,-33.367778,138.728611,2026-02-06T08:24:06.147356
2026/02/06 18:25:00,HD1WF1,17.46,Hawkesdale Asset Pty Ltd as trustee for Hawkesdale Asset Trust,Hawkesdale Wind Farm,Wind,89.0,19.62,Hawkesdale Wind Farm,-38.147894,142.361381,2026-02-06T08:24:06.147356
2026/02/06 18:25:00,HDWF1,38.9,HWF1 Pty Ltd,Hornsdale Wind Farm,Wind,102.0,38.14,Hornsdale Wind Farm,-33.050556,138.543611,2026-02-06T08:24:06.147356
2026/02/06 18:25:00,HDWF2,47.1,HWF 2 Pty Ltd,Hornsdale Wind Farm 2,Wind,102.0,46.18,Hornsdale Wind Farm 2,-33.06,138.54,2026-02-06T08:24:06.147356
2026/02/06 18:25:00,HDWF3,55.0,HWF3 Pty Ltd,Hornsdale Wind Farm 3,Wind,109.0,50.46,Hornsdale Wind Farm 3,-33.06,138.54,2026-02-06T08:24:06.147356
2026/02/06 18:25:00,KABANWF1,42.39,Kaban Wind Farm Pty Ltd as trustee for Kaban Wind Farm Trust,Kaban Wind Farm,Wind,152.0,27.89,Kaban Wind Farm,-17.56,145.41,2026-02-06T08:24:06.147356
2026/02/06 18:25:00,KEPWF1,7.9,Kennedy Energy Park Pty Ltd,Kennedy Energy Park,Wind,43.0,18.37,Kennedy Energy Park,-20.88,144.42,2026-02-06T08:24:06.147356
2026/02/06 18:25:00,KIATAWF1,7.1,Kiata ProjectCo Pty Ltd Atf Kiata Project Trust,Kiata Wind Farm,Wind,31.0,22.9,Kiata Wind Farm,-36.4,141.75,2026-02-06T08:24:06.147356
2026/02/06 18:25:00,LGAPWF1,69.21,Lincoln Gap Wind Farm (Operations) Pty Ltd,Lincoln Gap Wind Farm,Wind,123.0,56.27,Lincoln Gap Wind Farm,-32.564279,137.557328,2026-02-06T08:24:06.147356
2026/02/06 18:25:00,LGAPWF1,69.21,Lincoln Gap Wind Farm (Operations) Pty Ltd,Lincoln Gap Wind Farm,Wind,123.0,56.27,Lincoln Gap Wind Farm,-32.564279,137.557328,2026-02-06T08:24:06.147356
2026/02/06 18:25:00,LGAPWF2,64.87,Lincoln Gap Wind Farm (Operations) Pty Ltd,Lincoln Gap Wind Farm,Wind,85.0,76.32,Lincoln Gap Wind Farm,-32.564279,137.557328,2026-02-06T08:24:06.147356
2026/02/06 18:25:00,LGAPWF2,64.87,Lincoln Gap Wind Farm (Operations) Pty Ltd,Lincoln Gap Wind Farm,Wind,85.0,76.32,Lincoln Gap Wind Farm,-32.564279,137.557328,2026-02-06T08:24:06.147356
2026/02/06 18:25:00,LKBONNY1,12.86,Lake Bonney Wind Power Pty Ltd,Lake Bonney Wind Farm Stage 1,Wind,81.0,15.88,Lake Bonney Wind Farm Stage 1,-37.76,140.4,2026-02-06T08:24:06.147356
2026/02/06 18:25:00,LKBONNY2,16.82,Lake Bonney Wind Power Pty Ltd,Lake Bonney Stage 2 Windfarm,Wind,159.0,10.58,Lake Bonney Stage 2 Windfarm,-37.76,140.4,2026-02-06T08:24:06.147356
2026/02/06 18:25:00,LKBONNY3,3.74,Lake Bonney Wind Power Pty Ltd,Lake Bonney Stage 3 Wind Farm,Wind,39.0,9.59,Lake Bonney Stage 3 Wind Farm,-37.737781,140.388137,2026-02-06T08:24:06.147356
2026/02/06 18:25:00,MACARTH1,76.4,AGL Hydro Partnership,Macarthur Wind Farm,Wind,420.0,18.19,Macarthur Wind Farm,-38.048957,142.192112,2026-02-06T08:24:06.147356
2026/02/06 18:25:00,MCINTYR1,286.29,MacIntyre UJV Operator Pty Ltd,MacIntyre Wind Farm,Wind,890.0,32.17,MacIntyre Wind Farm,-28.32,151.54,2026-02-06T08:24:06.147356
2026/02/06 18:25:00,MERCER01,23.5,Mt Mercer Windfarm Pty Ltd,Mt Mercer Wind Farm,Wind,131.0,17.94,Mt Mercer Wind Farm,-37.841111,143.871111,2026-02-06T08:24:06.147356
2026/02/06 18:25:00,MEWF1,47.73,Ergon Energy Queensland Pty Ltd ,Mount Emerald Wind Farm,Wind,178.0,26.81,Mount Emerald Wind Farm,-17.133007,145.380644,2026-02-06T08:24:06.147356
2026/02/06 18:25:00,MRTLSWF1,42.29,Mortlake South Wind Farm Pty Ltd,Mortlake South Wind Farm,Wind,153.0,27.64,Mortlake South Wind Farm,-38.127337,142.857801,2026-02-06T08:24:06.147356
2026/02/06 18:25:00,MTGELWF1,24.77,Mt. Gellibrand Wind Farm Pty Ltd,Mt Gellibrand Wind Farm,Wind,132.0,18.77,Mt Gellibrand Wind Farm,-38.23,143.77,2026-02-06T08:24:06.147356
2026/02/06 18:25:00,MTMILLAR,32.1,Mt Millar Wind Farm Pty Ltd,Mt Millar Wind Farm,Wind,70.0,45.86,Mt Millar Wind Farm,-33.624444,136.703611,2026-02-06T08:24:06.147356
2026/02/06 18:25:00,MUSSELR1,138.6,Hydro-Electric Corporation,Musselroe Wind Farm,Wind,168.0,82.5,Musselroe Wind Farm,-40.780225,148.010799,2026-02-06T08:24:06.147356
2026/02/06 18:25:00,MUWAWF1,50.19,Telstra Energy (Generation) Pty Ltd,Murra Warra Wind Farm,Wind,225.7,22.24,Murra Warra Wind Farm,-36.432404,142.317853,2026-02-06T08:24:06.147356
2026/02/06 18:25:00,MUWAWF2,32.3,Murra Warra II Project Co Pty Ltd ATF The Murra Warra II Project Trust,Murra Warra Wind Farm Stage 2,Wind,203.0,15.91,Murra Warra Wind Farm Stage 2,-36.43,142.32,2026-02-06T08:24:06.147356
2026/02/06 18:25:00,NBHWF1,90.3,AGL SA Generation Pty Limited,North Brown Hill Wind Farm,Wind,132.0,68.41,North Brown Hill Wind Farm,-33.367778,138.728611,2026-02-06T08:24:06.147356
2026/02/06 18:25:00,OAKLAND1,27.7,AGL Hydro Partnership,Oaklands Hill Wind Farm,Wind,63.0,43.97,Oaklands Hill Wind Farm,-37.683078,142.551678,2026-02-06T08:24:06.147356
2026/02/06 18:25:00,PAREPW1,108.15,Iberdrola Australia Energy Markets Pty Limited,Port Augusta Renewable Energy Park,Wind,201.0,53.81,Port Augusta Renewable Energy Park,-32.566944,137.856111,2026-02-06T08:24:06.147356
2026/02/06 18:25:00,RYANCWF1,20.98,Ryan Corner Development Pty Ltd,Ryan Corner Wind Farm,Wind,205.0,10.23,Ryan Corner Wind Farm,-38.271017,142.140647,2026-02-06T08:24:06.147356
2026/02/06 18:25:00,RYEPARK1,52.87,Rye Park Renewable Energy Pty Ltd as trustee for Rye Park Wind Farm Trust,Rye Park Renewable Energy,Wind,384.0,13.77,Rye Park Renewable Energy,-32.138333,148.972778,2026-02-06T08:24:06.147356
2026/02/06 18:25:00,SALTCRK1,18.59,Salt Creek Wind Farm Pty Ltd,Salt Creek Wind Farm,Wind,54.0,34.43,Salt Creek Wind Farm,-37.95,142.63,2026-02-06T08:24:06.147356
2026/02/06 18:25:00,SAPHWF1,195.23,The Trustee For The SWF1 Operations Trust,Sapphire Wind Farm,Wind,270.0,72.31,Sapphire Wind Farm,-29.7,151.41,2026-02-06T08:24:06.147356
2026/02/06 18:25:00,SNOWNTH1,64.8,Snowtown Wind Farm Stage 2 Pty Ltd,Snowtown Wind Farm Stage 2 North,Wind,144.0,45.0,Snowtown Wind Farm Stage 2 North,-33.83,138.118611,2026-02-06T08:24:06.147356
2026/02/06 18:25:00,SNOWSTH1,77.7,Snowtown Wind Farm Stage 2 Pty Ltd,Snowtown South Wind Farm,Wind,126.0,61.67,Snowtown South Wind Farm,-33.83,138.118611,2026-02-06T08:24:06.147356
2026/02/06 18:25:00,SNOWTWN1,54.75,Snowtown Wind Farm Pty Ltd,Snowtown Wind Farm Units 1 And 47,Wind,99.0,55.3,Snowtown Wind Farm Units 1 And 47,-33.83,138.118611,2026-02-06T08:24:06.147356
2026/02/06 18:25:00,STARHLWF,20.49,Starfish Hill Wind Farm Pty Ltd,Starfish Hill Wind Farm,Wind,35.0,58.54,Starfish Hill Wind Farm,-35.58,138.14,2026-02-06T08:24:06.147356
2026/02/06 18:25:00,STOCKYD1,32.58,Stockyard Hill Wind Farm Pty Ltd,Stockyard Hill Wind Farm,Wind,511.0,6.38,Stockyard Hill Wind Farm,-37.535833,143.251389,2026-02-06T08:24:06.147356
2026/02/06 18:25:00,STWF1,0.42,PARF Company 8 Pty Ltd as The Trustee for Silverton Project Trust,Silverton Wind Farm,Wind,198.0,0.21,Silverton Wind Farm,-37.683168,142.551678,2026-02-06T08:24:06.147356
2026/02/06 18:25:00,TARALGA1,34.84,Taralga Wind Farm Nominees No 2 Pty Ltd (ATF Taralga Wind Farm Operating Trust),Taralga Wind Farm,Wind,106.0,32.87,Taralga Wind Farm,-34.42352,149.826267,2026-02-06T08:24:06.147356
2026/02/06 18:25:00,WAMBOWF1,74.46,Stanwell Corporation Limited,Wambo Wind Farm 1,Wind,245.0,30.39,Wambo Wind Farm 1,-35.187301,149.524945,2026-02-06T08:24:06.147356
2026/02/06 18:25:00,WATERLWF,15.8,Waterloo Wind Farm Pty Ltd,Waterloo Wind Farm,Wind,130.0,12.15,Waterloo Wind Farm,-34.00094,138.911567,2026-02-06T08:24:06.147356
2026/02/06 18:25:00,WGWF1,55.4,Willogoleche Power Pty Ltd As The Trustee For The Willogoleche Operating Trust,Willogoleche Wind Farm,Wind,119.0,46.55,Willogoleche Wind Farm,-33.39,138.85,2026-02-06T08:24:06.147356
2026/02/06 18:25:00,WOODLWN1,20.62,Woodlawn Wind Pty Ltd,Woodlawn Wind Farm,Wind,48.0,42.96,Woodlawn Wind Farm,-35.08,149.62,2026-02-06T08:24:06.147356
2026/02/06 18:25:00,WPWF,73.98,AGL SA Generation Pty Limited,Wattle Point Wind Farm,Wind,91.0,81.3,Wattle Point Wind Farm,-35.111624,137.7219,2026-02-06T08:24:06.147356
2026/02/06 18:25:00,WRWF1,103.53,White Rock Wind Farm Pty Ltd,White Rock Wind Farm,Wind,172.0,60.19,White Rock Wind Farm,-29.79,151.54,2026-02-06T08:24:06.147356
2026/02/06 18:25:00,YENDWF1,25.09,Lal Lal Wind Farms Nom Co Pty Ltd,Yendon Wind Farm,Wind,142.0,17.67,Yendon Wind Farm,-37.629987,144.022717,2026-02-06T08:24:06.147356
