SETTLEMENTDATE,DUID,SCADAVALUE,Participant,Station Name,Fuel Source - Primary,MAX_CAP,utilisation_pct,Plant,Latitude,Longitude,timestamp_utc
2026/02/13 06:55:00,CAPTL_WF,13.83,Iberdrola Australia Holdings Pty Limited,Capital Wind Farm,Wind,140.0,9.88,Capital Wind Farm,-35.1,149.31,2026-02-12T20:51:46.080598
2026/02/13 06:55:00,CHALLHWF,34.6,Pacific Hydro Challicum Hills Pty Ltd,Challicum Hills Wind Farm,Wind,52.0,66.54,Challicum Hills Wind Farm,-37.38,143.11,2026-02-12T20:51:46.080598
2026/02/13 06:55:00,CULLRGWF,17.18,Cullerin Range Wind Farm Pty Ltd,Cullerin Range Wind Farm,Wind,30.0,57.27,Cullerin Range Wind Farm,-34.81,149.4,2026-02-12T20:51:46.080598
2026/02/13 06:55:00,DIAPURWF1,4.1,Y.E.S. Energy (SA) Pty Ltd,Diapur Wind Farm,Wind,7.0,58.57,Diapur Wind Farm,-36.3425,141.43,2026-02-12T20:51:46.080598
2026/02/13 06:55:00,MLWF1,1.44,Mortons Lane Windfarm Pty Limited,Mortons Lane Wind Farm,Wind,20.0,7.2,Mortons Lane Wind Farm,-37.84,142.45,2026-02-12T20:51:46.080598
2026/02/13 06:55:00,WAUBRAWF,102.13,Pyrenees Wind Energy Developments Pty Ltd,Waubra Wind Farm,Wind,192.0,53.19,Waubra Wind Farm,-37.394498,143.638982,2026-02-12T20:51:46.080598
2026/02/13 06:55:00,WOOLNTH1,44.39,Hydro-Electric Corporation,Woolnorth Studland Bay / Bluff Point Wind Farm,Wind,140.0,31.71,Woolnorth Studland Bay / Bluff Point Wind Farm,-40.69,144.72,2026-02-12T20:51:46.080598
2026/02/13 06:55:00,YAMBUKWF,4.7,Energy Pacific (Vic) Pty Ltd,Yambuk Wind Farm,Wind,30.0,15.67,Yambuk Wind Farm,-38.299083,142.027577,2026-02-12T20:51:46.080598
2026/02/13 06:55:00,YSWF1,6.6,Pacific Hydro Yaloak South Pty Ltd,Yaloak South Wind Farm,Wind,28.0,23.57,Yaloak South Wind Farm,-37.7163,144.242853,2026-02-12T20:51:46.080598
2026/02/13 06:55:00,ARWF1,114.5,Ararat Wind Farm Pty Ltd,Ararat Wind Farm,Wind,241.0,47.51,Ararat Wind Farm,-37.232778,143.031389,2026-02-12T20:51:46.080598
2026/02/13 06:55:00,BALDHWF1,0.0,Alinta Energy Retail Sales Pty Ltd,Bald Hills Wind Farm,Wind,106.0,0.0,Bald Hills Wind Farm,-38.79,145.93,2026-02-12T20:51:46.080598
2026/02/13 06:55:00,BANGOWF1,104.0,BWF Nominees Pty Ltd as The Trustee for BWF Trust,Bango 973 Wind Farm,Wind,155.0,67.1,Bango 973 Wind Farm,-34.551582,148.732808,2026-02-12T20:51:46.080598
2026/02/13 06:55:00,BANGOWF2,63.3,BWF Nominees Pty Ltd as The Trustee for BWF Trust,Bango 999 Wind Farm,Wind,82.0,77.2,Bango 999 Wind Farm,-34.551582,148.732808,2026-02-12T20:51:46.080598
2026/02/13 06:55:00,BLUFF1,30.5,AGL SA Generation Pty Limited,The Bluff Wind Farm,Wind,53.0,57.55,The Bluff Wind Farm,-33.367778,138.728611,2026-02-12T20:51:46.080598
2026/02/13 06:55:00,BOCORWF1,0.0,Boco Rock Wind Farm Pty Ltd,Boco Rock Wind Farm,Wind,111.0,0.0,Boco Rock Wind Farm,-36.578611,149.103333,2026-02-12T20:51:46.080598
2026/02/13 06:55:00,BRYB1WF1,12.73,Berrybank Development Pty Ltd,Berrybank Wind Farm,Wind,175.9,7.24,Berrybank Wind Farm,-37.94,143.52,2026-02-12T20:51:46.080598
2026/02/13 06:55:00,BRYB2WF2,13.48,Berrybank 2 Asset Pty Ltd as trustee for Berrybank 2 Asset Trust,Berrybank 2 Wind Farm,Wind,105.0,12.84,Berrybank 2 Wind Farm,-37.94,143.52,2026-02-12T20:51:46.080598
2026/02/13 06:55:00,BULGANA1,119.73,Bulgana Wind Farm Pty Ltd,Bulgana Green Power Hub,Wind,204.0,58.69,Bulgana Green Power Hub,-37.0975,142.973611,2026-02-12T20:51:46.080598
2026/02/13 06:55:00,CATHROCK,18.0,Cathedral Rocks Wind Farm Pty Ltd,Cathedral Rocks,Wind,66.0,27.27,Cathedral Rocks,-34.51,135.35,2026-02-12T20:51:46.080598
2026/02/13 06:55:00,CHYTWF1,53.3,Cherry Tree Wind Farm Pty Ltd as trustee for The Cherry Tree Project trust ,Cherry Tree Wind Farm,Wind,57.0,93.51,Cherry Tree Wind Farm,-37.1,145.26,2026-02-12T20:51:46.080598
2026/02/13 06:55:00,CLEMGPWF,6.92,Pacific Hydro Clements Gap Pty Ltd,Clements Gap Wind Farm,Wind,57.0,12.14,Clements Gap Wind Farm,-33.48,138.1,2026-02-12T20:51:46.080598
2026/02/13 06:55:00,CLRKCWF1,191.87,Stanwell Corporation Limited ,Clarke Creek Wind Farm,Wind,338.0,56.77,Clarke Creek Wind Farm,-22.85,149.45,2026-02-12T20:51:46.080598
2026/02/13 06:55:00,CLRKCWF2,39.92,Stanwell Corporation Limited ,Clarke Creek Wind Farm,Wind,101.0,39.52,Clarke Creek Wind Farm,-22.85,149.45,2026-02-12T20:51:46.080598
2026/02/13 06:55:00,CNUNDAWF,2.2,Canunda Power Pty Ltd,Canunda Wind Farm,Wind,46.0,4.78,Canunda Wind Farm,-37.73,140.39,2026-02-12T20:51:46.080598
2026/02/13 06:55:00,COLWF01,90.26,Collector Wind Farm Pty Ltd,Collector Wind Farm 1,Wind,219.0,41.21,Collector Wind Farm 1,-34.8719,149.3967,2026-02-12T20:51:46.080598
2026/02/13 06:55:00,COOPGWF1,62.43,PARF Company 10 Pty Limited as The Trustee for Coopers Gap Project Trust,Coopers Gap Wind Farm,Wind,440.0,14.19,Coopers Gap Wind Farm,-26.74,151.45,2026-02-12T20:51:46.080598
2026/02/13 06:55:00,CROOKWF2,23.66,Crookwell Development Pty Ltd ,Crookwell 2 Wind Farm,Wind,91.0,26.0,Crookwell 2 Wind Farm,-34.52,149.54,2026-02-12T20:51:46.080598
2026/02/13 06:55:00,CROOKWF3,19.15,Crookwell 3 Development Pty Ltd,Crookwell 3 Wind Farm,Wind,56.0,34.2,Crookwell 3 Wind Farm,-34.52,149.54,2026-02-12T20:51:46.080598
2026/02/13 06:55:00,CROWLWF1,20.47,Pacific Hydro Crowlands Pty Ltd ,Crowlands Wind Farm,Wind,79.0,25.91,Crowlands Wind Farm,-37.13,143.16,2026-02-12T20:51:46.080598
2026/02/13 06:55:00,CRURWF1,104.4,CRWF Nominees Pty Ltd As Trustee For The CRWF Trust,Crudine Ridge Wind Farm,Wind,138.0,75.65,Crudine Ridge Wind Farm,-32.97,149.64,2026-02-12T20:51:46.080598
2026/02/13 06:55:00,CTHLWF1,124.68,Wild Cattle Hill Pty Ltd,Cattle Hill Wind Farm,Wind,144.0,86.58,Cattle Hill Wind Farm,-42.15,146.69,2026-02-12T20:51:46.080598
2026/02/13 06:55:00,DULAWF1,0.0,Dulacca Energy Project Co Pty Ltd,Dulacca Wind Farm,Wind,173.0,0.0,Dulacca Wind Farm,-26.63,149.87,2026-02-12T20:51:46.080598
2026/02/13 06:55:00,DUNDWF1,22.27,Dundonnell Wind Farm Pty Ltd,Dundonnell Wind Farm,Wind,168.0,13.26,Dundonnell Wind Farm,-37.52,142.58,2026-02-12T20:51:46.080598
2026/02/13 06:55:00,DUNDWF2,9.24,Dundonnell Wind Farm Pty Ltd,Dundonnell Wind Farm,Wind,46.0,20.09,Dundonnell Wind Farm,-37.52,142.58,2026-02-12T20:51:46.080598
2026/02/13 06:55:00,DUNDWF3,19.03,Dundonnell Wind Farm Pty Ltd,Dundonnell Wind Farm,Wind,122.0,15.6,Dundonnell Wind Farm,-37.52,142.58,2026-02-12T20:51:46.080598
2026/02/13 06:55:00,ELAINWF1,16.02,Lal Lal Wind Farms Nom Co Pty Ltd,Elaine Wind Farm,Wind,82.0,19.54,Elaine Wind Farm,-37.36,144.0,2026-02-12T20:51:46.080598
2026/02/13 06:55:00,FLYCRKWF,64.29,Iberdrola Australia Energy Markets Pty Limited,Flyers Creek Wind Farm,Wind,140.0,45.92,Flyers Creek Wind Farm,-33.365556,148.981944,2026-02-12T20:51:46.080598
2026/02/13 06:55:00,GPWFEST1,26.17,Golden Plains WF1 Pty Ltd as Trustee for the Golden Plains WF1 Unit Trust,Golden Plains Wind Farm East,Wind,240.0,10.9,Golden Plains Wind Farm East,-37.945091,143.752614,2026-02-12T20:51:46.080598
2026/02/13 06:55:00,GPWFEST2,15.05,Golden Plains WF1 Pty Ltd as Trustee for the Golden Plains WF1 Unit Trust,Golden Plains Wind Farm East,Wind,253.0,5.95,Golden Plains Wind Farm East,-37.945091,143.752614,2026-02-12T20:51:46.080598
2026/02/13 06:55:00,GPWFEST3,10.46,Golden Plains WF1 Pty Ltd as Trustee for the Golden Plains WF1 Unit Trust,Golden Plains Wind Farm East,Wind,240.0,4.36,Golden Plains Wind Farm East,-37.945091,143.752614,2026-02-12T20:51:46.080598
2026/02/13 06:55:00,GRANWF1,6.1,Granville Harbour Operations Pty Ltd as The Trustee for Granville Harbour Operations Trust,Granville Harbour Wind Farm,Wind,111.0,5.5,Granville Harbour Wind Farm,-41.8,145.06,2026-02-12T20:51:46.080598
2026/02/13 06:55:00,GSWF1A,139.6,Goyder Wind Farm 1 Pty Ltd as the Trustee for Goyder Wind Farm 1 Trust,Goyder South Wind Farm 1A,Wind,201.0,69.45,Goyder South Wind Farm 1A,-33.679758,138.937597,2026-02-12T20:51:46.080598
2026/02/13 06:55:00,GSWF1B1,134.38,Goyder Wind Farm 1B Pty Ltd as the Trustee for the Goyder Wind Farm 1B Trust,Goyder South Wind Farm 1B,Wind,196.0,68.56,Goyder South Wind Farm 1B,-33.679758,138.937597,2026-02-12T20:51:46.080598
2026/02/13 06:55:00,GULLRWF1,73.83,New Gullen Range Wind Farm Pty Ltd,Gullen Range Wind Farm,Wind,161.0,45.86,Gullen Range Wind Farm,-34.34,149.27,2026-02-12T20:51:46.080598
2026/02/13 06:55:00,GULLRWF2,105.18,New Gullen Range Wind Farm Pty Ltd,Gullen Range Wind Farm,Wind,107.0,98.3,Gullen Range Wind Farm,-34.34,149.27,2026-02-12T20:51:46.080598
2026/02/13 06:55:00,GUNNING1,30.95,Gunning Wind Energy Developments Pty Ltd,Gunning Wind Farm,Wind,47.0,65.85,Gunning Wind Farm,-34.813333,149.4,2026-02-12T20:51:46.080598
2026/02/13 06:55:00,HALLWF1,63.35,AGL SA Generation Pty Limited,Hallett 1 Wind Farm,Wind,95.0,66.68,Hallett 1 Wind Farm,-33.367778,138.728611,2026-02-12T20:51:46.080598
2026/02/13 06:55:00,HALLWF2,63.18,AGL SA Generation Pty Limited,Hallett 2 Wind Farm,Wind,71.0,88.99,Hallett 2 Wind Farm,-33.367778,138.728611,2026-02-12T20:51:46.080598
2026/02/13 06:55:00,HD1WF1,4.69,Hawkesdale Asset Pty Ltd as trustee for Hawkesdale Asset Trust,Hawkesdale Wind Farm,Wind,89.0,5.27,Hawkesdale Wind Farm,-38.147894,142.361381,2026-02-12T20:51:46.080598
2026/02/13 06:55:00,HDWF1,77.5,HWF1 Pty Ltd,Hornsdale Wind Farm,Wind,102.0,75.98,Hornsdale Wind Farm,-33.050556,138.543611,2026-02-12T20:51:46.080598
2026/02/13 06:55:00,HDWF2,99.2,HWF 2 Pty Ltd,Hornsdale Wind Farm 2,Wind,102.0,97.25,Hornsdale Wind Farm 2,-33.06,138.54,2026-02-12T20:51:46.080598
2026/02/13 06:55:00,HDWF3,94.7,HWF3 Pty Ltd,Hornsdale Wind Farm 3,Wind,109.0,86.88,Hornsdale Wind Farm 3,-33.06,138.54,2026-02-12T20:51:46.080598
2026/02/13 06:55:00,KABANWF1,1.43,Kaban Wind Farm Pty Ltd as trustee for Kaban Wind Farm Trust,Kaban Wind Farm,Wind,152.0,0.94,Kaban Wind Farm,-17.56,145.41,2026-02-12T20:51:46.080598
2026/02/13 06:55:00,KEPWF1,24.3,Kennedy Energy Park Pty Ltd,Kennedy Energy Park,Wind,43.0,56.51,Kennedy Energy Park,-20.88,144.42,2026-02-12T20:51:46.080598
2026/02/13 06:55:00,KIATAWF1,22.3,Kiata ProjectCo Pty Ltd Atf Kiata Project Trust,Kiata Wind Farm,Wind,31.0,71.94,Kiata Wind Farm,-36.4,141.75,2026-02-12T20:51:46.080598
2026/02/13 06:55:00,LGAPWF1,22.99,Lincoln Gap Wind Farm (Operations) Pty Ltd,Lincoln Gap Wind Farm,Wind,123.0,18.69,Lincoln Gap Wind Farm,-32.564279,137.557328,2026-02-12T20:51:46.080598
2026/02/13 06:55:00,LGAPWF1,22.99,Lincoln Gap Wind Farm (Operations) Pty Ltd,Lincoln Gap Wind Farm,Wind,123.0,18.69,Lincoln Gap Wind Farm,-32.564279,137.557328,2026-02-12T20:51:46.080598
2026/02/13 06:55:00,LGAPWF2,10.11,Lincoln Gap Wind Farm (Operations) Pty Ltd,Lincoln Gap Wind Farm,Wind,85.0,11.89,Lincoln Gap Wind Farm,-32.564279,137.557328,2026-02-12T20:51:46.080598
2026/02/13 06:55:00,LGAPWF2,10.11,Lincoln Gap Wind Farm (Operations) Pty Ltd,Lincoln Gap Wind Farm,Wind,85.0,11.89,Lincoln Gap Wind Farm,-32.564279,137.557328,2026-02-12T20:51:46.080598
2026/02/13 06:55:00,LKBONNY1,0.89,Lake Bonney Wind Power Pty Ltd,Lake Bonney Wind Farm Stage 1,Wind,81.0,1.1,Lake Bonney Wind Farm Stage 1,-37.76,140.4,2026-02-12T20:51:46.080598
2026/02/13 06:55:00,LKBONNY2,6.6,Lake Bonney Wind Power Pty Ltd,Lake Bonney Stage 2 Windfarm,Wind,159.0,4.15,Lake Bonney Stage 2 Windfarm,-37.76,140.4,2026-02-12T20:51:46.080598
2026/02/13 06:55:00,LKBONNY3,2.9,Lake Bonney Wind Power Pty Ltd,Lake Bonney Stage 3 Wind Farm,Wind,39.0,7.44,Lake Bonney Stage 3 Wind Farm,-37.737781,140.388137,2026-02-12T20:51:46.080598
2026/02/13 06:55:00,MACARTH1,3.7,AGL Hydro Partnership,Macarthur Wind Farm,Wind,420.0,0.88,Macarthur Wind Farm,-38.048957,142.192112,2026-02-12T20:51:46.080598
2026/02/13 06:55:00,MCINTYR1,332.42,MacIntyre UJV Operator Pty Ltd,MacIntyre Wind Farm,Wind,890.0,37.35,MacIntyre Wind Farm,-28.32,151.54,2026-02-12T20:51:46.080598
2026/02/13 06:55:00,MERCER01,5.6,Mt Mercer Windfarm Pty Ltd,Mt Mercer Wind Farm,Wind,131.0,4.27,Mt Mercer Wind Farm,-37.841111,143.871111,2026-02-12T20:51:46.080598
2026/02/13 06:55:00,MEWF1,17.0,Ergon Energy Queensland Pty Ltd ,Mount Emerald Wind Farm,Wind,178.0,9.55,Mount Emerald Wind Farm,-17.133007,145.380644,2026-02-12T20:51:46.080598
2026/02/13 06:55:00,MRTLSWF1,0.0,Mortlake South Wind Farm Pty Ltd,Mortlake South Wind Farm,Wind,153.0,0.0,Mortlake South Wind Farm,-38.127337,142.857801,2026-02-12T20:51:46.080598
2026/02/13 06:55:00,MTGELWF1,1.56,Mt. Gellibrand Wind Farm Pty Ltd,Mt Gellibrand Wind Farm,Wind,132.0,1.18,Mt Gellibrand Wind Farm,-38.23,143.77,2026-02-12T20:51:46.080598
2026/02/13 06:55:00,MTMILLAR,8.6,Mt Millar Wind Farm Pty Ltd,Mt Millar Wind Farm,Wind,70.0,12.29,Mt Millar Wind Farm,-33.624444,136.703611,2026-02-12T20:51:46.080598
2026/02/13 06:55:00,MUSSELR1,19.1,Hydro-Electric Corporation,Musselroe Wind Farm,Wind,168.0,11.37,Musselroe Wind Farm,-40.780225,148.010799,2026-02-12T20:51:46.080598
2026/02/13 06:55:00,MUWAWF1,126.33,Telstra Energy (Generation) Pty Ltd,Murra Warra Wind Farm,Wind,225.7,55.97,Murra Warra Wind Farm,-36.432404,142.317853,2026-02-12T20:51:46.080598
2026/02/13 06:55:00,MUWAWF2,182.6,Murra Warra II Project Co Pty Ltd ATF The Murra Warra II Project Trust,Murra Warra Wind Farm Stage 2,Wind,203.0,89.95,Murra Warra Wind Farm Stage 2,-36.43,142.32,2026-02-12T20:51:46.080598
2026/02/13 06:55:00,NBHWF1,109.0,AGL SA Generation Pty Limited,North Brown Hill Wind Farm,Wind,132.0,82.58,North Brown Hill Wind Farm,-33.367778,138.728611,2026-02-12T20:51:46.080598
2026/02/13 06:55:00,OAKLAND1,22.3,AGL Hydro Partnership,Oaklands Hill Wind Farm,Wind,63.0,35.4,Oaklands Hill Wind Farm,-37.683078,142.551678,2026-02-12T20:51:46.080598
2026/02/13 06:55:00,PAREPW1,113.89,Iberdrola Australia Energy Markets Pty Limited,Port Augusta Renewable Energy Park,Wind,201.0,56.66,Port Augusta Renewable Energy Park,-32.566944,137.856111,2026-02-12T20:51:46.080598
2026/02/13 06:55:00,RYANCWF1,3.39,Ryan Corner Development Pty Ltd,Ryan Corner Wind Farm,Wind,205.0,1.65,Ryan Corner Wind Farm,-38.271017,142.140647,2026-02-12T20:51:46.080598
2026/02/13 06:55:00,RYEPARK1,283.22,Rye Park Renewable Energy Pty Ltd as trustee for Rye Park Wind Farm Trust,Rye Park Renewable Energy,Wind,384.0,73.76,Rye Park Renewable Energy,-32.138333,148.972778,2026-02-12T20:51:46.080598
2026/02/13 06:55:00,SALTCRK1,2.66,Salt Creek Wind Farm Pty Ltd,Salt Creek Wind Farm,Wind,54.0,4.93,Salt Creek Wind Farm,-37.95,142.63,2026-02-12T20:51:46.080598
2026/02/13 06:55:00,SAPHWF1,235.34,The Trustee For The SWF1 Operations Trust,Sapphire Wind Farm,Wind,270.0,87.16,Sapphire Wind Farm,-29.7,151.41,2026-02-12T20:51:46.080598
2026/02/13 06:55:00,SNOWNTH1,63.2,Snowtown Wind Farm Stage 2 Pty Ltd,Snowtown Wind Farm Stage 2 North,Wind,144.0,43.89,Snowtown Wind Farm Stage 2 North,-33.83,138.118611,2026-02-12T20:51:46.080598
2026/02/13 06:55:00,SNOWSTH1,96.7,Snowtown Wind Farm Stage 2 Pty Ltd,Snowtown South Wind Farm,Wind,126.0,76.75,Snowtown South Wind Farm,-33.83,138.118611,2026-02-12T20:51:46.080598
2026/02/13 06:55:00,SNOWTWN1,81.19,Snowtown Wind Farm Pty Ltd,Snowtown Wind Farm Units 1 And 47,Wind,99.0,82.01,Snowtown Wind Farm Units 1 And 47,-33.83,138.118611,2026-02-12T20:51:46.080598
2026/02/13 06:55:00,STARHLWF,21.29,Starfish Hill Wind Farm Pty Ltd,Starfish Hill Wind Farm,Wind,35.0,60.83,Starfish Hill Wind Farm,-35.58,138.14,2026-02-12T20:51:46.080598
2026/02/13 06:55:00,STOCKYD1,243.15,Stockyard Hill Wind Farm Pty Ltd,Stockyard Hill Wind Farm,Wind,511.0,47.58,Stockyard Hill Wind Farm,-37.535833,143.251389,2026-02-12T20:51:46.080598
2026/02/13 06:55:00,STWF1,103.1,PARF Company 8 Pty Ltd as The Trustee for Silverton Project Trust,Silverton Wind Farm,Wind,198.0,52.07,Silverton Wind Farm,-37.683168,142.551678,2026-02-12T20:51:46.080598
2026/02/13 06:55:00,TARALGA1,20.44,Taralga Wind Farm Nominees No 2 Pty Ltd (ATF Taralga Wind Farm Operating Trust),Taralga Wind Farm,Wind,106.0,19.28,Taralga Wind Farm,-34.42352,149.826267,2026-02-12T20:51:46.080598
2026/02/13 06:55:00,WAMBOWF1,13.73,Stanwell Corporation Limited,Wambo Wind Farm 1,Wind,245.0,5.6,Wambo Wind Farm 1,-35.187301,149.524945,2026-02-12T20:51:46.080598
2026/02/13 06:55:00,WATERLWF,58.3,Waterloo Wind Farm Pty Ltd,Waterloo Wind Farm,Wind,130.0,44.85,Waterloo Wind Farm,-34.00094,138.911567,2026-02-12T20:51:46.080598
2026/02/13 06:55:00,WGWF1,76.1,Willogoleche Power Pty Ltd As The Trustee For The Willogoleche Operating Trust,Willogoleche Wind Farm,Wind,119.0,63.95,Willogoleche Wind Farm,-33.39,138.85,2026-02-12T20:51:46.080598
2026/02/13 06:55:00,WOODLWN1,10.77,Woodlawn Wind Pty Ltd,Woodlawn Wind Farm,Wind,48.0,22.44,Woodlawn Wind Farm,-35.08,149.62,2026-02-12T20:51:46.080598
2026/02/13 06:55:00,WPWF,49.73,AGL SA Generation Pty Limited,Wattle Point Wind Farm,Wind,91.0,54.65,Wattle Point Wind Farm,-35.111624,137.7219,2026-02-12T20:51:46.080598
2026/02/13 06:55:00,WRWF1,166.91,White Rock Wind Farm Pty Ltd,White Rock Wind Farm,Wind,172.0,97.04,White Rock Wind Farm,-29.79,151.54,2026-02-12T20:51:46.080598
2026/02/13 06:55:00,YENDWF1,36.62,Lal Lal Wind Farms Nom Co Pty Ltd,Yendon Wind Farm,Wind,142.0,25.79,Yendon Wind Farm,-37.629987,144.022717,2026-02-12T20:51:46.080598
