SETTLEMENTDATE,DUID,SCADAVALUE,Participant,Station Name,Fuel Source - Primary,MAX_CAP,utilisation_pct,Plant,Latitude,Longitude,timestamp_utc
2026/04/10 18:50:00,CAPTL_WF,94.5,Iberdrola Australia Holdings Pty Limited,Capital Wind Farm,Wind,140.0,67.5,Capital Wind Farm,-35.1,149.31,2026-04-10T08:50:45.632558
2026/04/10 18:50:00,CHALLHWF,43.4,Pacific Hydro Challicum Hills Pty Ltd,Challicum Hills Wind Farm,Wind,52.0,83.46,Challicum Hills Wind Farm,-37.38,143.11,2026-04-10T08:50:45.632558
2026/04/10 18:50:00,CULLRGWF,23.88,Cullerin Range Wind Farm Pty Ltd,Cullerin Range Wind Farm,Wind,30.0,79.6,Cullerin Range Wind Farm,-34.81,149.4,2026-04-10T08:50:45.632558
2026/04/10 18:50:00,DIAPURWF1,7.3,Y.E.S. Energy (SA) Pty Ltd,Diapur Wind Farm,Wind,7.0,104.29,Diapur Wind Farm,-36.3425,141.43,2026-04-10T08:50:45.632558
2026/04/10 18:50:00,MLWF1,15.03,Mortons Lane Windfarm Pty Limited,Mortons Lane Wind Farm,Wind,20.0,75.15,Mortons Lane Wind Farm,-37.84,142.45,2026-04-10T08:50:45.632558
2026/04/10 18:50:00,WAUBRAWF,109.08,Pyrenees Wind Energy Developments Pty Ltd,Waubra Wind Farm,Wind,192.0,56.81,Waubra Wind Farm,-37.394498,143.638982,2026-04-10T08:50:45.632558
2026/04/10 18:50:00,WOOLNTH1,98.41,Hydro-Electric Corporation,Woolnorth Studland Bay / Bluff Point Wind Farm,Wind,140.0,70.29,Woolnorth Studland Bay / Bluff Point Wind Farm,-40.69,144.72,2026-04-10T08:50:45.632558
2026/04/10 18:50:00,YAMBUKWF,16.9,Energy Pacific (Vic) Pty Ltd,Yambuk Wind Farm,Wind,30.0,56.33,Yambuk Wind Farm,-38.299083,142.027577,2026-04-10T08:50:45.632558
2026/04/10 18:50:00,YSWF1,11.5,Pacific Hydro Yaloak South Pty Ltd,Yaloak South Wind Farm,Wind,28.0,41.07,Yaloak South Wind Farm,-37.7163,144.242853,2026-04-10T08:50:45.632558
2026/04/10 18:50:00,ARWF1,114.0,Ararat Wind Farm Pty Ltd,Ararat Wind Farm,Wind,241.0,47.3,Ararat Wind Farm,-37.232778,143.031389,2026-04-10T08:50:45.632558
2026/04/10 18:50:00,BALDHWF1,90.68,Alinta Energy Retail Sales Pty Ltd,Bald Hills Wind Farm,Wind,106.0,85.55,Bald Hills Wind Farm,-38.79,145.93,2026-04-10T08:50:45.632558
2026/04/10 18:50:00,BANGOWF1,76.2,BWF Nominees Pty Ltd as The Trustee for BWF Trust,Bango 973 Wind Farm,Wind,155.0,49.16,Bango 973 Wind Farm,-34.551582,148.732808,2026-04-10T08:50:45.632558
2026/04/10 18:50:00,BANGOWF2,52.4,BWF Nominees Pty Ltd as The Trustee for BWF Trust,Bango 999 Wind Farm,Wind,82.0,63.9,Bango 999 Wind Farm,-34.551582,148.732808,2026-04-10T08:50:45.632558
2026/04/10 18:50:00,BLUFF1,47.9,AGL SA Generation Pty Limited,The Bluff Wind Farm,Wind,53.0,90.38,The Bluff Wind Farm,-33.367778,138.728611,2026-04-10T08:50:45.632558
2026/04/10 18:50:00,BOCORWF1,101.23,Boco Rock Wind Farm Pty Ltd,Boco Rock Wind Farm,Wind,111.0,91.2,Boco Rock Wind Farm,-36.578611,149.103333,2026-04-10T08:50:45.632558
2026/04/10 18:50:00,BRYB1WF1,171.59,Berrybank Development Pty Ltd,Berrybank Wind Farm,Wind,175.9,97.55,Berrybank Wind Farm,-37.94,143.52,2026-04-10T08:50:45.632558
2026/04/10 18:50:00,BRYB2WF2,101.79,Berrybank 2 Asset Pty Ltd as trustee for Berrybank 2 Asset Trust,Berrybank 2 Wind Farm,Wind,105.0,96.94,Berrybank 2 Wind Farm,-37.94,143.52,2026-04-10T08:50:45.632558
2026/04/10 18:50:00,BULGANA1,49.79,Bulgana Wind Farm Pty Ltd,Bulgana Green Power Hub,Wind,204.0,24.41,Bulgana Green Power Hub,-37.0975,142.973611,2026-04-10T08:50:45.632558
2026/04/10 18:50:00,CATHROCK,0.0,Cathedral Rocks Wind Farm Pty Ltd,Cathedral Rocks,Wind,66.0,0.0,Cathedral Rocks,-34.51,135.35,2026-04-10T08:50:45.632558
2026/04/10 18:50:00,CHYTWF1,46.74,Cherry Tree Wind Farm Pty Ltd as trustee for The Cherry Tree Project trust ,Cherry Tree Wind Farm,Wind,57.0,82.0,Cherry Tree Wind Farm,-37.1,145.26,2026-04-10T08:50:45.632558
2026/04/10 18:50:00,CLEMGPWF,52.37,Pacific Hydro Clements Gap Pty Ltd,Clements Gap Wind Farm,Wind,57.0,91.88,Clements Gap Wind Farm,-33.48,138.1,2026-04-10T08:50:45.632558
2026/04/10 18:50:00,CLRKCWF1,225.26,Stanwell Corporation Limited ,Clarke Creek Wind Farm,Wind,338.0,66.64,Clarke Creek Wind Farm,-22.85,149.45,2026-04-10T08:50:45.632558
2026/04/10 18:50:00,CLRKCWF2,64.18,Stanwell Corporation Limited ,Clarke Creek Wind Farm,Wind,101.0,63.54,Clarke Creek Wind Farm,-22.85,149.45,2026-04-10T08:50:45.632558
2026/04/10 18:50:00,CNUNDAWF,37.84,Canunda Power Pty Ltd,Canunda Wind Farm,Wind,46.0,82.26,Canunda Wind Farm,-37.73,140.39,2026-04-10T08:50:45.632558
2026/04/10 18:50:00,COLWF01,133.89,Collector Wind Farm Pty Ltd,Collector Wind Farm 1,Wind,219.0,61.14,Collector Wind Farm 1,-34.8719,149.3967,2026-04-10T08:50:45.632558
2026/04/10 18:50:00,COOPGWF1,45.26,PARF Company 10 Pty Limited as The Trustee for Coopers Gap Project Trust,Coopers Gap Wind Farm,Wind,440.0,10.29,Coopers Gap Wind Farm,-26.74,151.45,2026-04-10T08:50:45.632558
2026/04/10 18:50:00,CROOKWF2,50.05,Crookwell Development Pty Ltd ,Crookwell 2 Wind Farm,Wind,91.0,55.0,Crookwell 2 Wind Farm,-34.52,149.54,2026-04-10T08:50:45.632558
2026/04/10 18:50:00,CROOKWF3,16.62,Crookwell 3 Development Pty Ltd,Crookwell 3 Wind Farm,Wind,56.0,29.68,Crookwell 3 Wind Farm,-34.52,149.54,2026-04-10T08:50:45.632558
2026/04/10 18:50:00,CROWLWF1,57.75,Pacific Hydro Crowlands Pty Ltd ,Crowlands Wind Farm,Wind,79.0,73.1,Crowlands Wind Farm,-37.13,143.16,2026-04-10T08:50:45.632558
2026/04/10 18:50:00,CRURWF1,21.8,CRWF Nominees Pty Ltd As Trustee For The CRWF Trust,Crudine Ridge Wind Farm,Wind,138.0,15.8,Crudine Ridge Wind Farm,-32.97,149.64,2026-04-10T08:50:45.632558
2026/04/10 18:50:00,CTHLWF1,87.49,Wild Cattle Hill Pty Ltd,Cattle Hill Wind Farm,Wind,144.0,60.76,Cattle Hill Wind Farm,-42.15,146.69,2026-04-10T08:50:45.632558
2026/04/10 18:50:00,DULAWF1,23.7,Dulacca Energy Project Co Pty Ltd,Dulacca Wind Farm,Wind,173.0,13.7,Dulacca Wind Farm,-26.63,149.87,2026-04-10T08:50:45.632558
2026/04/10 18:50:00,DUNDWF1,83.39,Dundonnell Wind Farm Pty Ltd,Dundonnell Wind Farm,Wind,168.0,49.64,Dundonnell Wind Farm,-37.52,142.58,2026-04-10T08:50:45.632558
2026/04/10 18:50:00,DUNDWF2,22.92,Dundonnell Wind Farm Pty Ltd,Dundonnell Wind Farm,Wind,46.0,49.83,Dundonnell Wind Farm,-37.52,142.58,2026-04-10T08:50:45.632558
2026/04/10 18:50:00,DUNDWF3,60.68,Dundonnell Wind Farm Pty Ltd,Dundonnell Wind Farm,Wind,122.0,49.74,Dundonnell Wind Farm,-37.52,142.58,2026-04-10T08:50:45.632558
2026/04/10 18:50:00,ELAINWF1,43.24,Lal Lal Wind Farms Nom Co Pty Ltd,Elaine Wind Farm,Wind,82.0,52.73,Elaine Wind Farm,-37.36,144.0,2026-04-10T08:50:45.632558
2026/04/10 18:50:00,FLYCRKWF,0.0,Iberdrola Australia Energy Markets Pty Limited,Flyers Creek Wind Farm,Wind,140.0,0.0,Flyers Creek Wind Farm,-33.365556,148.981944,2026-04-10T08:50:45.632558
2026/04/10 18:50:00,GPWFEST1,0.0,Golden Plains WF1 Pty Ltd as Trustee for the Golden Plains WF1 Unit Trust,Golden Plains Wind Farm East,Wind,240.0,0.0,Golden Plains Wind Farm East,-37.945091,143.752614,2026-04-10T08:50:45.632558
2026/04/10 18:50:00,GPWFEST2,0.0,Golden Plains WF1 Pty Ltd as Trustee for the Golden Plains WF1 Unit Trust,Golden Plains Wind Farm East,Wind,253.0,0.0,Golden Plains Wind Farm East,-37.945091,143.752614,2026-04-10T08:50:45.632558
2026/04/10 18:50:00,GPWFEST3,205.52,Golden Plains WF1 Pty Ltd as Trustee for the Golden Plains WF1 Unit Trust,Golden Plains Wind Farm East,Wind,240.0,85.63,Golden Plains Wind Farm East,-37.945091,143.752614,2026-04-10T08:50:45.632558
2026/04/10 18:50:00,GRANWF1,65.59,Granville Harbour Operations Pty Ltd as The Trustee for Granville Harbour Operations Trust,Granville Harbour Wind Farm,Wind,111.0,59.09,Granville Harbour Wind Farm,-41.8,145.06,2026-04-10T08:50:45.632558
2026/04/10 18:50:00,GSWF1A,195.18,Goyder Wind Farm 1 Pty Ltd as the Trustee for Goyder Wind Farm 1 Trust,Goyder South Wind Farm 1A,Wind,201.0,97.1,Goyder South Wind Farm 1A,-33.679758,138.937597,2026-04-10T08:50:45.632558
2026/04/10 18:50:00,GSWF1B1,74.42,Goyder Wind Farm 1B Pty Ltd as the Trustee for the Goyder Wind Farm 1B Trust,Goyder South Wind Farm 1B,Wind,196.0,37.97,Goyder South Wind Farm 1B,-33.679758,138.937597,2026-04-10T08:50:45.632558
2026/04/10 18:50:00,GULLRWF1,78.94,New Gullen Range Wind Farm Pty Ltd,Gullen Range Wind Farm,Wind,161.0,49.03,Gullen Range Wind Farm,-34.34,149.27,2026-04-10T08:50:45.632558
2026/04/10 18:50:00,GULLRWF2,42.82,New Gullen Range Wind Farm Pty Ltd,Gullen Range Wind Farm,Wind,107.0,40.02,Gullen Range Wind Farm,-34.34,149.27,2026-04-10T08:50:45.632558
2026/04/10 18:50:00,GUNNING1,32.04,Gunning Wind Energy Developments Pty Ltd,Gunning Wind Farm,Wind,47.0,68.17,Gunning Wind Farm,-34.813333,149.4,2026-04-10T08:50:45.632558
2026/04/10 18:50:00,HALLWF1,84.58,AGL SA Generation Pty Limited,Hallett 1 Wind Farm,Wind,95.0,89.03,Hallett 1 Wind Farm,-33.367778,138.728611,2026-04-10T08:50:45.632558
2026/04/10 18:50:00,HALLWF2,55.78,AGL SA Generation Pty Limited,Hallett 2 Wind Farm,Wind,71.0,78.56,Hallett 2 Wind Farm,-33.367778,138.728611,2026-04-10T08:50:45.632558
2026/04/10 18:50:00,HD1WF1,0.0,Hawkesdale Asset Pty Ltd as trustee for Hawkesdale Asset Trust,Hawkesdale Wind Farm,Wind,89.0,0.0,Hawkesdale Wind Farm,-38.147894,142.361381,2026-04-10T08:50:45.632558
2026/04/10 18:50:00,HDWF1,89.2,HWF1 Pty Ltd,Hornsdale Wind Farm,Wind,102.0,87.45,Hornsdale Wind Farm,-33.050556,138.543611,2026-04-10T08:50:45.632558
2026/04/10 18:50:00,HDWF2,94.2,HWF 2 Pty Ltd,Hornsdale Wind Farm 2,Wind,102.0,92.35,Hornsdale Wind Farm 2,-33.06,138.54,2026-04-10T08:50:45.632558
2026/04/10 18:50:00,HDWF3,99.7,HWF3 Pty Ltd,Hornsdale Wind Farm 3,Wind,109.0,91.47,Hornsdale Wind Farm 3,-33.06,138.54,2026-04-10T08:50:45.632558
2026/04/10 18:50:00,KABANWF1,38.16,Kaban Wind Farm Pty Ltd as trustee for Kaban Wind Farm Trust,Kaban Wind Farm,Wind,152.0,25.11,Kaban Wind Farm,-17.56,145.41,2026-04-10T08:50:45.632558
2026/04/10 18:50:00,KEPWF1,14.8,Kennedy Energy Park Pty Ltd,Kennedy Energy Park,Wind,43.0,34.42,Kennedy Energy Park,-20.88,144.42,2026-04-10T08:50:45.632558
2026/04/10 18:50:00,KIATAWF1,27.1,Kiata ProjectCo Pty Ltd Atf Kiata Project Trust,Kiata Wind Farm,Wind,31.0,87.42,Kiata Wind Farm,-36.4,141.75,2026-04-10T08:50:45.632558
2026/04/10 18:50:00,LGAPWF1,55.12,Lincoln Gap Wind Farm (Operations) Pty Ltd,Lincoln Gap Wind Farm,Wind,123.0,44.81,Lincoln Gap Wind Farm,-32.564279,137.557328,2026-04-10T08:50:45.632558
2026/04/10 18:50:00,LGAPWF1,55.12,Lincoln Gap Wind Farm (Operations) Pty Ltd,Lincoln Gap Wind Farm,Wind,123.0,44.81,Lincoln Gap Wind Farm,-32.564279,137.557328,2026-04-10T08:50:45.632558
2026/04/10 18:50:00,LGAPWF2,42.76,Lincoln Gap Wind Farm (Operations) Pty Ltd,Lincoln Gap Wind Farm,Wind,85.0,50.31,Lincoln Gap Wind Farm,-32.564279,137.557328,2026-04-10T08:50:45.632558
2026/04/10 18:50:00,LGAPWF2,42.76,Lincoln Gap Wind Farm (Operations) Pty Ltd,Lincoln Gap Wind Farm,Wind,85.0,50.31,Lincoln Gap Wind Farm,-32.564279,137.557328,2026-04-10T08:50:45.632558
2026/04/10 18:50:00,LKBONNY1,0.0,Lake Bonney Wind Power Pty Ltd,Lake Bonney Wind Farm Stage 1,Wind,81.0,0.0,Lake Bonney Wind Farm Stage 1,-37.76,140.4,2026-04-10T08:50:45.632558
2026/04/10 18:50:00,LKBONNY2,59.83,Lake Bonney Wind Power Pty Ltd,Lake Bonney Stage 2 Windfarm,Wind,159.0,37.63,Lake Bonney Stage 2 Windfarm,-37.76,140.4,2026-04-10T08:50:45.632558
2026/04/10 18:50:00,LKBONNY3,0.0,Lake Bonney Wind Power Pty Ltd,Lake Bonney Stage 3 Wind Farm,Wind,39.0,0.0,Lake Bonney Stage 3 Wind Farm,-37.737781,140.388137,2026-04-10T08:50:45.632558
2026/04/10 18:50:00,MACARTH1,218.4,AGL Hydro Partnership,Macarthur Wind Farm,Wind,420.0,52.0,Macarthur Wind Farm,-38.048957,142.192112,2026-04-10T08:50:45.632558
2026/04/10 18:50:00,MCINTYR1,15.93,MacIntyre UJV Operator Pty Ltd,MacIntyre Wind Farm,Wind,890.0,1.79,MacIntyre Wind Farm,-28.32,151.54,2026-04-10T08:50:45.632558
2026/04/10 18:50:00,MERCER01,81.1,Mt Mercer Windfarm Pty Ltd,Mt Mercer Wind Farm,Wind,131.0,61.91,Mt Mercer Wind Farm,-37.841111,143.871111,2026-04-10T08:50:45.632558
2026/04/10 18:50:00,MEWF1,5.0,Ergon Energy Queensland Pty Ltd ,Mount Emerald Wind Farm,Wind,178.0,2.81,Mount Emerald Wind Farm,-17.133007,145.380644,2026-04-10T08:50:45.632558
2026/04/10 18:50:00,MRTLSWF1,98.5,Mortlake South Wind Farm Pty Ltd,Mortlake South Wind Farm,Wind,153.0,64.38,Mortlake South Wind Farm,-38.127337,142.857801,2026-04-10T08:50:45.632558
2026/04/10 18:50:00,MTGELWF1,99.37,Mt. Gellibrand Wind Farm Pty Ltd,Mt Gellibrand Wind Farm,Wind,132.0,75.28,Mt Gellibrand Wind Farm,-38.23,143.77,2026-04-10T08:50:45.632558
2026/04/10 18:50:00,MTMILLAR,22.0,Mt Millar Wind Farm Pty Ltd,Mt Millar Wind Farm,Wind,70.0,31.43,Mt Millar Wind Farm,-33.624444,136.703611,2026-04-10T08:50:45.632558
2026/04/10 18:50:00,MUSSELR1,152.0,Hydro-Electric Corporation,Musselroe Wind Farm,Wind,168.0,90.48,Musselroe Wind Farm,-40.780225,148.010799,2026-04-10T08:50:45.632558
2026/04/10 18:50:00,MUWAWF1,0.0,Telstra Energy (Generation) Pty Ltd,Murra Warra Wind Farm,Wind,225.7,0.0,Murra Warra Wind Farm,-36.432404,142.317853,2026-04-10T08:50:45.632558
2026/04/10 18:50:00,MUWAWF2,151.7,Murra Warra II Project Co Pty Ltd ATF The Murra Warra II Project Trust,Murra Warra Wind Farm Stage 2,Wind,203.0,74.73,Murra Warra Wind Farm Stage 2,-36.43,142.32,2026-04-10T08:50:45.632558
2026/04/10 18:50:00,NBHWF1,115.7,AGL SA Generation Pty Limited,North Brown Hill Wind Farm,Wind,132.0,87.65,North Brown Hill Wind Farm,-33.367778,138.728611,2026-04-10T08:50:45.632558
2026/04/10 18:50:00,OAKLAND1,52.6,AGL Hydro Partnership,Oaklands Hill Wind Farm,Wind,63.0,83.49,Oaklands Hill Wind Farm,-37.683078,142.551678,2026-04-10T08:50:45.632558
2026/04/10 18:50:00,PAREPW1,20.9,Iberdrola Australia Energy Markets Pty Limited,Port Augusta Renewable Energy Park,Wind,201.0,10.4,Port Augusta Renewable Energy Park,-32.566944,137.856111,2026-04-10T08:50:45.632558
2026/04/10 18:50:00,RYANCWF1,149.34,Ryan Corner Development Pty Ltd,Ryan Corner Wind Farm,Wind,205.0,72.85,Ryan Corner Wind Farm,-38.271017,142.140647,2026-04-10T08:50:45.632558
2026/04/10 18:50:00,RYEPARK1,160.2,Rye Park Renewable Energy Pty Ltd as trustee for Rye Park Wind Farm Trust,Rye Park Renewable Energy,Wind,384.0,41.72,Rye Park Renewable Energy,-32.138333,148.972778,2026-04-10T08:50:45.632558
2026/04/10 18:50:00,SALTCRK1,0.0,Salt Creek Wind Farm Pty Ltd,Salt Creek Wind Farm,Wind,54.0,0.0,Salt Creek Wind Farm,-37.95,142.63,2026-04-10T08:50:45.632558
2026/04/10 18:50:00,SAPHWF1,29.62,The Trustee For The SWF1 Operations Trust,Sapphire Wind Farm,Wind,270.0,10.97,Sapphire Wind Farm,-29.7,151.41,2026-04-10T08:50:45.632558
2026/04/10 18:50:00,SNOWNTH1,96.4,Snowtown Wind Farm Stage 2 Pty Ltd,Snowtown Wind Farm Stage 2 North,Wind,144.0,66.94,Snowtown Wind Farm Stage 2 North,-33.83,138.118611,2026-04-10T08:50:45.632558
2026/04/10 18:50:00,SNOWSTH1,118.2,Snowtown Wind Farm Stage 2 Pty Ltd,Snowtown South Wind Farm,Wind,126.0,93.81,Snowtown South Wind Farm,-33.83,138.118611,2026-04-10T08:50:45.632558
2026/04/10 18:50:00,SNOWTWN1,77.99,Snowtown Wind Farm Pty Ltd,Snowtown Wind Farm Units 1 And 47,Wind,99.0,78.78,Snowtown Wind Farm Units 1 And 47,-33.83,138.118611,2026-04-10T08:50:45.632558
2026/04/10 18:50:00,STARHLWF,22.09,Starfish Hill Wind Farm Pty Ltd,Starfish Hill Wind Farm,Wind,35.0,63.11,Starfish Hill Wind Farm,-35.58,138.14,2026-04-10T08:50:45.632558
2026/04/10 18:50:00,STOCKYD1,288.41,Stockyard Hill Wind Farm Pty Ltd,Stockyard Hill Wind Farm,Wind,511.0,56.44,Stockyard Hill Wind Farm,-37.535833,143.251389,2026-04-10T08:50:45.632558
2026/04/10 18:50:00,STWF1,98.01,PARF Company 8 Pty Ltd as The Trustee for Silverton Project Trust,Silverton Wind Farm,Wind,198.0,49.5,Silverton Wind Farm,-37.683168,142.551678,2026-04-10T08:50:45.632558
2026/04/10 18:50:00,TARALGA1,45.72,Taralga Wind Farm Nominees No 2 Pty Ltd (ATF Taralga Wind Farm Operating Trust),Taralga Wind Farm,Wind,106.0,43.13,Taralga Wind Farm,-34.42352,149.826267,2026-04-10T08:50:45.632558
2026/04/10 18:50:00,WAMBOWF1,30.04,Stanwell Corporation Limited,Wambo Wind Farm 1,Wind,245.0,12.26,Wambo Wind Farm 1,-35.187301,149.524945,2026-04-10T08:50:45.632558
2026/04/10 18:50:00,WATERLWF,123.1,Waterloo Wind Farm Pty Ltd,Waterloo Wind Farm,Wind,130.0,94.69,Waterloo Wind Farm,-34.00094,138.911567,2026-04-10T08:50:45.632558
2026/04/10 18:50:00,WGWF1,117.8,Willogoleche Power Pty Ltd As The Trustee For The Willogoleche Operating Trust,Willogoleche Wind Farm,Wind,119.0,98.99,Willogoleche Wind Farm,-33.39,138.85,2026-04-10T08:50:45.632558
2026/04/10 18:50:00,WOODLWN1,43.69,Woodlawn Wind Pty Ltd,Woodlawn Wind Farm,Wind,48.0,91.02,Woodlawn Wind Farm,-35.08,149.62,2026-04-10T08:50:45.632558
2026/04/10 18:50:00,WPWF,61.4,AGL SA Generation Pty Limited,Wattle Point Wind Farm,Wind,91.0,67.47,Wattle Point Wind Farm,-35.111624,137.7219,2026-04-10T08:50:45.632558
2026/04/10 18:50:00,WRWF1,20.98,White Rock Wind Farm Pty Ltd,White Rock Wind Farm,Wind,172.0,12.2,White Rock Wind Farm,-29.79,151.54,2026-04-10T08:50:45.632558
2026/04/10 18:50:00,YENDWF1,35.11,Lal Lal Wind Farms Nom Co Pty Ltd,Yendon Wind Farm,Wind,142.0,24.73,Yendon Wind Farm,-37.629987,144.022717,2026-04-10T08:50:45.632558
