SETTLEMENTDATE,DUID,SCADAVALUE,Participant,Station Name,Fuel Source - Primary,MAX_CAP,utilisation_pct,Plant,Latitude,Longitude,timestamp_utc
2026/02/07 19:30:00,CAPTL_WF,110.23,Iberdrola Australia Holdings Pty Limited,Capital Wind Farm,Wind,140.0,78.74,Capital Wind Farm,-35.1,149.31,2026-02-07T09:28:44.459989
2026/02/07 19:30:00,CHALLHWF,4.4,Pacific Hydro Challicum Hills Pty Ltd,Challicum Hills Wind Farm,Wind,52.0,8.46,Challicum Hills Wind Farm,-37.38,143.11,2026-02-07T09:28:44.459989
2026/02/07 19:30:00,CULLRGWF,7.34,Cullerin Range Wind Farm Pty Ltd,Cullerin Range Wind Farm,Wind,30.0,24.47,Cullerin Range Wind Farm,-34.81,149.4,2026-02-07T09:28:44.459989
2026/02/07 19:30:00,DIAPURWF1,0.7,Y.E.S. Energy (SA) Pty Ltd,Diapur Wind Farm,Wind,7.0,10.0,Diapur Wind Farm,-36.3425,141.43,2026-02-07T09:28:44.459989
2026/02/07 19:30:00,MLWF1,4.35,Mortons Lane Windfarm Pty Limited,Mortons Lane Wind Farm,Wind,20.0,21.75,Mortons Lane Wind Farm,-37.84,142.45,2026-02-07T09:28:44.459989
2026/02/07 19:30:00,WAUBRAWF,15.24,Pyrenees Wind Energy Developments Pty Ltd,Waubra Wind Farm,Wind,192.0,7.94,Waubra Wind Farm,-37.394498,143.638982,2026-02-07T09:28:44.459989
2026/02/07 19:30:00,WOOLNTH1,30.89,Hydro-Electric Corporation,Woolnorth Studland Bay / Bluff Point Wind Farm,Wind,140.0,22.06,Woolnorth Studland Bay / Bluff Point Wind Farm,-40.69,144.72,2026-02-07T09:28:44.459989
2026/02/07 19:30:00,YAMBUKWF,7.0,Energy Pacific (Vic) Pty Ltd,Yambuk Wind Farm,Wind,30.0,23.33,Yambuk Wind Farm,-38.299083,142.027577,2026-02-07T09:28:44.459989
2026/02/07 19:30:00,YSWF1,3.2,Pacific Hydro Yaloak South Pty Ltd,Yaloak South Wind Farm,Wind,28.0,11.43,Yaloak South Wind Farm,-37.7163,144.242853,2026-02-07T09:28:44.459989
2026/02/07 19:30:00,ARWF1,18.3,Ararat Wind Farm Pty Ltd,Ararat Wind Farm,Wind,241.0,7.59,Ararat Wind Farm,-37.232778,143.031389,2026-02-07T09:28:44.459989
2026/02/07 19:30:00,BALDHWF1,67.49,Alinta Energy Retail Sales Pty Ltd,Bald Hills Wind Farm,Wind,106.0,63.67,Bald Hills Wind Farm,-38.79,145.93,2026-02-07T09:28:44.459989
2026/02/07 19:30:00,BANGOWF1,132.6,BWF Nominees Pty Ltd as The Trustee for BWF Trust,Bango 973 Wind Farm,Wind,155.0,85.55,Bango 973 Wind Farm,-34.551582,148.732808,2026-02-07T09:28:44.459989
2026/02/07 19:30:00,BANGOWF2,64.7,BWF Nominees Pty Ltd as The Trustee for BWF Trust,Bango 999 Wind Farm,Wind,82.0,78.9,Bango 999 Wind Farm,-34.551582,148.732808,2026-02-07T09:28:44.459989
2026/02/07 19:30:00,BLUFF1,11.2,AGL SA Generation Pty Limited,The Bluff Wind Farm,Wind,53.0,21.13,The Bluff Wind Farm,-33.367778,138.728611,2026-02-07T09:28:44.459989
2026/02/07 19:30:00,BOCORWF1,43.63,Boco Rock Wind Farm Pty Ltd,Boco Rock Wind Farm,Wind,111.0,39.31,Boco Rock Wind Farm,-36.578611,149.103333,2026-02-07T09:28:44.459989
2026/02/07 19:30:00,BRYB1WF1,95.43,Berrybank Development Pty Ltd,Berrybank Wind Farm,Wind,175.9,54.25,Berrybank Wind Farm,-37.94,143.52,2026-02-07T09:28:44.459989
2026/02/07 19:30:00,BRYB2WF2,68.01,Berrybank 2 Asset Pty Ltd as trustee for Berrybank 2 Asset Trust,Berrybank 2 Wind Farm,Wind,105.0,64.77,Berrybank 2 Wind Farm,-37.94,143.52,2026-02-07T09:28:44.459989
2026/02/07 19:30:00,BULGANA1,45.74,Bulgana Wind Farm Pty Ltd,Bulgana Green Power Hub,Wind,204.0,22.42,Bulgana Green Power Hub,-37.0975,142.973611,2026-02-07T09:28:44.459989
2026/02/07 19:30:00,CATHROCK,16.9,Cathedral Rocks Wind Farm Pty Ltd,Cathedral Rocks,Wind,66.0,25.61,Cathedral Rocks,-34.51,135.35,2026-02-07T09:28:44.459989
2026/02/07 19:30:00,CHYTWF1,24.67,Cherry Tree Wind Farm Pty Ltd as trustee for The Cherry Tree Project trust ,Cherry Tree Wind Farm,Wind,57.0,43.28,Cherry Tree Wind Farm,-37.1,145.26,2026-02-07T09:28:44.459989
2026/02/07 19:30:00,CLEMGPWF,13.4,Pacific Hydro Clements Gap Pty Ltd,Clements Gap Wind Farm,Wind,57.0,23.51,Clements Gap Wind Farm,-33.48,138.1,2026-02-07T09:28:44.459989
2026/02/07 19:30:00,CLRKCWF1,316.29,Stanwell Corporation Limited ,Clarke Creek Wind Farm,Wind,338.0,93.58,Clarke Creek Wind Farm,-22.85,149.45,2026-02-07T09:28:44.459989
2026/02/07 19:30:00,CLRKCWF2,95.44,Stanwell Corporation Limited ,Clarke Creek Wind Farm,Wind,101.0,94.5,Clarke Creek Wind Farm,-22.85,149.45,2026-02-07T09:28:44.459989
2026/02/07 19:30:00,CNUNDAWF,29.13,Canunda Power Pty Ltd,Canunda Wind Farm,Wind,46.0,63.33,Canunda Wind Farm,-37.73,140.39,2026-02-07T09:28:44.459989
2026/02/07 19:30:00,COLWF01,52.09,Collector Wind Farm Pty Ltd,Collector Wind Farm 1,Wind,219.0,23.79,Collector Wind Farm 1,-34.8719,149.3967,2026-02-07T09:28:44.459989
2026/02/07 19:30:00,COOPGWF1,320.82,PARF Company 10 Pty Limited as The Trustee for Coopers Gap Project Trust,Coopers Gap Wind Farm,Wind,440.0,72.91,Coopers Gap Wind Farm,-26.74,151.45,2026-02-07T09:28:44.459989
2026/02/07 19:30:00,CROOKWF2,37.18,Crookwell Development Pty Ltd ,Crookwell 2 Wind Farm,Wind,91.0,40.86,Crookwell 2 Wind Farm,-34.52,149.54,2026-02-07T09:28:44.459989
2026/02/07 19:30:00,CROOKWF3,0.0,Crookwell 3 Development Pty Ltd,Crookwell 3 Wind Farm,Wind,56.0,0.0,Crookwell 3 Wind Farm,-34.52,149.54,2026-02-07T09:28:44.459989
2026/02/07 19:30:00,CROWLWF1,7.25,Pacific Hydro Crowlands Pty Ltd ,Crowlands Wind Farm,Wind,79.0,9.18,Crowlands Wind Farm,-37.13,143.16,2026-02-07T09:28:44.459989
2026/02/07 19:30:00,CRURWF1,49.2,CRWF Nominees Pty Ltd As Trustee For The CRWF Trust,Crudine Ridge Wind Farm,Wind,138.0,35.65,Crudine Ridge Wind Farm,-32.97,149.64,2026-02-07T09:28:44.459989
2026/02/07 19:30:00,CTHLWF1,6.64,Wild Cattle Hill Pty Ltd,Cattle Hill Wind Farm,Wind,144.0,4.61,Cattle Hill Wind Farm,-42.15,146.69,2026-02-07T09:28:44.459989
2026/02/07 19:30:00,DULAWF1,149.1,Dulacca Energy Project Co Pty Ltd,Dulacca Wind Farm,Wind,173.0,86.18,Dulacca Wind Farm,-26.63,149.87,2026-02-07T09:28:44.459989
2026/02/07 19:30:00,DUNDWF1,29.08,Dundonnell Wind Farm Pty Ltd,Dundonnell Wind Farm,Wind,168.0,17.31,Dundonnell Wind Farm,-37.52,142.58,2026-02-07T09:28:44.459989
2026/02/07 19:30:00,DUNDWF2,9.41,Dundonnell Wind Farm Pty Ltd,Dundonnell Wind Farm,Wind,46.0,20.46,Dundonnell Wind Farm,-37.52,142.58,2026-02-07T09:28:44.459989
2026/02/07 19:30:00,DUNDWF3,18.56,Dundonnell Wind Farm Pty Ltd,Dundonnell Wind Farm,Wind,122.0,15.21,Dundonnell Wind Farm,-37.52,142.58,2026-02-07T09:28:44.459989
2026/02/07 19:30:00,ELAINWF1,13.38,Lal Lal Wind Farms Nom Co Pty Ltd,Elaine Wind Farm,Wind,82.0,16.32,Elaine Wind Farm,-37.36,144.0,2026-02-07T09:28:44.459989
2026/02/07 19:30:00,FLYCRKWF,70.09,Iberdrola Australia Energy Markets Pty Limited,Flyers Creek Wind Farm,Wind,140.0,50.06,Flyers Creek Wind Farm,-33.365556,148.981944,2026-02-07T09:28:44.459989
2026/02/07 19:30:00,GPWFEST1,101.38,Golden Plains WF1 Pty Ltd as Trustee for the Golden Plains WF1 Unit Trust,Golden Plains Wind Farm East,Wind,240.0,42.24,Golden Plains Wind Farm East,-37.945091,143.752614,2026-02-07T09:28:44.459989
2026/02/07 19:30:00,GPWFEST2,109.0,Golden Plains WF1 Pty Ltd as Trustee for the Golden Plains WF1 Unit Trust,Golden Plains Wind Farm East,Wind,253.0,43.08,Golden Plains Wind Farm East,-37.945091,143.752614,2026-02-07T09:28:44.459989
2026/02/07 19:30:00,GPWFEST3,125.72,Golden Plains WF1 Pty Ltd as Trustee for the Golden Plains WF1 Unit Trust,Golden Plains Wind Farm East,Wind,240.0,52.38,Golden Plains Wind Farm East,-37.945091,143.752614,2026-02-07T09:28:44.459989
2026/02/07 19:30:00,GRANWF1,18.06,Granville Harbour Operations Pty Ltd as The Trustee for Granville Harbour Operations Trust,Granville Harbour Wind Farm,Wind,111.0,16.27,Granville Harbour Wind Farm,-41.8,145.06,2026-02-07T09:28:44.459989
2026/02/07 19:30:00,GSWF1A,44.76,Goyder Wind Farm 1 Pty Ltd as the Trustee for Goyder Wind Farm 1 Trust,Goyder South Wind Farm 1A,Wind,201.0,22.27,Goyder South Wind Farm 1A,-33.679758,138.937597,2026-02-07T09:28:44.459989
2026/02/07 19:30:00,GSWF1B1,60.7,Goyder Wind Farm 1B Pty Ltd as the Trustee for the Goyder Wind Farm 1B Trust,Goyder South Wind Farm 1B,Wind,196.0,30.97,Goyder South Wind Farm 1B,-33.679758,138.937597,2026-02-07T09:28:44.459989
2026/02/07 19:30:00,GULLRWF1,25.43,New Gullen Range Wind Farm Pty Ltd,Gullen Range Wind Farm,Wind,161.0,15.8,Gullen Range Wind Farm,-34.34,149.27,2026-02-07T09:28:44.459989
2026/02/07 19:30:00,GULLRWF2,3.02,New Gullen Range Wind Farm Pty Ltd,Gullen Range Wind Farm,Wind,107.0,2.82,Gullen Range Wind Farm,-34.34,149.27,2026-02-07T09:28:44.459989
2026/02/07 19:30:00,GUNNING1,10.51,Gunning Wind Energy Developments Pty Ltd,Gunning Wind Farm,Wind,47.0,22.36,Gunning Wind Farm,-34.813333,149.4,2026-02-07T09:28:44.459989
2026/02/07 19:30:00,HALLWF1,38.28,AGL SA Generation Pty Limited,Hallett 1 Wind Farm,Wind,95.0,40.29,Hallett 1 Wind Farm,-33.367778,138.728611,2026-02-07T09:28:44.459989
2026/02/07 19:30:00,HALLWF2,16.31,AGL SA Generation Pty Limited,Hallett 2 Wind Farm,Wind,71.0,22.97,Hallett 2 Wind Farm,-33.367778,138.728611,2026-02-07T09:28:44.459989
2026/02/07 19:30:00,HD1WF1,11.85,Hawkesdale Asset Pty Ltd as trustee for Hawkesdale Asset Trust,Hawkesdale Wind Farm,Wind,89.0,13.31,Hawkesdale Wind Farm,-38.147894,142.361381,2026-02-07T09:28:44.459989
2026/02/07 19:30:00,HDWF1,47.7,HWF1 Pty Ltd,Hornsdale Wind Farm,Wind,102.0,46.76,Hornsdale Wind Farm,-33.050556,138.543611,2026-02-07T09:28:44.459989
2026/02/07 19:30:00,HDWF2,34.3,HWF 2 Pty Ltd,Hornsdale Wind Farm 2,Wind,102.0,33.63,Hornsdale Wind Farm 2,-33.06,138.54,2026-02-07T09:28:44.459989
2026/02/07 19:30:00,HDWF3,47.6,HWF3 Pty Ltd,Hornsdale Wind Farm 3,Wind,109.0,43.67,Hornsdale Wind Farm 3,-33.06,138.54,2026-02-07T09:28:44.459989
2026/02/07 19:30:00,KABANWF1,42.55,Kaban Wind Farm Pty Ltd as trustee for Kaban Wind Farm Trust,Kaban Wind Farm,Wind,152.0,27.99,Kaban Wind Farm,-17.56,145.41,2026-02-07T09:28:44.459989
2026/02/07 19:30:00,KEPWF1,25.6,Kennedy Energy Park Pty Ltd,Kennedy Energy Park,Wind,43.0,59.53,Kennedy Energy Park,-20.88,144.42,2026-02-07T09:28:44.459989
2026/02/07 19:30:00,KIATAWF1,0.0,Kiata ProjectCo Pty Ltd Atf Kiata Project Trust,Kiata Wind Farm,Wind,31.0,0.0,Kiata Wind Farm,-36.4,141.75,2026-02-07T09:28:44.459989
2026/02/07 19:30:00,LGAPWF1,68.85,Lincoln Gap Wind Farm (Operations) Pty Ltd,Lincoln Gap Wind Farm,Wind,123.0,55.98,Lincoln Gap Wind Farm,-32.564279,137.557328,2026-02-07T09:28:44.459989
2026/02/07 19:30:00,LGAPWF1,68.85,Lincoln Gap Wind Farm (Operations) Pty Ltd,Lincoln Gap Wind Farm,Wind,123.0,55.98,Lincoln Gap Wind Farm,-32.564279,137.557328,2026-02-07T09:28:44.459989
2026/02/07 19:30:00,LGAPWF2,70.9,Lincoln Gap Wind Farm (Operations) Pty Ltd,Lincoln Gap Wind Farm,Wind,85.0,83.41,Lincoln Gap Wind Farm,-32.564279,137.557328,2026-02-07T09:28:44.459989
2026/02/07 19:30:00,LGAPWF2,70.9,Lincoln Gap Wind Farm (Operations) Pty Ltd,Lincoln Gap Wind Farm,Wind,85.0,83.41,Lincoln Gap Wind Farm,-32.564279,137.557328,2026-02-07T09:28:44.459989
2026/02/07 19:30:00,LKBONNY1,32.33,Lake Bonney Wind Power Pty Ltd,Lake Bonney Wind Farm Stage 1,Wind,81.0,39.91,Lake Bonney Wind Farm Stage 1,-37.76,140.4,2026-02-07T09:28:44.459989
2026/02/07 19:30:00,LKBONNY2,84.81,Lake Bonney Wind Power Pty Ltd,Lake Bonney Stage 2 Windfarm,Wind,159.0,53.34,Lake Bonney Stage 2 Windfarm,-37.76,140.4,2026-02-07T09:28:44.459989
2026/02/07 19:30:00,LKBONNY3,15.74,Lake Bonney Wind Power Pty Ltd,Lake Bonney Stage 3 Wind Farm,Wind,39.0,40.36,Lake Bonney Stage 3 Wind Farm,-37.737781,140.388137,2026-02-07T09:28:44.459989
2026/02/07 19:30:00,MACARTH1,50.4,AGL Hydro Partnership,Macarthur Wind Farm,Wind,420.0,12.0,Macarthur Wind Farm,-38.048957,142.192112,2026-02-07T09:28:44.459989
2026/02/07 19:30:00,MCINTYR1,222.86,MacIntyre UJV Operator Pty Ltd,MacIntyre Wind Farm,Wind,890.0,25.04,MacIntyre Wind Farm,-28.32,151.54,2026-02-07T09:28:44.459989
2026/02/07 19:30:00,MERCER01,17.5,Mt Mercer Windfarm Pty Ltd,Mt Mercer Wind Farm,Wind,131.0,13.36,Mt Mercer Wind Farm,-37.841111,143.871111,2026-02-07T09:28:44.459989
2026/02/07 19:30:00,MEWF1,49.58,Ergon Energy Queensland Pty Ltd ,Mount Emerald Wind Farm,Wind,178.0,27.85,Mount Emerald Wind Farm,-17.133007,145.380644,2026-02-07T09:28:44.459989
2026/02/07 19:30:00,MRTLSWF1,17.17,Mortlake South Wind Farm Pty Ltd,Mortlake South Wind Farm,Wind,153.0,11.22,Mortlake South Wind Farm,-38.127337,142.857801,2026-02-07T09:28:44.459989
2026/02/07 19:30:00,MTGELWF1,83.45,Mt. Gellibrand Wind Farm Pty Ltd,Mt Gellibrand Wind Farm,Wind,132.0,63.22,Mt Gellibrand Wind Farm,-38.23,143.77,2026-02-07T09:28:44.459989
2026/02/07 19:30:00,MTMILLAR,8.1,Mt Millar Wind Farm Pty Ltd,Mt Millar Wind Farm,Wind,70.0,11.57,Mt Millar Wind Farm,-33.624444,136.703611,2026-02-07T09:28:44.459989
2026/02/07 19:30:00,MUSSELR1,17.3,Hydro-Electric Corporation,Musselroe Wind Farm,Wind,168.0,10.3,Musselroe Wind Farm,-40.780225,148.010799,2026-02-07T09:28:44.459989
2026/02/07 19:30:00,MUWAWF1,10.76,Telstra Energy (Generation) Pty Ltd,Murra Warra Wind Farm,Wind,225.7,4.77,Murra Warra Wind Farm,-36.432404,142.317853,2026-02-07T09:28:44.459989
2026/02/07 19:30:00,MUWAWF2,24.7,Murra Warra II Project Co Pty Ltd ATF The Murra Warra II Project Trust,Murra Warra Wind Farm Stage 2,Wind,203.0,12.17,Murra Warra Wind Farm Stage 2,-36.43,142.32,2026-02-07T09:28:44.459989
2026/02/07 19:30:00,NBHWF1,32.4,AGL SA Generation Pty Limited,North Brown Hill Wind Farm,Wind,132.0,24.55,North Brown Hill Wind Farm,-33.367778,138.728611,2026-02-07T09:28:44.459989
2026/02/07 19:30:00,OAKLAND1,16.4,AGL Hydro Partnership,Oaklands Hill Wind Farm,Wind,63.0,26.03,Oaklands Hill Wind Farm,-37.683078,142.551678,2026-02-07T09:28:44.459989
2026/02/07 19:30:00,PAREPW1,90.84,Iberdrola Australia Energy Markets Pty Limited,Port Augusta Renewable Energy Park,Wind,201.0,45.19,Port Augusta Renewable Energy Park,-32.566944,137.856111,2026-02-07T09:28:44.459989
2026/02/07 19:30:00,RYANCWF1,97.71,Ryan Corner Development Pty Ltd,Ryan Corner Wind Farm,Wind,205.0,47.66,Ryan Corner Wind Farm,-38.271017,142.140647,2026-02-07T09:28:44.459989
2026/02/07 19:30:00,RYEPARK1,259.29,Rye Park Renewable Energy Pty Ltd as trustee for Rye Park Wind Farm Trust,Rye Park Renewable Energy,Wind,384.0,67.52,Rye Park Renewable Energy,-32.138333,148.972778,2026-02-07T09:28:44.459989
2026/02/07 19:30:00,SALTCRK1,7.59,Salt Creek Wind Farm Pty Ltd,Salt Creek Wind Farm,Wind,54.0,14.06,Salt Creek Wind Farm,-37.95,142.63,2026-02-07T09:28:44.459989
2026/02/07 19:30:00,SAPHWF1,237.98,The Trustee For The SWF1 Operations Trust,Sapphire Wind Farm,Wind,270.0,88.14,Sapphire Wind Farm,-29.7,151.41,2026-02-07T09:28:44.459989
2026/02/07 19:30:00,SNOWNTH1,49.1,Snowtown Wind Farm Stage 2 Pty Ltd,Snowtown Wind Farm Stage 2 North,Wind,144.0,34.1,Snowtown Wind Farm Stage 2 North,-33.83,138.118611,2026-02-07T09:28:44.459989
2026/02/07 19:30:00,SNOWSTH1,27.3,Snowtown Wind Farm Stage 2 Pty Ltd,Snowtown South Wind Farm,Wind,126.0,21.67,Snowtown South Wind Farm,-33.83,138.118611,2026-02-07T09:28:44.459989
2026/02/07 19:30:00,SNOWTWN1,34.66,Snowtown Wind Farm Pty Ltd,Snowtown Wind Farm Units 1 And 47,Wind,99.0,35.01,Snowtown Wind Farm Units 1 And 47,-33.83,138.118611,2026-02-07T09:28:44.459989
2026/02/07 19:30:00,STARHLWF,20.29,Starfish Hill Wind Farm Pty Ltd,Starfish Hill Wind Farm,Wind,35.0,57.97,Starfish Hill Wind Farm,-35.58,138.14,2026-02-07T09:28:44.459989
2026/02/07 19:30:00,STOCKYD1,170.39,Stockyard Hill Wind Farm Pty Ltd,Stockyard Hill Wind Farm,Wind,511.0,33.34,Stockyard Hill Wind Farm,-37.535833,143.251389,2026-02-07T09:28:44.459989
2026/02/07 19:30:00,STWF1,84.94,PARF Company 8 Pty Ltd as The Trustee for Silverton Project Trust,Silverton Wind Farm,Wind,198.0,42.9,Silverton Wind Farm,-37.683168,142.551678,2026-02-07T09:28:44.459989
2026/02/07 19:30:00,TARALGA1,7.46,Taralga Wind Farm Nominees No 2 Pty Ltd (ATF Taralga Wind Farm Operating Trust),Taralga Wind Farm,Wind,106.0,7.04,Taralga Wind Farm,-34.42352,149.826267,2026-02-07T09:28:44.459989
2026/02/07 19:30:00,WAMBOWF1,98.36,Stanwell Corporation Limited,Wambo Wind Farm 1,Wind,245.0,40.15,Wambo Wind Farm 1,-35.187301,149.524945,2026-02-07T09:28:44.459989
2026/02/07 19:30:00,WATERLWF,14.1,Waterloo Wind Farm Pty Ltd,Waterloo Wind Farm,Wind,130.0,10.85,Waterloo Wind Farm,-34.00094,138.911567,2026-02-07T09:28:44.459989
2026/02/07 19:30:00,WGWF1,27.7,Willogoleche Power Pty Ltd As The Trustee For The Willogoleche Operating Trust,Willogoleche Wind Farm,Wind,119.0,23.28,Willogoleche Wind Farm,-33.39,138.85,2026-02-07T09:28:44.459989
2026/02/07 19:30:00,WOODLWN1,35.02,Woodlawn Wind Pty Ltd,Woodlawn Wind Farm,Wind,48.0,72.96,Woodlawn Wind Farm,-35.08,149.62,2026-02-07T09:28:44.459989
2026/02/07 19:30:00,WPWF,74.2,AGL SA Generation Pty Limited,Wattle Point Wind Farm,Wind,91.0,81.54,Wattle Point Wind Farm,-35.111624,137.7219,2026-02-07T09:28:44.459989
2026/02/07 19:30:00,WRWF1,109.58,White Rock Wind Farm Pty Ltd,White Rock Wind Farm,Wind,172.0,63.71,White Rock Wind Farm,-29.79,151.54,2026-02-07T09:28:44.459989
2026/02/07 19:30:00,YENDWF1,15.65,Lal Lal Wind Farms Nom Co Pty Ltd,Yendon Wind Farm,Wind,142.0,11.02,Yendon Wind Farm,-37.629987,144.022717,2026-02-07T09:28:44.459989
