SETTLEMENTDATE,DUID,SCADAVALUE,Participant,Station Name,Fuel Source - Primary,MAX_CAP,utilisation_pct,Plant,Latitude,Longitude,timestamp_utc
2026/04/26 00:25:00,CAPTL_WF,0.0,Iberdrola Australia Holdings Pty Limited,Capital Wind Farm,Wind,140.0,0.0,Capital Wind Farm,-35.1,149.31,2026-04-25T14:24:54.673058
2026/04/26 00:25:00,CHALLHWF,35.4,Pacific Hydro Challicum Hills Pty Ltd,Challicum Hills Wind Farm,Wind,52.0,68.08,Challicum Hills Wind Farm,-37.38,143.11,2026-04-25T14:24:54.673058
2026/04/26 00:25:00,CULLRGWF,2.84,Cullerin Range Wind Farm Pty Ltd,Cullerin Range Wind Farm,Wind,30.0,9.47,Cullerin Range Wind Farm,-34.81,149.4,2026-04-25T14:24:54.673058
2026/04/26 00:25:00,DIAPURWF1,7.3,Y.E.S. Energy (SA) Pty Ltd,Diapur Wind Farm,Wind,7.0,104.29,Diapur Wind Farm,-36.3425,141.43,2026-04-25T14:24:54.673058
2026/04/26 00:25:00,MLWF1,10.28,Mortons Lane Windfarm Pty Limited,Mortons Lane Wind Farm,Wind,20.0,51.4,Mortons Lane Wind Farm,-37.84,142.45,2026-04-25T14:24:54.673058
2026/04/26 00:25:00,WAUBRAWF,115.62,Pyrenees Wind Energy Developments Pty Ltd,Waubra Wind Farm,Wind,192.0,60.22,Waubra Wind Farm,-37.394498,143.638982,2026-04-25T14:24:54.673058
2026/04/26 00:25:00,WOOLNTH1,42.85,Hydro-Electric Corporation,Woolnorth Studland Bay / Bluff Point Wind Farm,Wind,140.0,30.61,Woolnorth Studland Bay / Bluff Point Wind Farm,-40.69,144.72,2026-04-25T14:24:54.673058
2026/04/26 00:25:00,YAMBUKWF,-0.1,Energy Pacific (Vic) Pty Ltd,Yambuk Wind Farm,Wind,30.0,-0.33,Yambuk Wind Farm,-38.299083,142.027577,2026-04-25T14:24:54.673058
2026/04/26 00:25:00,YSWF1,17.6,Pacific Hydro Yaloak South Pty Ltd,Yaloak South Wind Farm,Wind,28.0,62.86,Yaloak South Wind Farm,-37.7163,144.242853,2026-04-25T14:24:54.673058
2026/04/26 00:25:00,ARWF1,79.0,Ararat Wind Farm Pty Ltd,Ararat Wind Farm,Wind,241.0,32.78,Ararat Wind Farm,-37.232778,143.031389,2026-04-25T14:24:54.673058
2026/04/26 00:25:00,BALDHWF1,68.26,Alinta Energy Retail Sales Pty Ltd,Bald Hills Wind Farm,Wind,106.0,64.4,Bald Hills Wind Farm,-38.79,145.93,2026-04-25T14:24:54.673058
2026/04/26 00:25:00,BANGOWF1,11.8,BWF Nominees Pty Ltd as The Trustee for BWF Trust,Bango 973 Wind Farm,Wind,155.0,7.61,Bango 973 Wind Farm,-34.551582,148.732808,2026-04-25T14:24:54.673058
2026/04/26 00:25:00,BANGOWF2,5.2,BWF Nominees Pty Ltd as The Trustee for BWF Trust,Bango 999 Wind Farm,Wind,82.0,6.34,Bango 999 Wind Farm,-34.551582,148.732808,2026-04-25T14:24:54.673058
2026/04/26 00:25:00,BLUFF1,0.0,AGL SA Generation Pty Limited,The Bluff Wind Farm,Wind,53.0,0.0,The Bluff Wind Farm,-33.367778,138.728611,2026-04-25T14:24:54.673058
2026/04/26 00:25:00,BOCORWF1,49.9,Boco Rock Wind Farm Pty Ltd,Boco Rock Wind Farm,Wind,111.0,44.95,Boco Rock Wind Farm,-36.578611,149.103333,2026-04-25T14:24:54.673058
2026/04/26 00:25:00,BRYB1WF1,156.32,Berrybank Development Pty Ltd,Berrybank Wind Farm,Wind,175.9,88.87,Berrybank Wind Farm,-37.94,143.52,2026-04-25T14:24:54.673058
2026/04/26 00:25:00,BRYB2WF2,100.38,Berrybank 2 Asset Pty Ltd as trustee for Berrybank 2 Asset Trust,Berrybank 2 Wind Farm,Wind,105.0,95.6,Berrybank 2 Wind Farm,-37.94,143.52,2026-04-25T14:24:54.673058
2026/04/26 00:25:00,BULGANA1,131.07,Bulgana Wind Farm Pty Ltd,Bulgana Green Power Hub,Wind,204.0,64.25,Bulgana Green Power Hub,-37.0975,142.973611,2026-04-25T14:24:54.673058
2026/04/26 00:25:00,CATHROCK,0.0,Cathedral Rocks Wind Farm Pty Ltd,Cathedral Rocks,Wind,66.0,0.0,Cathedral Rocks,-34.51,135.35,2026-04-25T14:24:54.673058
2026/04/26 00:25:00,CHYTWF1,28.35,Cherry Tree Wind Farm Pty Ltd as trustee for The Cherry Tree Project trust ,Cherry Tree Wind Farm,Wind,57.0,49.74,Cherry Tree Wind Farm,-37.1,145.26,2026-04-25T14:24:54.673058
2026/04/26 00:25:00,CLEMGPWF,1.37,Pacific Hydro Clements Gap Pty Ltd,Clements Gap Wind Farm,Wind,57.0,2.4,Clements Gap Wind Farm,-33.48,138.1,2026-04-25T14:24:54.673058
2026/04/26 00:25:00,CLRKCWF1,112.12,Stanwell Corporation Limited ,Clarke Creek Wind Farm,Wind,338.0,33.17,Clarke Creek Wind Farm,-22.85,149.45,2026-04-25T14:24:54.673058
2026/04/26 00:25:00,CLRKCWF2,48.93,Stanwell Corporation Limited ,Clarke Creek Wind Farm,Wind,101.0,48.45,Clarke Creek Wind Farm,-22.85,149.45,2026-04-25T14:24:54.673058
2026/04/26 00:25:00,CNUNDAWF,2.8,Canunda Power Pty Ltd,Canunda Wind Farm,Wind,46.0,6.09,Canunda Wind Farm,-37.73,140.39,2026-04-25T14:24:54.673058
2026/04/26 00:25:00,COLWF01,12.55,Collector Wind Farm Pty Ltd,Collector Wind Farm 1,Wind,219.0,5.73,Collector Wind Farm 1,-34.8719,149.3967,2026-04-25T14:24:54.673058
2026/04/26 00:25:00,COOPGWF1,132.29,PARF Company 10 Pty Limited as The Trustee for Coopers Gap Project Trust,Coopers Gap Wind Farm,Wind,440.0,30.07,Coopers Gap Wind Farm,-26.74,151.45,2026-04-25T14:24:54.673058
2026/04/26 00:25:00,CROOKWF2,19.67,Crookwell Development Pty Ltd ,Crookwell 2 Wind Farm,Wind,91.0,21.62,Crookwell 2 Wind Farm,-34.52,149.54,2026-04-25T14:24:54.673058
2026/04/26 00:25:00,CROOKWF3,8.25,Crookwell 3 Development Pty Ltd,Crookwell 3 Wind Farm,Wind,56.0,14.73,Crookwell 3 Wind Farm,-34.52,149.54,2026-04-25T14:24:54.673058
2026/04/26 00:25:00,CROWLWF1,71.82,Pacific Hydro Crowlands Pty Ltd ,Crowlands Wind Farm,Wind,79.0,90.91,Crowlands Wind Farm,-37.13,143.16,2026-04-25T14:24:54.673058
2026/04/26 00:25:00,CRURWF1,25.7,CRWF Nominees Pty Ltd As Trustee For The CRWF Trust,Crudine Ridge Wind Farm,Wind,138.0,18.62,Crudine Ridge Wind Farm,-32.97,149.64,2026-04-25T14:24:54.673058
2026/04/26 00:25:00,CTHLWF1,140.04,Wild Cattle Hill Pty Ltd,Cattle Hill Wind Farm,Wind,144.0,97.25,Cattle Hill Wind Farm,-42.15,146.69,2026-04-25T14:24:54.673058
2026/04/26 00:25:00,DULAWF1,143.4,Dulacca Energy Project Co Pty Ltd,Dulacca Wind Farm,Wind,173.0,82.89,Dulacca Wind Farm,-26.63,149.87,2026-04-25T14:24:54.673058
2026/04/26 00:25:00,DUNDWF1,83.61,Dundonnell Wind Farm Pty Ltd,Dundonnell Wind Farm,Wind,168.0,49.77,Dundonnell Wind Farm,-37.52,142.58,2026-04-25T14:24:54.673058
2026/04/26 00:25:00,DUNDWF2,23.0,Dundonnell Wind Farm Pty Ltd,Dundonnell Wind Farm,Wind,46.0,50.0,Dundonnell Wind Farm,-37.52,142.58,2026-04-25T14:24:54.673058
2026/04/26 00:25:00,DUNDWF3,60.7,Dundonnell Wind Farm Pty Ltd,Dundonnell Wind Farm,Wind,122.0,49.75,Dundonnell Wind Farm,-37.52,142.58,2026-04-25T14:24:54.673058
2026/04/26 00:25:00,ELAINWF1,72.73,Lal Lal Wind Farms Nom Co Pty Ltd,Elaine Wind Farm,Wind,82.0,88.7,Elaine Wind Farm,-37.36,144.0,2026-04-25T14:24:54.673058
2026/04/26 00:25:00,FLYCRKWF,65.1,Iberdrola Australia Energy Markets Pty Limited,Flyers Creek Wind Farm,Wind,140.0,46.5,Flyers Creek Wind Farm,-33.365556,148.981944,2026-04-25T14:24:54.673058
2026/04/26 00:25:00,GPWFEST1,202.45,Golden Plains WF1 Pty Ltd as Trustee for the Golden Plains WF1 Unit Trust,Golden Plains Wind Farm East,Wind,240.0,84.35,Golden Plains Wind Farm East,-37.945091,143.752614,2026-04-25T14:24:54.673058
2026/04/26 00:25:00,GPWFEST2,213.23,Golden Plains WF1 Pty Ltd as Trustee for the Golden Plains WF1 Unit Trust,Golden Plains Wind Farm East,Wind,253.0,84.28,Golden Plains Wind Farm East,-37.945091,143.752614,2026-04-25T14:24:54.673058
2026/04/26 00:25:00,GPWFEST3,224.92,Golden Plains WF1 Pty Ltd as Trustee for the Golden Plains WF1 Unit Trust,Golden Plains Wind Farm East,Wind,240.0,93.72,Golden Plains Wind Farm East,-37.945091,143.752614,2026-04-25T14:24:54.673058
2026/04/26 00:25:00,GRANWF1,85.66,Granville Harbour Operations Pty Ltd as The Trustee for Granville Harbour Operations Trust,Granville Harbour Wind Farm,Wind,111.0,77.17,Granville Harbour Wind Farm,-41.8,145.06,2026-04-25T14:24:54.673058
2026/04/26 00:25:00,GSWF1A,32.52,Goyder Wind Farm 1 Pty Ltd as the Trustee for Goyder Wind Farm 1 Trust,Goyder South Wind Farm 1A,Wind,201.0,16.18,Goyder South Wind Farm 1A,-33.679758,138.937597,2026-04-25T14:24:54.673058
2026/04/26 00:25:00,GSWF1B1,38.35,Goyder Wind Farm 1B Pty Ltd as the Trustee for the Goyder Wind Farm 1B Trust,Goyder South Wind Farm 1B,Wind,196.0,19.57,Goyder South Wind Farm 1B,-33.679758,138.937597,2026-04-25T14:24:54.673058
2026/04/26 00:25:00,GULLRWF1,26.12,New Gullen Range Wind Farm Pty Ltd,Gullen Range Wind Farm,Wind,161.0,16.22,Gullen Range Wind Farm,-34.34,149.27,2026-04-25T14:24:54.673058
2026/04/26 00:25:00,GULLRWF2,23.05,New Gullen Range Wind Farm Pty Ltd,Gullen Range Wind Farm,Wind,107.0,21.54,Gullen Range Wind Farm,-34.34,149.27,2026-04-25T14:24:54.673058
2026/04/26 00:25:00,GUNNING1,9.73,Gunning Wind Energy Developments Pty Ltd,Gunning Wind Farm,Wind,47.0,20.7,Gunning Wind Farm,-34.813333,149.4,2026-04-25T14:24:54.673058
2026/04/26 00:25:00,HALLWF1,6.13,AGL SA Generation Pty Limited,Hallett 1 Wind Farm,Wind,95.0,6.45,Hallett 1 Wind Farm,-33.367778,138.728611,2026-04-25T14:24:54.673058
2026/04/26 00:25:00,HALLWF2,8.06,AGL SA Generation Pty Limited,Hallett 2 Wind Farm,Wind,71.0,11.35,Hallett 2 Wind Farm,-33.367778,138.728611,2026-04-25T14:24:54.673058
2026/04/26 00:25:00,HD1WF1,16.8,Hawkesdale Asset Pty Ltd as trustee for Hawkesdale Asset Trust,Hawkesdale Wind Farm,Wind,89.0,18.88,Hawkesdale Wind Farm,-38.147894,142.361381,2026-04-25T14:24:54.673058
2026/04/26 00:25:00,HDWF1,8.1,HWF1 Pty Ltd,Hornsdale Wind Farm,Wind,102.0,7.94,Hornsdale Wind Farm,-33.050556,138.543611,2026-04-25T14:24:54.673058
2026/04/26 00:25:00,HDWF2,10.1,HWF 2 Pty Ltd,Hornsdale Wind Farm 2,Wind,102.0,9.9,Hornsdale Wind Farm 2,-33.06,138.54,2026-04-25T14:24:54.673058
2026/04/26 00:25:00,HDWF3,11.3,HWF3 Pty Ltd,Hornsdale Wind Farm 3,Wind,109.0,10.37,Hornsdale Wind Farm 3,-33.06,138.54,2026-04-25T14:24:54.673058
2026/04/26 00:25:00,KABANWF1,45.76,Kaban Wind Farm Pty Ltd as trustee for Kaban Wind Farm Trust,Kaban Wind Farm,Wind,152.0,30.11,Kaban Wind Farm,-17.56,145.41,2026-04-25T14:24:54.673058
2026/04/26 00:25:00,KEPWF1,27.3,Kennedy Energy Park Pty Ltd,Kennedy Energy Park,Wind,43.0,63.49,Kennedy Energy Park,-20.88,144.42,2026-04-25T14:24:54.673058
2026/04/26 00:25:00,KIATAWF1,30.5,Kiata ProjectCo Pty Ltd Atf Kiata Project Trust,Kiata Wind Farm,Wind,31.0,98.39,Kiata Wind Farm,-36.4,141.75,2026-04-25T14:24:54.673058
2026/04/26 00:25:00,LGAPWF1,70.84,Lincoln Gap Wind Farm (Operations) Pty Ltd,Lincoln Gap Wind Farm,Wind,123.0,57.59,Lincoln Gap Wind Farm,-32.564279,137.557328,2026-04-25T14:24:54.673058
2026/04/26 00:25:00,LGAPWF1,70.84,Lincoln Gap Wind Farm (Operations) Pty Ltd,Lincoln Gap Wind Farm,Wind,123.0,57.59,Lincoln Gap Wind Farm,-32.564279,137.557328,2026-04-25T14:24:54.673058
2026/04/26 00:25:00,LGAPWF2,48.39,Lincoln Gap Wind Farm (Operations) Pty Ltd,Lincoln Gap Wind Farm,Wind,85.0,56.93,Lincoln Gap Wind Farm,-32.564279,137.557328,2026-04-25T14:24:54.673058
2026/04/26 00:25:00,LGAPWF2,48.39,Lincoln Gap Wind Farm (Operations) Pty Ltd,Lincoln Gap Wind Farm,Wind,85.0,56.93,Lincoln Gap Wind Farm,-32.564279,137.557328,2026-04-25T14:24:54.673058
2026/04/26 00:25:00,LKBONNY1,4.47,Lake Bonney Wind Power Pty Ltd,Lake Bonney Wind Farm Stage 1,Wind,81.0,5.52,Lake Bonney Wind Farm Stage 1,-37.76,140.4,2026-04-25T14:24:54.673058
2026/04/26 00:25:00,LKBONNY2,9.7,Lake Bonney Wind Power Pty Ltd,Lake Bonney Stage 2 Windfarm,Wind,159.0,6.1,Lake Bonney Stage 2 Windfarm,-37.76,140.4,2026-04-25T14:24:54.673058
2026/04/26 00:25:00,LKBONNY3,2.79,Lake Bonney Wind Power Pty Ltd,Lake Bonney Stage 3 Wind Farm,Wind,39.0,7.15,Lake Bonney Stage 3 Wind Farm,-37.737781,140.388137,2026-04-25T14:24:54.673058
2026/04/26 00:25:00,MACARTH1,84.8,AGL Hydro Partnership,Macarthur Wind Farm,Wind,420.0,20.19,Macarthur Wind Farm,-38.048957,142.192112,2026-04-25T14:24:54.673058
2026/04/26 00:25:00,MCINTYR1,189.69,MacIntyre UJV Operator Pty Ltd,MacIntyre Wind Farm,Wind,890.0,21.31,MacIntyre Wind Farm,-28.32,151.54,2026-04-25T14:24:54.673058
2026/04/26 00:25:00,MERCER01,78.8,Mt Mercer Windfarm Pty Ltd,Mt Mercer Wind Farm,Wind,131.0,60.15,Mt Mercer Wind Farm,-37.841111,143.871111,2026-04-25T14:24:54.673058
2026/04/26 00:25:00,MEWF1,19.68,Ergon Energy Queensland Pty Ltd ,Mount Emerald Wind Farm,Wind,178.0,11.06,Mount Emerald Wind Farm,-17.133007,145.380644,2026-04-25T14:24:54.673058
2026/04/26 00:25:00,MRTLSWF1,143.3,Mortlake South Wind Farm Pty Ltd,Mortlake South Wind Farm,Wind,153.0,93.66,Mortlake South Wind Farm,-38.127337,142.857801,2026-04-25T14:24:54.673058
2026/04/26 00:25:00,MTGELWF1,82.04,Mt. Gellibrand Wind Farm Pty Ltd,Mt Gellibrand Wind Farm,Wind,132.0,62.15,Mt Gellibrand Wind Farm,-38.23,143.77,2026-04-25T14:24:54.673058
2026/04/26 00:25:00,MTMILLAR,12.4,Mt Millar Wind Farm Pty Ltd,Mt Millar Wind Farm,Wind,70.0,17.71,Mt Millar Wind Farm,-33.624444,136.703611,2026-04-25T14:24:54.673058
2026/04/26 00:25:00,MUSSELR1,0.0,Hydro-Electric Corporation,Musselroe Wind Farm,Wind,168.0,0.0,Musselroe Wind Farm,-40.780225,148.010799,2026-04-25T14:24:54.673058
2026/04/26 00:25:00,MUWAWF1,0.0,Telstra Energy (Generation) Pty Ltd,Murra Warra Wind Farm,Wind,225.7,0.0,Murra Warra Wind Farm,-36.432404,142.317853,2026-04-25T14:24:54.673058
2026/04/26 00:25:00,MUWAWF2,180.9,Murra Warra II Project Co Pty Ltd ATF The Murra Warra II Project Trust,Murra Warra Wind Farm Stage 2,Wind,203.0,89.11,Murra Warra Wind Farm Stage 2,-36.43,142.32,2026-04-25T14:24:54.673058
2026/04/26 00:25:00,NBHWF1,1.4,AGL SA Generation Pty Limited,North Brown Hill Wind Farm,Wind,132.0,1.06,North Brown Hill Wind Farm,-33.367778,138.728611,2026-04-25T14:24:54.673058
2026/04/26 00:25:00,OAKLAND1,38.1,AGL Hydro Partnership,Oaklands Hill Wind Farm,Wind,63.0,60.48,Oaklands Hill Wind Farm,-37.683078,142.551678,2026-04-25T14:24:54.673058
2026/04/26 00:25:00,PAREPW1,83.61,Iberdrola Australia Energy Markets Pty Limited,Port Augusta Renewable Energy Park,Wind,201.0,41.6,Port Augusta Renewable Energy Park,-32.566944,137.856111,2026-04-25T14:24:54.673058
2026/04/26 00:25:00,RYANCWF1,0.0,Ryan Corner Development Pty Ltd,Ryan Corner Wind Farm,Wind,205.0,0.0,Ryan Corner Wind Farm,-38.271017,142.140647,2026-04-25T14:24:54.673058
2026/04/26 00:25:00,RYEPARK1,24.28,Rye Park Renewable Energy Pty Ltd as trustee for Rye Park Wind Farm Trust,Rye Park Renewable Energy,Wind,384.0,6.32,Rye Park Renewable Energy,-32.138333,148.972778,2026-04-25T14:24:54.673058
2026/04/26 00:25:00,SALTCRK1,0.0,Salt Creek Wind Farm Pty Ltd,Salt Creek Wind Farm,Wind,54.0,0.0,Salt Creek Wind Farm,-37.95,142.63,2026-04-25T14:24:54.673058
2026/04/26 00:25:00,SAPHWF1,91.49,The Trustee For The SWF1 Operations Trust,Sapphire Wind Farm,Wind,270.0,33.89,Sapphire Wind Farm,-29.7,151.41,2026-04-25T14:24:54.673058
2026/04/26 00:25:00,SNOWNTH1,15.9,Snowtown Wind Farm Stage 2 Pty Ltd,Snowtown Wind Farm Stage 2 North,Wind,144.0,11.04,Snowtown Wind Farm Stage 2 North,-33.83,138.118611,2026-04-25T14:24:54.673058
2026/04/26 00:25:00,SNOWSTH1,14.6,Snowtown Wind Farm Stage 2 Pty Ltd,Snowtown South Wind Farm,Wind,126.0,11.59,Snowtown South Wind Farm,-33.83,138.118611,2026-04-25T14:24:54.673058
2026/04/26 00:25:00,SNOWTWN1,7.7,Snowtown Wind Farm Pty Ltd,Snowtown Wind Farm Units 1 And 47,Wind,99.0,7.78,Snowtown Wind Farm Units 1 And 47,-33.83,138.118611,2026-04-25T14:24:54.673058
2026/04/26 00:25:00,STARHLWF,10.2,Starfish Hill Wind Farm Pty Ltd,Starfish Hill Wind Farm,Wind,35.0,29.14,Starfish Hill Wind Farm,-35.58,138.14,2026-04-25T14:24:54.673058
2026/04/26 00:25:00,STOCKYD1,434.58,Stockyard Hill Wind Farm Pty Ltd,Stockyard Hill Wind Farm,Wind,511.0,85.05,Stockyard Hill Wind Farm,-37.535833,143.251389,2026-04-25T14:24:54.673058
2026/04/26 00:25:00,STWF1,126.44,PARF Company 8 Pty Ltd as The Trustee for Silverton Project Trust,Silverton Wind Farm,Wind,198.0,63.86,Silverton Wind Farm,-37.683168,142.551678,2026-04-25T14:24:54.673058
2026/04/26 00:25:00,TARALGA1,1.81,Taralga Wind Farm Nominees No 2 Pty Ltd (ATF Taralga Wind Farm Operating Trust),Taralga Wind Farm,Wind,106.0,1.71,Taralga Wind Farm,-34.42352,149.826267,2026-04-25T14:24:54.673058
2026/04/26 00:25:00,WAMBOWF1,131.02,Stanwell Corporation Limited,Wambo Wind Farm 1,Wind,245.0,53.48,Wambo Wind Farm 1,-35.187301,149.524945,2026-04-25T14:24:54.673058
2026/04/26 00:25:00,WATERLWF,10.4,Waterloo Wind Farm Pty Ltd,Waterloo Wind Farm,Wind,130.0,8.0,Waterloo Wind Farm,-34.00094,138.911567,2026-04-25T14:24:54.673058
2026/04/26 00:25:00,WGWF1,2.0,Willogoleche Power Pty Ltd As The Trustee For The Willogoleche Operating Trust,Willogoleche Wind Farm,Wind,119.0,1.68,Willogoleche Wind Farm,-33.39,138.85,2026-04-25T14:24:54.673058
2026/04/26 00:25:00,WOODLWN1,2.97,Woodlawn Wind Pty Ltd,Woodlawn Wind Farm,Wind,48.0,6.19,Woodlawn Wind Farm,-35.08,149.62,2026-04-25T14:24:54.673058
2026/04/26 00:25:00,WPWF,15.27,AGL SA Generation Pty Limited,Wattle Point Wind Farm,Wind,91.0,16.78,Wattle Point Wind Farm,-35.111624,137.7219,2026-04-25T14:24:54.673058
2026/04/26 00:25:00,WRWF1,158.89,White Rock Wind Farm Pty Ltd,White Rock Wind Farm,Wind,172.0,92.38,White Rock Wind Farm,-29.79,151.54,2026-04-25T14:24:54.673058
2026/04/26 00:25:00,YENDWF1,107.18,Lal Lal Wind Farms Nom Co Pty Ltd,Yendon Wind Farm,Wind,142.0,75.48,Yendon Wind Farm,-37.629987,144.022717,2026-04-25T14:24:54.673058
