SETTLEMENTDATE,DUID,SCADAVALUE,Participant,Station Name,Fuel Source - Primary,MAX_CAP,utilisation_pct,Plant,Latitude,Longitude,timestamp_utc
2026/04/22 02:35:00,CAPTL_WF,6.81,Iberdrola Australia Holdings Pty Limited,Capital Wind Farm,Wind,140.0,4.86,Capital Wind Farm,-35.1,149.31,2026-04-21T16:42:26.206584
2026/04/22 02:35:00,CHALLHWF,31.5,Pacific Hydro Challicum Hills Pty Ltd,Challicum Hills Wind Farm,Wind,52.0,60.58,Challicum Hills Wind Farm,-37.38,143.11,2026-04-21T16:42:26.206584
2026/04/22 02:35:00,CULLRGWF,6.21,Cullerin Range Wind Farm Pty Ltd,Cullerin Range Wind Farm,Wind,30.0,20.7,Cullerin Range Wind Farm,-34.81,149.4,2026-04-21T16:42:26.206584
2026/04/22 02:35:00,DIAPURWF1,7.3,Y.E.S. Energy (SA) Pty Ltd,Diapur Wind Farm,Wind,7.0,104.29,Diapur Wind Farm,-36.3425,141.43,2026-04-21T16:42:26.206584
2026/04/22 02:35:00,MLWF1,18.87,Mortons Lane Windfarm Pty Limited,Mortons Lane Wind Farm,Wind,20.0,94.35,Mortons Lane Wind Farm,-37.84,142.45,2026-04-21T16:42:26.206584
2026/04/22 02:35:00,WAUBRAWF,91.42,Pyrenees Wind Energy Developments Pty Ltd,Waubra Wind Farm,Wind,192.0,47.61,Waubra Wind Farm,-37.394498,143.638982,2026-04-21T16:42:26.206584
2026/04/22 02:35:00,WOOLNTH1,118.3,Hydro-Electric Corporation,Woolnorth Studland Bay / Bluff Point Wind Farm,Wind,140.0,84.5,Woolnorth Studland Bay / Bluff Point Wind Farm,-40.69,144.72,2026-04-21T16:42:26.206584
2026/04/22 02:35:00,YAMBUKWF,20.3,Energy Pacific (Vic) Pty Ltd,Yambuk Wind Farm,Wind,30.0,67.67,Yambuk Wind Farm,-38.299083,142.027577,2026-04-21T16:42:26.206584
2026/04/22 02:35:00,YSWF1,7.6,Pacific Hydro Yaloak South Pty Ltd,Yaloak South Wind Farm,Wind,28.0,27.14,Yaloak South Wind Farm,-37.7163,144.242853,2026-04-21T16:42:26.206584
2026/04/22 02:35:00,ARWF1,52.9,Ararat Wind Farm Pty Ltd,Ararat Wind Farm,Wind,241.0,21.95,Ararat Wind Farm,-37.232778,143.031389,2026-04-21T16:42:26.206584
2026/04/22 02:35:00,BALDHWF1,48.81,Alinta Energy Retail Sales Pty Ltd,Bald Hills Wind Farm,Wind,106.0,46.05,Bald Hills Wind Farm,-38.79,145.93,2026-04-21T16:42:26.206584
2026/04/22 02:35:00,BANGOWF1,83.3,BWF Nominees Pty Ltd as The Trustee for BWF Trust,Bango 973 Wind Farm,Wind,155.0,53.74,Bango 973 Wind Farm,-34.551582,148.732808,2026-04-21T16:42:26.206584
2026/04/22 02:35:00,BANGOWF2,33.7,BWF Nominees Pty Ltd as The Trustee for BWF Trust,Bango 999 Wind Farm,Wind,82.0,41.1,Bango 999 Wind Farm,-34.551582,148.732808,2026-04-21T16:42:26.206584
2026/04/22 02:35:00,BLUFF1,8.6,AGL SA Generation Pty Limited,The Bluff Wind Farm,Wind,53.0,16.23,The Bluff Wind Farm,-33.367778,138.728611,2026-04-21T16:42:26.206584
2026/04/22 02:35:00,BOCORWF1,8.03,Boco Rock Wind Farm Pty Ltd,Boco Rock Wind Farm,Wind,111.0,7.23,Boco Rock Wind Farm,-36.578611,149.103333,2026-04-21T16:42:26.206584
2026/04/22 02:35:00,BRYB1WF1,160.83,Berrybank Development Pty Ltd,Berrybank Wind Farm,Wind,175.9,91.43,Berrybank Wind Farm,-37.94,143.52,2026-04-21T16:42:26.206584
2026/04/22 02:35:00,BRYB2WF2,94.15,Berrybank 2 Asset Pty Ltd as trustee for Berrybank 2 Asset Trust,Berrybank 2 Wind Farm,Wind,105.0,89.67,Berrybank 2 Wind Farm,-37.94,143.52,2026-04-21T16:42:26.206584
2026/04/22 02:35:00,BULGANA1,101.99,Bulgana Wind Farm Pty Ltd,Bulgana Green Power Hub,Wind,204.0,50.0,Bulgana Green Power Hub,-37.0975,142.973611,2026-04-21T16:42:26.206584
2026/04/22 02:35:00,CATHROCK,0.0,Cathedral Rocks Wind Farm Pty Ltd,Cathedral Rocks,Wind,66.0,0.0,Cathedral Rocks,-34.51,135.35,2026-04-21T16:42:26.206584
2026/04/22 02:35:00,CHYTWF1,0.24,Cherry Tree Wind Farm Pty Ltd as trustee for The Cherry Tree Project trust ,Cherry Tree Wind Farm,Wind,57.0,0.42,Cherry Tree Wind Farm,-37.1,145.26,2026-04-21T16:42:26.206584
2026/04/22 02:35:00,CLEMGPWF,34.94,Pacific Hydro Clements Gap Pty Ltd,Clements Gap Wind Farm,Wind,57.0,61.3,Clements Gap Wind Farm,-33.48,138.1,2026-04-21T16:42:26.206584
2026/04/22 02:35:00,CLRKCWF1,227.53,Stanwell Corporation Limited ,Clarke Creek Wind Farm,Wind,338.0,67.32,Clarke Creek Wind Farm,-22.85,149.45,2026-04-21T16:42:26.206584
2026/04/22 02:35:00,CLRKCWF2,71.34,Stanwell Corporation Limited ,Clarke Creek Wind Farm,Wind,101.0,70.63,Clarke Creek Wind Farm,-22.85,149.45,2026-04-21T16:42:26.206584
2026/04/22 02:35:00,CNUNDAWF,28.23,Canunda Power Pty Ltd,Canunda Wind Farm,Wind,46.0,61.37,Canunda Wind Farm,-37.73,140.39,2026-04-21T16:42:26.206584
2026/04/22 02:35:00,COLWF01,49.84,Collector Wind Farm Pty Ltd,Collector Wind Farm 1,Wind,219.0,22.76,Collector Wind Farm 1,-34.8719,149.3967,2026-04-21T16:42:26.206584
2026/04/22 02:35:00,COOPGWF1,239.8,PARF Company 10 Pty Limited as The Trustee for Coopers Gap Project Trust,Coopers Gap Wind Farm,Wind,440.0,54.5,Coopers Gap Wind Farm,-26.74,151.45,2026-04-21T16:42:26.206584
2026/04/22 02:35:00,CROOKWF2,20.5,Crookwell Development Pty Ltd ,Crookwell 2 Wind Farm,Wind,91.0,22.53,Crookwell 2 Wind Farm,-34.52,149.54,2026-04-21T16:42:26.206584
2026/04/22 02:35:00,CROOKWF3,12.33,Crookwell 3 Development Pty Ltd,Crookwell 3 Wind Farm,Wind,56.0,22.02,Crookwell 3 Wind Farm,-34.52,149.54,2026-04-21T16:42:26.206584
2026/04/22 02:35:00,CROWLWF1,49.82,Pacific Hydro Crowlands Pty Ltd ,Crowlands Wind Farm,Wind,79.0,63.06,Crowlands Wind Farm,-37.13,143.16,2026-04-21T16:42:26.206584
2026/04/22 02:35:00,CRURWF1,47.3,CRWF Nominees Pty Ltd As Trustee For The CRWF Trust,Crudine Ridge Wind Farm,Wind,138.0,34.28,Crudine Ridge Wind Farm,-32.97,149.64,2026-04-21T16:42:26.206584
2026/04/22 02:35:00,CTHLWF1,85.2,Wild Cattle Hill Pty Ltd,Cattle Hill Wind Farm,Wind,144.0,59.17,Cattle Hill Wind Farm,-42.15,146.69,2026-04-21T16:42:26.206584
2026/04/22 02:35:00,DULAWF1,91.6,Dulacca Energy Project Co Pty Ltd,Dulacca Wind Farm,Wind,173.0,52.95,Dulacca Wind Farm,-26.63,149.87,2026-04-21T16:42:26.206584
2026/04/22 02:35:00,DUNDWF1,85.1,Dundonnell Wind Farm Pty Ltd,Dundonnell Wind Farm,Wind,168.0,50.65,Dundonnell Wind Farm,-37.52,142.58,2026-04-21T16:42:26.206584
2026/04/22 02:35:00,DUNDWF2,21.24,Dundonnell Wind Farm Pty Ltd,Dundonnell Wind Farm,Wind,46.0,46.17,Dundonnell Wind Farm,-37.52,142.58,2026-04-21T16:42:26.206584
2026/04/22 02:35:00,DUNDWF3,61.71,Dundonnell Wind Farm Pty Ltd,Dundonnell Wind Farm,Wind,122.0,50.58,Dundonnell Wind Farm,-37.52,142.58,2026-04-21T16:42:26.206584
2026/04/22 02:35:00,ELAINWF1,51.15,Lal Lal Wind Farms Nom Co Pty Ltd,Elaine Wind Farm,Wind,82.0,62.38,Elaine Wind Farm,-37.36,144.0,2026-04-21T16:42:26.206584
2026/04/22 02:35:00,FLYCRKWF,52.63,Iberdrola Australia Energy Markets Pty Limited,Flyers Creek Wind Farm,Wind,140.0,37.59,Flyers Creek Wind Farm,-33.365556,148.981944,2026-04-21T16:42:26.206584
2026/04/22 02:35:00,GPWFEST1,149.16,Golden Plains WF1 Pty Ltd as Trustee for the Golden Plains WF1 Unit Trust,Golden Plains Wind Farm East,Wind,240.0,62.15,Golden Plains Wind Farm East,-37.945091,143.752614,2026-04-21T16:42:26.206584
2026/04/22 02:35:00,GPWFEST2,198.93,Golden Plains WF1 Pty Ltd as Trustee for the Golden Plains WF1 Unit Trust,Golden Plains Wind Farm East,Wind,253.0,78.63,Golden Plains Wind Farm East,-37.945091,143.752614,2026-04-21T16:42:26.206584
2026/04/22 02:35:00,GPWFEST3,221.77,Golden Plains WF1 Pty Ltd as Trustee for the Golden Plains WF1 Unit Trust,Golden Plains Wind Farm East,Wind,240.0,92.4,Golden Plains Wind Farm East,-37.945091,143.752614,2026-04-21T16:42:26.206584
2026/04/22 02:35:00,GRANWF1,106.48,Granville Harbour Operations Pty Ltd as The Trustee for Granville Harbour Operations Trust,Granville Harbour Wind Farm,Wind,111.0,95.93,Granville Harbour Wind Farm,-41.8,145.06,2026-04-21T16:42:26.206584
2026/04/22 02:35:00,GSWF1A,83.97,Goyder Wind Farm 1 Pty Ltd as the Trustee for Goyder Wind Farm 1 Trust,Goyder South Wind Farm 1A,Wind,201.0,41.78,Goyder South Wind Farm 1A,-33.679758,138.937597,2026-04-21T16:42:26.206584
2026/04/22 02:35:00,GSWF1B1,91.13,Goyder Wind Farm 1B Pty Ltd as the Trustee for the Goyder Wind Farm 1B Trust,Goyder South Wind Farm 1B,Wind,196.0,46.49,Goyder South Wind Farm 1B,-33.679758,138.937597,2026-04-21T16:42:26.206584
2026/04/22 02:35:00,GULLRWF1,20.7,New Gullen Range Wind Farm Pty Ltd,Gullen Range Wind Farm,Wind,161.0,12.86,Gullen Range Wind Farm,-34.34,149.27,2026-04-21T16:42:26.206584
2026/04/22 02:35:00,GULLRWF2,50.46,New Gullen Range Wind Farm Pty Ltd,Gullen Range Wind Farm,Wind,107.0,47.16,Gullen Range Wind Farm,-34.34,149.27,2026-04-21T16:42:26.206584
2026/04/22 02:35:00,GUNNING1,13.45,Gunning Wind Energy Developments Pty Ltd,Gunning Wind Farm,Wind,47.0,28.62,Gunning Wind Farm,-34.813333,149.4,2026-04-21T16:42:26.206584
2026/04/22 02:35:00,HALLWF1,39.12,AGL SA Generation Pty Limited,Hallett 1 Wind Farm,Wind,95.0,41.18,Hallett 1 Wind Farm,-33.367778,138.728611,2026-04-21T16:42:26.206584
2026/04/22 02:35:00,HALLWF2,23.89,AGL SA Generation Pty Limited,Hallett 2 Wind Farm,Wind,71.0,33.65,Hallett 2 Wind Farm,-33.367778,138.728611,2026-04-21T16:42:26.206584
2026/04/22 02:35:00,HD1WF1,71.37,Hawkesdale Asset Pty Ltd as trustee for Hawkesdale Asset Trust,Hawkesdale Wind Farm,Wind,89.0,80.19,Hawkesdale Wind Farm,-38.147894,142.361381,2026-04-21T16:42:26.206584
2026/04/22 02:35:00,HDWF1,23.2,HWF1 Pty Ltd,Hornsdale Wind Farm,Wind,102.0,22.75,Hornsdale Wind Farm,-33.050556,138.543611,2026-04-21T16:42:26.206584
2026/04/22 02:35:00,HDWF2,26.5,HWF 2 Pty Ltd,Hornsdale Wind Farm 2,Wind,102.0,25.98,Hornsdale Wind Farm 2,-33.06,138.54,2026-04-21T16:42:26.206584
2026/04/22 02:35:00,HDWF3,21.1,HWF3 Pty Ltd,Hornsdale Wind Farm 3,Wind,109.0,19.36,Hornsdale Wind Farm 3,-33.06,138.54,2026-04-21T16:42:26.206584
2026/04/22 02:35:00,KABANWF1,110.1,Kaban Wind Farm Pty Ltd as trustee for Kaban Wind Farm Trust,Kaban Wind Farm,Wind,152.0,72.43,Kaban Wind Farm,-17.56,145.41,2026-04-21T16:42:26.206584
2026/04/22 02:35:00,KEPWF1,27.2,Kennedy Energy Park Pty Ltd,Kennedy Energy Park,Wind,43.0,63.26,Kennedy Energy Park,-20.88,144.42,2026-04-21T16:42:26.206584
2026/04/22 02:35:00,KIATAWF1,28.5,Kiata ProjectCo Pty Ltd Atf Kiata Project Trust,Kiata Wind Farm,Wind,31.0,91.94,Kiata Wind Farm,-36.4,141.75,2026-04-21T16:42:26.206584
2026/04/22 02:35:00,LGAPWF1,67.93,Lincoln Gap Wind Farm (Operations) Pty Ltd,Lincoln Gap Wind Farm,Wind,123.0,55.23,Lincoln Gap Wind Farm,-32.564279,137.557328,2026-04-21T16:42:26.206584
2026/04/22 02:35:00,LGAPWF1,67.93,Lincoln Gap Wind Farm (Operations) Pty Ltd,Lincoln Gap Wind Farm,Wind,123.0,55.23,Lincoln Gap Wind Farm,-32.564279,137.557328,2026-04-21T16:42:26.206584
2026/04/22 02:35:00,LGAPWF2,56.9,Lincoln Gap Wind Farm (Operations) Pty Ltd,Lincoln Gap Wind Farm,Wind,85.0,66.94,Lincoln Gap Wind Farm,-32.564279,137.557328,2026-04-21T16:42:26.206584
2026/04/22 02:35:00,LGAPWF2,56.9,Lincoln Gap Wind Farm (Operations) Pty Ltd,Lincoln Gap Wind Farm,Wind,85.0,66.94,Lincoln Gap Wind Farm,-32.564279,137.557328,2026-04-21T16:42:26.206584
2026/04/22 02:35:00,LKBONNY1,44.39,Lake Bonney Wind Power Pty Ltd,Lake Bonney Wind Farm Stage 1,Wind,81.0,54.8,Lake Bonney Wind Farm Stage 1,-37.76,140.4,2026-04-21T16:42:26.206584
2026/04/22 02:35:00,LKBONNY2,100.23,Lake Bonney Wind Power Pty Ltd,Lake Bonney Stage 2 Windfarm,Wind,159.0,63.04,Lake Bonney Stage 2 Windfarm,-37.76,140.4,2026-04-21T16:42:26.206584
2026/04/22 02:35:00,LKBONNY3,24.34,Lake Bonney Wind Power Pty Ltd,Lake Bonney Stage 3 Wind Farm,Wind,39.0,62.41,Lake Bonney Stage 3 Wind Farm,-37.737781,140.388137,2026-04-21T16:42:26.206584
2026/04/22 02:35:00,MACARTH1,202.6,AGL Hydro Partnership,Macarthur Wind Farm,Wind,420.0,48.24,Macarthur Wind Farm,-38.048957,142.192112,2026-04-21T16:42:26.206584
2026/04/22 02:35:00,MCINTYR1,342.43,MacIntyre UJV Operator Pty Ltd,MacIntyre Wind Farm,Wind,890.0,38.48,MacIntyre Wind Farm,-28.32,151.54,2026-04-21T16:42:26.206584
2026/04/22 02:35:00,MERCER01,89.5,Mt Mercer Windfarm Pty Ltd,Mt Mercer Wind Farm,Wind,131.0,68.32,Mt Mercer Wind Farm,-37.841111,143.871111,2026-04-21T16:42:26.206584
2026/04/22 02:35:00,MEWF1,127.18,Ergon Energy Queensland Pty Ltd ,Mount Emerald Wind Farm,Wind,178.0,71.45,Mount Emerald Wind Farm,-17.133007,145.380644,2026-04-21T16:42:26.206584
2026/04/22 02:35:00,MRTLSWF1,132.73,Mortlake South Wind Farm Pty Ltd,Mortlake South Wind Farm,Wind,153.0,86.75,Mortlake South Wind Farm,-38.127337,142.857801,2026-04-21T16:42:26.206584
2026/04/22 02:35:00,MTGELWF1,2.75,Mt. Gellibrand Wind Farm Pty Ltd,Mt Gellibrand Wind Farm,Wind,132.0,2.08,Mt Gellibrand Wind Farm,-38.23,143.77,2026-04-21T16:42:26.206584
2026/04/22 02:35:00,MTMILLAR,54.2,Mt Millar Wind Farm Pty Ltd,Mt Millar Wind Farm,Wind,70.0,77.43,Mt Millar Wind Farm,-33.624444,136.703611,2026-04-21T16:42:26.206584
2026/04/22 02:35:00,MUSSELR1,24.2,Hydro-Electric Corporation,Musselroe Wind Farm,Wind,168.0,14.4,Musselroe Wind Farm,-40.780225,148.010799,2026-04-21T16:42:26.206584
2026/04/22 02:35:00,MUWAWF1,0.0,Telstra Energy (Generation) Pty Ltd,Murra Warra Wind Farm,Wind,225.7,0.0,Murra Warra Wind Farm,-36.432404,142.317853,2026-04-21T16:42:26.206584
2026/04/22 02:35:00,MUWAWF2,175.2,Murra Warra II Project Co Pty Ltd ATF The Murra Warra II Project Trust,Murra Warra Wind Farm Stage 2,Wind,203.0,86.31,Murra Warra Wind Farm Stage 2,-36.43,142.32,2026-04-21T16:42:26.206584
2026/04/22 02:35:00,NBHWF1,38.1,AGL SA Generation Pty Limited,North Brown Hill Wind Farm,Wind,132.0,28.86,North Brown Hill Wind Farm,-33.367778,138.728611,2026-04-21T16:42:26.206584
2026/04/22 02:35:00,OAKLAND1,57.3,AGL Hydro Partnership,Oaklands Hill Wind Farm,Wind,63.0,90.95,Oaklands Hill Wind Farm,-37.683078,142.551678,2026-04-21T16:42:26.206584
2026/04/22 02:35:00,PAREPW1,19.67,Iberdrola Australia Energy Markets Pty Limited,Port Augusta Renewable Energy Park,Wind,201.0,9.79,Port Augusta Renewable Energy Park,-32.566944,137.856111,2026-04-21T16:42:26.206584
2026/04/22 02:35:00,RYANCWF1,154.72,Ryan Corner Development Pty Ltd,Ryan Corner Wind Farm,Wind,205.0,75.47,Ryan Corner Wind Farm,-38.271017,142.140647,2026-04-21T16:42:26.206584
2026/04/22 02:35:00,RYEPARK1,138.98,Rye Park Renewable Energy Pty Ltd as trustee for Rye Park Wind Farm Trust,Rye Park Renewable Energy,Wind,384.0,36.19,Rye Park Renewable Energy,-32.138333,148.972778,2026-04-21T16:42:26.206584
2026/04/22 02:35:00,SALTCRK1,0.0,Salt Creek Wind Farm Pty Ltd,Salt Creek Wind Farm,Wind,54.0,0.0,Salt Creek Wind Farm,-37.95,142.63,2026-04-21T16:42:26.206584
2026/04/22 02:35:00,SAPHWF1,135.91,The Trustee For The SWF1 Operations Trust,Sapphire Wind Farm,Wind,270.0,50.34,Sapphire Wind Farm,-29.7,151.41,2026-04-21T16:42:26.206584
2026/04/22 02:35:00,SNOWNTH1,67.6,Snowtown Wind Farm Stage 2 Pty Ltd,Snowtown Wind Farm Stage 2 North,Wind,144.0,46.94,Snowtown Wind Farm Stage 2 North,-33.83,138.118611,2026-04-21T16:42:26.206584
2026/04/22 02:35:00,SNOWSTH1,45.2,Snowtown Wind Farm Stage 2 Pty Ltd,Snowtown South Wind Farm,Wind,126.0,35.87,Snowtown South Wind Farm,-33.83,138.118611,2026-04-21T16:42:26.206584
2026/04/22 02:35:00,SNOWTWN1,61.77,Snowtown Wind Farm Pty Ltd,Snowtown Wind Farm Units 1 And 47,Wind,99.0,62.39,Snowtown Wind Farm Units 1 And 47,-33.83,138.118611,2026-04-21T16:42:26.206584
2026/04/22 02:35:00,STARHLWF,11.0,Starfish Hill Wind Farm Pty Ltd,Starfish Hill Wind Farm,Wind,35.0,31.43,Starfish Hill Wind Farm,-35.58,138.14,2026-04-21T16:42:26.206584
2026/04/22 02:35:00,STOCKYD1,448.3,Stockyard Hill Wind Farm Pty Ltd,Stockyard Hill Wind Farm,Wind,511.0,87.73,Stockyard Hill Wind Farm,-37.535833,143.251389,2026-04-21T16:42:26.206584
2026/04/22 02:35:00,STWF1,20.93,PARF Company 8 Pty Ltd as The Trustee for Silverton Project Trust,Silverton Wind Farm,Wind,198.0,10.57,Silverton Wind Farm,-37.683168,142.551678,2026-04-21T16:42:26.206584
2026/04/22 02:35:00,TARALGA1,13.84,Taralga Wind Farm Nominees No 2 Pty Ltd (ATF Taralga Wind Farm Operating Trust),Taralga Wind Farm,Wind,106.0,13.06,Taralga Wind Farm,-34.42352,149.826267,2026-04-21T16:42:26.206584
2026/04/22 02:35:00,WAMBOWF1,141.21,Stanwell Corporation Limited,Wambo Wind Farm 1,Wind,245.0,57.64,Wambo Wind Farm 1,-35.187301,149.524945,2026-04-21T16:42:26.206584
2026/04/22 02:35:00,WATERLWF,0.0,Waterloo Wind Farm Pty Ltd,Waterloo Wind Farm,Wind,130.0,0.0,Waterloo Wind Farm,-34.00094,138.911567,2026-04-21T16:42:26.206584
2026/04/22 02:35:00,WGWF1,24.9,Willogoleche Power Pty Ltd As The Trustee For The Willogoleche Operating Trust,Willogoleche Wind Farm,Wind,119.0,20.92,Willogoleche Wind Farm,-33.39,138.85,2026-04-21T16:42:26.206584
2026/04/22 02:35:00,WOODLWN1,10.74,Woodlawn Wind Pty Ltd,Woodlawn Wind Farm,Wind,48.0,22.38,Woodlawn Wind Farm,-35.08,149.62,2026-04-21T16:42:26.206584
2026/04/22 02:35:00,WPWF,24.86,AGL SA Generation Pty Limited,Wattle Point Wind Farm,Wind,91.0,27.32,Wattle Point Wind Farm,-35.111624,137.7219,2026-04-21T16:42:26.206584
2026/04/22 02:35:00,WRWF1,79.5,White Rock Wind Farm Pty Ltd,White Rock Wind Farm,Wind,172.0,46.22,White Rock Wind Farm,-29.79,151.54,2026-04-21T16:42:26.206584
2026/04/22 02:35:00,YENDWF1,88.06,Lal Lal Wind Farms Nom Co Pty Ltd,Yendon Wind Farm,Wind,142.0,62.01,Yendon Wind Farm,-37.629987,144.022717,2026-04-21T16:42:26.206584
