SETTLEMENTDATE,DUID,SCADAVALUE,Participant,Station Name,Fuel Source - Primary,MAX_CAP,utilisation_pct,Plant,Latitude,Longitude,timestamp_utc
2026/03/29 21:40:00,CAPTL_WF,31.72,Iberdrola Australia Holdings Pty Limited,Capital Wind Farm,Wind,140.0,22.66,Capital Wind Farm,-35.1,149.31,2026-03-29T11:39:19.187875
2026/03/29 21:40:00,CHALLHWF,3.4,Pacific Hydro Challicum Hills Pty Ltd,Challicum Hills Wind Farm,Wind,52.0,6.54,Challicum Hills Wind Farm,-37.38,143.11,2026-03-29T11:39:19.187875
2026/03/29 21:40:00,CULLRGWF,5.26,Cullerin Range Wind Farm Pty Ltd,Cullerin Range Wind Farm,Wind,30.0,17.53,Cullerin Range Wind Farm,-34.81,149.4,2026-03-29T11:39:19.187875
2026/03/29 21:40:00,DIAPURWF1,0.7,Y.E.S. Energy (SA) Pty Ltd,Diapur Wind Farm,Wind,7.0,10.0,Diapur Wind Farm,-36.3425,141.43,2026-03-29T11:39:19.187875
2026/03/29 21:40:00,MLWF1,4.26,Mortons Lane Windfarm Pty Limited,Mortons Lane Wind Farm,Wind,20.0,21.3,Mortons Lane Wind Farm,-37.84,142.45,2026-03-29T11:39:19.187875
2026/03/29 21:40:00,WAUBRAWF,21.14,Pyrenees Wind Energy Developments Pty Ltd,Waubra Wind Farm,Wind,192.0,11.01,Waubra Wind Farm,-37.394498,143.638982,2026-03-29T11:39:19.187875
2026/03/29 21:40:00,WOOLNTH1,1.49,Hydro-Electric Corporation,Woolnorth Studland Bay / Bluff Point Wind Farm,Wind,140.0,1.06,Woolnorth Studland Bay / Bluff Point Wind Farm,-40.69,144.72,2026-03-29T11:39:19.187875
2026/03/29 21:40:00,YAMBUKWF,9.9,Energy Pacific (Vic) Pty Ltd,Yambuk Wind Farm,Wind,30.0,33.0,Yambuk Wind Farm,-38.299083,142.027577,2026-03-29T11:39:19.187875
2026/03/29 21:40:00,YSWF1,1.1,Pacific Hydro Yaloak South Pty Ltd,Yaloak South Wind Farm,Wind,28.0,3.93,Yaloak South Wind Farm,-37.7163,144.242853,2026-03-29T11:39:19.187875
2026/03/29 21:40:00,ARWF1,17.8,Ararat Wind Farm Pty Ltd,Ararat Wind Farm,Wind,241.0,7.39,Ararat Wind Farm,-37.232778,143.031389,2026-03-29T11:39:19.187875
2026/03/29 21:40:00,BALDHWF1,0.0,Alinta Energy Retail Sales Pty Ltd,Bald Hills Wind Farm,Wind,106.0,0.0,Bald Hills Wind Farm,-38.79,145.93,2026-03-29T11:39:19.187875
2026/03/29 21:40:00,BANGOWF1,35.2,BWF Nominees Pty Ltd as The Trustee for BWF Trust,Bango 973 Wind Farm,Wind,155.0,22.71,Bango 973 Wind Farm,-34.551582,148.732808,2026-03-29T11:39:19.187875
2026/03/29 21:40:00,BANGOWF2,22.6,BWF Nominees Pty Ltd as The Trustee for BWF Trust,Bango 999 Wind Farm,Wind,82.0,27.56,Bango 999 Wind Farm,-34.551582,148.732808,2026-03-29T11:39:19.187875
2026/03/29 21:40:00,BLUFF1,0.6,AGL SA Generation Pty Limited,The Bluff Wind Farm,Wind,53.0,1.13,The Bluff Wind Farm,-33.367778,138.728611,2026-03-29T11:39:19.187875
2026/03/29 21:40:00,BOCORWF1,0.0,Boco Rock Wind Farm Pty Ltd,Boco Rock Wind Farm,Wind,111.0,0.0,Boco Rock Wind Farm,-36.578611,149.103333,2026-03-29T11:39:19.187875
2026/03/29 21:40:00,BRYB1WF1,58.93,Berrybank Development Pty Ltd,Berrybank Wind Farm,Wind,175.9,33.5,Berrybank Wind Farm,-37.94,143.52,2026-03-29T11:39:19.187875
2026/03/29 21:40:00,BRYB2WF2,42.84,Berrybank 2 Asset Pty Ltd as trustee for Berrybank 2 Asset Trust,Berrybank 2 Wind Farm,Wind,105.0,40.8,Berrybank 2 Wind Farm,-37.94,143.52,2026-03-29T11:39:19.187875
2026/03/29 21:40:00,BULGANA1,5.9,Bulgana Wind Farm Pty Ltd,Bulgana Green Power Hub,Wind,204.0,2.89,Bulgana Green Power Hub,-37.0975,142.973611,2026-03-29T11:39:19.187875
2026/03/29 21:40:00,CATHROCK,14.3,Cathedral Rocks Wind Farm Pty Ltd,Cathedral Rocks,Wind,66.0,21.67,Cathedral Rocks,-34.51,135.35,2026-03-29T11:39:19.187875
2026/03/29 21:40:00,CHYTWF1,3.11,Cherry Tree Wind Farm Pty Ltd as trustee for The Cherry Tree Project trust ,Cherry Tree Wind Farm,Wind,57.0,5.46,Cherry Tree Wind Farm,-37.1,145.26,2026-03-29T11:39:19.187875
2026/03/29 21:40:00,CLEMGPWF,0.0,Pacific Hydro Clements Gap Pty Ltd,Clements Gap Wind Farm,Wind,57.0,0.0,Clements Gap Wind Farm,-33.48,138.1,2026-03-29T11:39:19.187875
2026/03/29 21:40:00,CLRKCWF1,264.17,Stanwell Corporation Limited ,Clarke Creek Wind Farm,Wind,338.0,78.16,Clarke Creek Wind Farm,-22.85,149.45,2026-03-29T11:39:19.187875
2026/03/29 21:40:00,CLRKCWF2,97.49,Stanwell Corporation Limited ,Clarke Creek Wind Farm,Wind,101.0,96.52,Clarke Creek Wind Farm,-22.85,149.45,2026-03-29T11:39:19.187875
2026/03/29 21:40:00,CNUNDAWF,4.91,Canunda Power Pty Ltd,Canunda Wind Farm,Wind,46.0,10.67,Canunda Wind Farm,-37.73,140.39,2026-03-29T11:39:19.187875
2026/03/29 21:40:00,COLWF01,54.22,Collector Wind Farm Pty Ltd,Collector Wind Farm 1,Wind,219.0,24.76,Collector Wind Farm 1,-34.8719,149.3967,2026-03-29T11:39:19.187875
2026/03/29 21:40:00,COOPGWF1,337.12,PARF Company 10 Pty Limited as The Trustee for Coopers Gap Project Trust,Coopers Gap Wind Farm,Wind,440.0,76.62,Coopers Gap Wind Farm,-26.74,151.45,2026-03-29T11:39:19.187875
2026/03/29 21:40:00,CROOKWF2,31.32,Crookwell Development Pty Ltd ,Crookwell 2 Wind Farm,Wind,91.0,34.42,Crookwell 2 Wind Farm,-34.52,149.54,2026-03-29T11:39:19.187875
2026/03/29 21:40:00,CROOKWF3,20.62,Crookwell 3 Development Pty Ltd,Crookwell 3 Wind Farm,Wind,56.0,36.82,Crookwell 3 Wind Farm,-34.52,149.54,2026-03-29T11:39:19.187875
2026/03/29 21:40:00,CROWLWF1,1.6,Pacific Hydro Crowlands Pty Ltd ,Crowlands Wind Farm,Wind,79.0,2.03,Crowlands Wind Farm,-37.13,143.16,2026-03-29T11:39:19.187875
2026/03/29 21:40:00,CRURWF1,47.8,CRWF Nominees Pty Ltd As Trustee For The CRWF Trust,Crudine Ridge Wind Farm,Wind,138.0,34.64,Crudine Ridge Wind Farm,-32.97,149.64,2026-03-29T11:39:19.187875
2026/03/29 21:40:00,CTHLWF1,16.53,Wild Cattle Hill Pty Ltd,Cattle Hill Wind Farm,Wind,144.0,11.48,Cattle Hill Wind Farm,-42.15,146.69,2026-03-29T11:39:19.187875
2026/03/29 21:40:00,DULAWF1,168.0,Dulacca Energy Project Co Pty Ltd,Dulacca Wind Farm,Wind,173.0,97.11,Dulacca Wind Farm,-26.63,149.87,2026-03-29T11:39:19.187875
2026/03/29 21:40:00,DUNDWF1,56.23,Dundonnell Wind Farm Pty Ltd,Dundonnell Wind Farm,Wind,168.0,33.47,Dundonnell Wind Farm,-37.52,142.58,2026-03-29T11:39:19.187875
2026/03/29 21:40:00,DUNDWF2,17.35,Dundonnell Wind Farm Pty Ltd,Dundonnell Wind Farm,Wind,46.0,37.72,Dundonnell Wind Farm,-37.52,142.58,2026-03-29T11:39:19.187875
2026/03/29 21:40:00,DUNDWF3,45.95,Dundonnell Wind Farm Pty Ltd,Dundonnell Wind Farm,Wind,122.0,37.66,Dundonnell Wind Farm,-37.52,142.58,2026-03-29T11:39:19.187875
2026/03/29 21:40:00,ELAINWF1,14.29,Lal Lal Wind Farms Nom Co Pty Ltd,Elaine Wind Farm,Wind,82.0,17.43,Elaine Wind Farm,-37.36,144.0,2026-03-29T11:39:19.187875
2026/03/29 21:40:00,FLYCRKWF,82.23,Iberdrola Australia Energy Markets Pty Limited,Flyers Creek Wind Farm,Wind,140.0,58.74,Flyers Creek Wind Farm,-33.365556,148.981944,2026-03-29T11:39:19.187875
2026/03/29 21:40:00,GPWFEST1,84.7,Golden Plains WF1 Pty Ltd as Trustee for the Golden Plains WF1 Unit Trust,Golden Plains Wind Farm East,Wind,240.0,35.29,Golden Plains Wind Farm East,-37.945091,143.752614,2026-03-29T11:39:19.187875
2026/03/29 21:40:00,GPWFEST2,104.55,Golden Plains WF1 Pty Ltd as Trustee for the Golden Plains WF1 Unit Trust,Golden Plains Wind Farm East,Wind,253.0,41.32,Golden Plains Wind Farm East,-37.945091,143.752614,2026-03-29T11:39:19.187875
2026/03/29 21:40:00,GPWFEST3,129.18,Golden Plains WF1 Pty Ltd as Trustee for the Golden Plains WF1 Unit Trust,Golden Plains Wind Farm East,Wind,240.0,53.82,Golden Plains Wind Farm East,-37.945091,143.752614,2026-03-29T11:39:19.187875
2026/03/29 21:40:00,GRANWF1,0.0,Granville Harbour Operations Pty Ltd as The Trustee for Granville Harbour Operations Trust,Granville Harbour Wind Farm,Wind,111.0,0.0,Granville Harbour Wind Farm,-41.8,145.06,2026-03-29T11:39:19.187875
2026/03/29 21:40:00,GSWF1A,32.49,Goyder Wind Farm 1 Pty Ltd as the Trustee for Goyder Wind Farm 1 Trust,Goyder South Wind Farm 1A,Wind,201.0,16.16,Goyder South Wind Farm 1A,-33.679758,138.937597,2026-03-29T11:39:19.187875
2026/03/29 21:40:00,GSWF1B1,26.94,Goyder Wind Farm 1B Pty Ltd as the Trustee for the Goyder Wind Farm 1B Trust,Goyder South Wind Farm 1B,Wind,196.0,13.74,Goyder South Wind Farm 1B,-33.679758,138.937597,2026-03-29T11:39:19.187875
2026/03/29 21:40:00,GULLRWF1,19.23,New Gullen Range Wind Farm Pty Ltd,Gullen Range Wind Farm,Wind,161.0,11.94,Gullen Range Wind Farm,-34.34,149.27,2026-03-29T11:39:19.187875
2026/03/29 21:40:00,GULLRWF2,54.2,New Gullen Range Wind Farm Pty Ltd,Gullen Range Wind Farm,Wind,107.0,50.65,Gullen Range Wind Farm,-34.34,149.27,2026-03-29T11:39:19.187875
2026/03/29 21:40:00,GUNNING1,17.45,Gunning Wind Energy Developments Pty Ltd,Gunning Wind Farm,Wind,47.0,37.13,Gunning Wind Farm,-34.813333,149.4,2026-03-29T11:39:19.187875
2026/03/29 21:40:00,HALLWF1,0.37,AGL SA Generation Pty Limited,Hallett 1 Wind Farm,Wind,95.0,0.39,Hallett 1 Wind Farm,-33.367778,138.728611,2026-03-29T11:39:19.187875
2026/03/29 21:40:00,HALLWF2,6.88,AGL SA Generation Pty Limited,Hallett 2 Wind Farm,Wind,71.0,9.69,Hallett 2 Wind Farm,-33.367778,138.728611,2026-03-29T11:39:19.187875
2026/03/29 21:40:00,HD1WF1,74.57,Hawkesdale Asset Pty Ltd as trustee for Hawkesdale Asset Trust,Hawkesdale Wind Farm,Wind,89.0,83.79,Hawkesdale Wind Farm,-38.147894,142.361381,2026-03-29T11:39:19.187875
2026/03/29 21:40:00,HDWF1,4.4,HWF1 Pty Ltd,Hornsdale Wind Farm,Wind,102.0,4.31,Hornsdale Wind Farm,-33.050556,138.543611,2026-03-29T11:39:19.187875
2026/03/29 21:40:00,HDWF2,5.2,HWF 2 Pty Ltd,Hornsdale Wind Farm 2,Wind,102.0,5.1,Hornsdale Wind Farm 2,-33.06,138.54,2026-03-29T11:39:19.187875
2026/03/29 21:40:00,HDWF3,5.3,HWF3 Pty Ltd,Hornsdale Wind Farm 3,Wind,109.0,4.86,Hornsdale Wind Farm 3,-33.06,138.54,2026-03-29T11:39:19.187875
2026/03/29 21:40:00,KABANWF1,65.15,Kaban Wind Farm Pty Ltd as trustee for Kaban Wind Farm Trust,Kaban Wind Farm,Wind,152.0,42.86,Kaban Wind Farm,-17.56,145.41,2026-03-29T11:39:19.187875
2026/03/29 21:40:00,KEPWF1,27.1,Kennedy Energy Park Pty Ltd,Kennedy Energy Park,Wind,43.0,63.02,Kennedy Energy Park,-20.88,144.42,2026-03-29T11:39:19.187875
2026/03/29 21:40:00,KIATAWF1,0.0,Kiata ProjectCo Pty Ltd Atf Kiata Project Trust,Kiata Wind Farm,Wind,31.0,0.0,Kiata Wind Farm,-36.4,141.75,2026-03-29T11:39:19.187875
2026/03/29 21:40:00,LGAPWF1,3.08,Lincoln Gap Wind Farm (Operations) Pty Ltd,Lincoln Gap Wind Farm,Wind,123.0,2.5,Lincoln Gap Wind Farm,-32.564279,137.557328,2026-03-29T11:39:19.187875
2026/03/29 21:40:00,LGAPWF1,3.08,Lincoln Gap Wind Farm (Operations) Pty Ltd,Lincoln Gap Wind Farm,Wind,123.0,2.5,Lincoln Gap Wind Farm,-32.564279,137.557328,2026-03-29T11:39:19.187875
2026/03/29 21:40:00,LGAPWF2,6.22,Lincoln Gap Wind Farm (Operations) Pty Ltd,Lincoln Gap Wind Farm,Wind,85.0,7.32,Lincoln Gap Wind Farm,-32.564279,137.557328,2026-03-29T11:39:19.187875
2026/03/29 21:40:00,LGAPWF2,6.22,Lincoln Gap Wind Farm (Operations) Pty Ltd,Lincoln Gap Wind Farm,Wind,85.0,7.32,Lincoln Gap Wind Farm,-32.564279,137.557328,2026-03-29T11:39:19.187875
2026/03/29 21:40:00,LKBONNY1,10.0,Lake Bonney Wind Power Pty Ltd,Lake Bonney Wind Farm Stage 1,Wind,81.0,12.35,Lake Bonney Wind Farm Stage 1,-37.76,140.4,2026-03-29T11:39:19.187875
2026/03/29 21:40:00,LKBONNY2,17.51,Lake Bonney Wind Power Pty Ltd,Lake Bonney Stage 2 Windfarm,Wind,159.0,11.01,Lake Bonney Stage 2 Windfarm,-37.76,140.4,2026-03-29T11:39:19.187875
2026/03/29 21:40:00,LKBONNY3,4.02,Lake Bonney Wind Power Pty Ltd,Lake Bonney Stage 3 Wind Farm,Wind,39.0,10.31,Lake Bonney Stage 3 Wind Farm,-37.737781,140.388137,2026-03-29T11:39:19.187875
2026/03/29 21:40:00,MACARTH1,116.6,AGL Hydro Partnership,Macarthur Wind Farm,Wind,420.0,27.76,Macarthur Wind Farm,-38.048957,142.192112,2026-03-29T11:39:19.187875
2026/03/29 21:40:00,MCINTYR1,341.57,MacIntyre UJV Operator Pty Ltd,MacIntyre Wind Farm,Wind,890.0,38.38,MacIntyre Wind Farm,-28.32,151.54,2026-03-29T11:39:19.187875
2026/03/29 21:40:00,MERCER01,16.5,Mt Mercer Windfarm Pty Ltd,Mt Mercer Wind Farm,Wind,131.0,12.6,Mt Mercer Wind Farm,-37.841111,143.871111,2026-03-29T11:39:19.187875
2026/03/29 21:40:00,MEWF1,105.85,Ergon Energy Queensland Pty Ltd ,Mount Emerald Wind Farm,Wind,178.0,59.47,Mount Emerald Wind Farm,-17.133007,145.380644,2026-03-29T11:39:19.187875
2026/03/29 21:40:00,MRTLSWF1,55.75,Mortlake South Wind Farm Pty Ltd,Mortlake South Wind Farm,Wind,153.0,36.44,Mortlake South Wind Farm,-38.127337,142.857801,2026-03-29T11:39:19.187875
2026/03/29 21:40:00,MTGELWF1,40.96,Mt. Gellibrand Wind Farm Pty Ltd,Mt Gellibrand Wind Farm,Wind,132.0,31.03,Mt Gellibrand Wind Farm,-38.23,143.77,2026-03-29T11:39:19.187875
2026/03/29 21:40:00,MTMILLAR,37.9,Mt Millar Wind Farm Pty Ltd,Mt Millar Wind Farm,Wind,70.0,54.14,Mt Millar Wind Farm,-33.624444,136.703611,2026-03-29T11:39:19.187875
2026/03/29 21:40:00,MUSSELR1,36.8,Hydro-Electric Corporation,Musselroe Wind Farm,Wind,168.0,21.9,Musselroe Wind Farm,-40.780225,148.010799,2026-03-29T11:39:19.187875
2026/03/29 21:40:00,MUWAWF1,0.0,Telstra Energy (Generation) Pty Ltd,Murra Warra Wind Farm,Wind,225.7,0.0,Murra Warra Wind Farm,-36.432404,142.317853,2026-03-29T11:39:19.187875
2026/03/29 21:40:00,MUWAWF2,0.0,Murra Warra II Project Co Pty Ltd ATF The Murra Warra II Project Trust,Murra Warra Wind Farm Stage 2,Wind,203.0,0.0,Murra Warra Wind Farm Stage 2,-36.43,142.32,2026-03-29T11:39:19.187875
2026/03/29 21:40:00,NBHWF1,2.5,AGL SA Generation Pty Limited,North Brown Hill Wind Farm,Wind,132.0,1.89,North Brown Hill Wind Farm,-33.367778,138.728611,2026-03-29T11:39:19.187875
2026/03/29 21:40:00,OAKLAND1,8.7,AGL Hydro Partnership,Oaklands Hill Wind Farm,Wind,63.0,13.81,Oaklands Hill Wind Farm,-37.683078,142.551678,2026-03-29T11:39:19.187875
2026/03/29 21:40:00,PAREPW1,10.86,Iberdrola Australia Energy Markets Pty Limited,Port Augusta Renewable Energy Park,Wind,201.0,5.4,Port Augusta Renewable Energy Park,-32.566944,137.856111,2026-03-29T11:39:19.187875
2026/03/29 21:40:00,RYANCWF1,54.5,Ryan Corner Development Pty Ltd,Ryan Corner Wind Farm,Wind,205.0,26.59,Ryan Corner Wind Farm,-38.271017,142.140647,2026-03-29T11:39:19.187875
2026/03/29 21:40:00,RYEPARK1,101.43,Rye Park Renewable Energy Pty Ltd as trustee for Rye Park Wind Farm Trust,Rye Park Renewable Energy,Wind,384.0,26.41,Rye Park Renewable Energy,-32.138333,148.972778,2026-03-29T11:39:19.187875
2026/03/29 21:40:00,SALTCRK1,27.48,Salt Creek Wind Farm Pty Ltd,Salt Creek Wind Farm,Wind,54.0,50.89,Salt Creek Wind Farm,-37.95,142.63,2026-03-29T11:39:19.187875
2026/03/29 21:40:00,SAPHWF1,238.05,The Trustee For The SWF1 Operations Trust,Sapphire Wind Farm,Wind,270.0,88.17,Sapphire Wind Farm,-29.7,151.41,2026-03-29T11:39:19.187875
2026/03/29 21:40:00,SNOWNTH1,6.0,Snowtown Wind Farm Stage 2 Pty Ltd,Snowtown Wind Farm Stage 2 North,Wind,144.0,4.17,Snowtown Wind Farm Stage 2 North,-33.83,138.118611,2026-03-29T11:39:19.187875
2026/03/29 21:40:00,SNOWSTH1,7.0,Snowtown Wind Farm Stage 2 Pty Ltd,Snowtown South Wind Farm,Wind,126.0,5.56,Snowtown South Wind Farm,-33.83,138.118611,2026-03-29T11:39:19.187875
2026/03/29 21:40:00,SNOWTWN1,0.56,Snowtown Wind Farm Pty Ltd,Snowtown Wind Farm Units 1 And 47,Wind,99.0,0.57,Snowtown Wind Farm Units 1 And 47,-33.83,138.118611,2026-03-29T11:39:19.187875
2026/03/29 21:40:00,STARHLWF,0.3,Starfish Hill Wind Farm Pty Ltd,Starfish Hill Wind Farm,Wind,35.0,0.86,Starfish Hill Wind Farm,-35.58,138.14,2026-03-29T11:39:19.187875
2026/03/29 21:40:00,STOCKYD1,137.7,Stockyard Hill Wind Farm Pty Ltd,Stockyard Hill Wind Farm,Wind,511.0,26.95,Stockyard Hill Wind Farm,-37.535833,143.251389,2026-03-29T11:39:19.187875
2026/03/29 21:40:00,STWF1,33.66,PARF Company 8 Pty Ltd as The Trustee for Silverton Project Trust,Silverton Wind Farm,Wind,198.0,17.0,Silverton Wind Farm,-37.683168,142.551678,2026-03-29T11:39:19.187875
2026/03/29 21:40:00,TARALGA1,5.02,Taralga Wind Farm Nominees No 2 Pty Ltd (ATF Taralga Wind Farm Operating Trust),Taralga Wind Farm,Wind,106.0,4.74,Taralga Wind Farm,-34.42352,149.826267,2026-03-29T11:39:19.187875
2026/03/29 21:40:00,WAMBOWF1,199.61,Stanwell Corporation Limited,Wambo Wind Farm 1,Wind,245.0,81.47,Wambo Wind Farm 1,-35.187301,149.524945,2026-03-29T11:39:19.187875
2026/03/29 21:40:00,WATERLWF,19.2,Waterloo Wind Farm Pty Ltd,Waterloo Wind Farm,Wind,130.0,14.77,Waterloo Wind Farm,-34.00094,138.911567,2026-03-29T11:39:19.187875
2026/03/29 21:40:00,WGWF1,14.1,Willogoleche Power Pty Ltd As The Trustee For The Willogoleche Operating Trust,Willogoleche Wind Farm,Wind,119.0,11.85,Willogoleche Wind Farm,-33.39,138.85,2026-03-29T11:39:19.187875
2026/03/29 21:40:00,WOODLWN1,17.37,Woodlawn Wind Pty Ltd,Woodlawn Wind Farm,Wind,48.0,36.19,Woodlawn Wind Farm,-35.08,149.62,2026-03-29T11:39:19.187875
2026/03/29 21:40:00,WPWF,1.63,AGL SA Generation Pty Limited,Wattle Point Wind Farm,Wind,91.0,1.79,Wattle Point Wind Farm,-35.111624,137.7219,2026-03-29T11:39:19.187875
2026/03/29 21:40:00,WRWF1,122.88,White Rock Wind Farm Pty Ltd,White Rock Wind Farm,Wind,172.0,71.44,White Rock Wind Farm,-29.79,151.54,2026-03-29T11:39:19.187875
2026/03/29 21:40:00,YENDWF1,16.32,Lal Lal Wind Farms Nom Co Pty Ltd,Yendon Wind Farm,Wind,142.0,11.49,Yendon Wind Farm,-37.629987,144.022717,2026-03-29T11:39:19.187875
