SETTLEMENTDATE,DUID,SCADAVALUE,Participant,Station Name,Fuel Source - Primary,MAX_CAP,utilisation_pct,Plant,Latitude,Longitude,timestamp_utc
2026/04/11 02:35:00,CAPTL_WF,89.85,Iberdrola Australia Holdings Pty Limited,Capital Wind Farm,Wind,140.0,64.18,Capital Wind Farm,-35.1,149.31,2026-04-10T16:35:01.314204
2026/04/11 02:35:00,CHALLHWF,4.9,Pacific Hydro Challicum Hills Pty Ltd,Challicum Hills Wind Farm,Wind,52.0,9.42,Challicum Hills Wind Farm,-37.38,143.11,2026-04-10T16:35:01.314204
2026/04/11 02:35:00,CULLRGWF,29.71,Cullerin Range Wind Farm Pty Ltd,Cullerin Range Wind Farm,Wind,30.0,99.03,Cullerin Range Wind Farm,-34.81,149.4,2026-04-10T16:35:01.314204
2026/04/11 02:35:00,DIAPURWF1,7.3,Y.E.S. Energy (SA) Pty Ltd,Diapur Wind Farm,Wind,7.0,104.29,Diapur Wind Farm,-36.3425,141.43,2026-04-10T16:35:01.314204
2026/04/11 02:35:00,MLWF1,5.28,Mortons Lane Windfarm Pty Limited,Mortons Lane Wind Farm,Wind,20.0,26.4,Mortons Lane Wind Farm,-37.84,142.45,2026-04-10T16:35:01.314204
2026/04/11 02:35:00,WAUBRAWF,38.88,Pyrenees Wind Energy Developments Pty Ltd,Waubra Wind Farm,Wind,192.0,20.25,Waubra Wind Farm,-37.394498,143.638982,2026-04-10T16:35:01.314204
2026/04/11 02:35:00,WOOLNTH1,119.43,Hydro-Electric Corporation,Woolnorth Studland Bay / Bluff Point Wind Farm,Wind,140.0,85.31,Woolnorth Studland Bay / Bluff Point Wind Farm,-40.69,144.72,2026-04-10T16:35:01.314204
2026/04/11 02:35:00,YAMBUKWF,14.7,Energy Pacific (Vic) Pty Ltd,Yambuk Wind Farm,Wind,30.0,49.0,Yambuk Wind Farm,-38.299083,142.027577,2026-04-10T16:35:01.314204
2026/04/11 02:35:00,YSWF1,26.6,Pacific Hydro Yaloak South Pty Ltd,Yaloak South Wind Farm,Wind,28.0,95.0,Yaloak South Wind Farm,-37.7163,144.242853,2026-04-10T16:35:01.314204
2026/04/11 02:35:00,ARWF1,43.7,Ararat Wind Farm Pty Ltd,Ararat Wind Farm,Wind,241.0,18.13,Ararat Wind Farm,-37.232778,143.031389,2026-04-10T16:35:01.314204
2026/04/11 02:35:00,BALDHWF1,101.44,Alinta Energy Retail Sales Pty Ltd,Bald Hills Wind Farm,Wind,106.0,95.7,Bald Hills Wind Farm,-38.79,145.93,2026-04-10T16:35:01.314204
2026/04/11 02:35:00,BANGOWF1,88.9,BWF Nominees Pty Ltd as The Trustee for BWF Trust,Bango 973 Wind Farm,Wind,155.0,57.35,Bango 973 Wind Farm,-34.551582,148.732808,2026-04-10T16:35:01.314204
2026/04/11 02:35:00,BANGOWF2,48.2,BWF Nominees Pty Ltd as The Trustee for BWF Trust,Bango 999 Wind Farm,Wind,82.0,58.78,Bango 999 Wind Farm,-34.551582,148.732808,2026-04-10T16:35:01.314204
2026/04/11 02:35:00,BLUFF1,28.5,AGL SA Generation Pty Limited,The Bluff Wind Farm,Wind,53.0,53.77,The Bluff Wind Farm,-33.367778,138.728611,2026-04-10T16:35:01.314204
2026/04/11 02:35:00,BOCORWF1,68.25,Boco Rock Wind Farm Pty Ltd,Boco Rock Wind Farm,Wind,111.0,61.49,Boco Rock Wind Farm,-36.578611,149.103333,2026-04-10T16:35:01.314204
2026/04/11 02:35:00,BRYB1WF1,127.44,Berrybank Development Pty Ltd,Berrybank Wind Farm,Wind,175.9,72.45,Berrybank Wind Farm,-37.94,143.52,2026-04-10T16:35:01.314204
2026/04/11 02:35:00,BRYB2WF2,70.15,Berrybank 2 Asset Pty Ltd as trustee for Berrybank 2 Asset Trust,Berrybank 2 Wind Farm,Wind,105.0,66.81,Berrybank 2 Wind Farm,-37.94,143.52,2026-04-10T16:35:01.314204
2026/04/11 02:35:00,BULGANA1,12.13,Bulgana Wind Farm Pty Ltd,Bulgana Green Power Hub,Wind,204.0,5.95,Bulgana Green Power Hub,-37.0975,142.973611,2026-04-10T16:35:01.314204
2026/04/11 02:35:00,CATHROCK,0.0,Cathedral Rocks Wind Farm Pty Ltd,Cathedral Rocks,Wind,66.0,0.0,Cathedral Rocks,-34.51,135.35,2026-04-10T16:35:01.314204
2026/04/11 02:35:00,CHYTWF1,4.03,Cherry Tree Wind Farm Pty Ltd as trustee for The Cherry Tree Project trust ,Cherry Tree Wind Farm,Wind,57.0,7.07,Cherry Tree Wind Farm,-37.1,145.26,2026-04-10T16:35:01.314204
2026/04/11 02:35:00,CLEMGPWF,14.55,Pacific Hydro Clements Gap Pty Ltd,Clements Gap Wind Farm,Wind,57.0,25.53,Clements Gap Wind Farm,-33.48,138.1,2026-04-10T16:35:01.314204
2026/04/11 02:35:00,CLRKCWF1,268.22,Stanwell Corporation Limited ,Clarke Creek Wind Farm,Wind,338.0,79.36,Clarke Creek Wind Farm,-22.85,149.45,2026-04-10T16:35:01.314204
2026/04/11 02:35:00,CLRKCWF2,68.31,Stanwell Corporation Limited ,Clarke Creek Wind Farm,Wind,101.0,67.63,Clarke Creek Wind Farm,-22.85,149.45,2026-04-10T16:35:01.314204
2026/04/11 02:35:00,CNUNDAWF,24.33,Canunda Power Pty Ltd,Canunda Wind Farm,Wind,46.0,52.89,Canunda Wind Farm,-37.73,140.39,2026-04-10T16:35:01.314204
2026/04/11 02:35:00,COLWF01,177.51,Collector Wind Farm Pty Ltd,Collector Wind Farm 1,Wind,219.0,81.05,Collector Wind Farm 1,-34.8719,149.3967,2026-04-10T16:35:01.314204
2026/04/11 02:35:00,COOPGWF1,143.49,PARF Company 10 Pty Limited as The Trustee for Coopers Gap Project Trust,Coopers Gap Wind Farm,Wind,440.0,32.61,Coopers Gap Wind Farm,-26.74,151.45,2026-04-10T16:35:01.314204
2026/04/11 02:35:00,CROOKWF2,59.83,Crookwell Development Pty Ltd ,Crookwell 2 Wind Farm,Wind,91.0,65.75,Crookwell 2 Wind Farm,-34.52,149.54,2026-04-10T16:35:01.314204
2026/04/11 02:35:00,CROOKWF3,50.45,Crookwell 3 Development Pty Ltd,Crookwell 3 Wind Farm,Wind,56.0,90.09,Crookwell 3 Wind Farm,-34.52,149.54,2026-04-10T16:35:01.314204
2026/04/11 02:35:00,CROWLWF1,9.73,Pacific Hydro Crowlands Pty Ltd ,Crowlands Wind Farm,Wind,79.0,12.32,Crowlands Wind Farm,-37.13,143.16,2026-04-10T16:35:01.314204
2026/04/11 02:35:00,CRURWF1,16.0,CRWF Nominees Pty Ltd As Trustee For The CRWF Trust,Crudine Ridge Wind Farm,Wind,138.0,11.59,Crudine Ridge Wind Farm,-32.97,149.64,2026-04-10T16:35:01.314204
2026/04/11 02:35:00,CTHLWF1,140.1,Wild Cattle Hill Pty Ltd,Cattle Hill Wind Farm,Wind,144.0,97.29,Cattle Hill Wind Farm,-42.15,146.69,2026-04-10T16:35:01.314204
2026/04/11 02:35:00,DULAWF1,171.6,Dulacca Energy Project Co Pty Ltd,Dulacca Wind Farm,Wind,173.0,99.19,Dulacca Wind Farm,-26.63,149.87,2026-04-10T16:35:01.314204
2026/04/11 02:35:00,DUNDWF1,84.05,Dundonnell Wind Farm Pty Ltd,Dundonnell Wind Farm,Wind,168.0,50.03,Dundonnell Wind Farm,-37.52,142.58,2026-04-10T16:35:01.314204
2026/04/11 02:35:00,DUNDWF2,23.09,Dundonnell Wind Farm Pty Ltd,Dundonnell Wind Farm,Wind,46.0,50.2,Dundonnell Wind Farm,-37.52,142.58,2026-04-10T16:35:01.314204
2026/04/11 02:35:00,DUNDWF3,60.8,Dundonnell Wind Farm Pty Ltd,Dundonnell Wind Farm,Wind,122.0,49.84,Dundonnell Wind Farm,-37.52,142.58,2026-04-10T16:35:01.314204
2026/04/11 02:35:00,ELAINWF1,61.19,Lal Lal Wind Farms Nom Co Pty Ltd,Elaine Wind Farm,Wind,82.0,74.62,Elaine Wind Farm,-37.36,144.0,2026-04-10T16:35:01.314204
2026/04/11 02:35:00,FLYCRKWF,27.88,Iberdrola Australia Energy Markets Pty Limited,Flyers Creek Wind Farm,Wind,140.0,19.91,Flyers Creek Wind Farm,-33.365556,148.981944,2026-04-10T16:35:01.314204
2026/04/11 02:35:00,GPWFEST1,0.0,Golden Plains WF1 Pty Ltd as Trustee for the Golden Plains WF1 Unit Trust,Golden Plains Wind Farm East,Wind,240.0,0.0,Golden Plains Wind Farm East,-37.945091,143.752614,2026-04-10T16:35:01.314204
2026/04/11 02:35:00,GPWFEST2,0.0,Golden Plains WF1 Pty Ltd as Trustee for the Golden Plains WF1 Unit Trust,Golden Plains Wind Farm East,Wind,253.0,0.0,Golden Plains Wind Farm East,-37.945091,143.752614,2026-04-10T16:35:01.314204
2026/04/11 02:35:00,GPWFEST3,229.66,Golden Plains WF1 Pty Ltd as Trustee for the Golden Plains WF1 Unit Trust,Golden Plains Wind Farm East,Wind,240.0,95.69,Golden Plains Wind Farm East,-37.945091,143.752614,2026-04-10T16:35:01.314204
2026/04/11 02:35:00,GRANWF1,105.12,Granville Harbour Operations Pty Ltd as The Trustee for Granville Harbour Operations Trust,Granville Harbour Wind Farm,Wind,111.0,94.7,Granville Harbour Wind Farm,-41.8,145.06,2026-04-10T16:35:01.314204
2026/04/11 02:35:00,GSWF1A,183.05,Goyder Wind Farm 1 Pty Ltd as the Trustee for Goyder Wind Farm 1 Trust,Goyder South Wind Farm 1A,Wind,201.0,91.07,Goyder South Wind Farm 1A,-33.679758,138.937597,2026-04-10T16:35:01.314204
2026/04/11 02:35:00,GSWF1B1,30.89,Goyder Wind Farm 1B Pty Ltd as the Trustee for the Goyder Wind Farm 1B Trust,Goyder South Wind Farm 1B,Wind,196.0,15.76,Goyder South Wind Farm 1B,-33.679758,138.937597,2026-04-10T16:35:01.314204
2026/04/11 02:35:00,GULLRWF1,122.31,New Gullen Range Wind Farm Pty Ltd,Gullen Range Wind Farm,Wind,161.0,75.97,Gullen Range Wind Farm,-34.34,149.27,2026-04-10T16:35:01.314204
2026/04/11 02:35:00,GULLRWF2,85.0,New Gullen Range Wind Farm Pty Ltd,Gullen Range Wind Farm,Wind,107.0,79.44,Gullen Range Wind Farm,-34.34,149.27,2026-04-10T16:35:01.314204
2026/04/11 02:35:00,GUNNING1,38.98,Gunning Wind Energy Developments Pty Ltd,Gunning Wind Farm,Wind,47.0,82.94,Gunning Wind Farm,-34.813333,149.4,2026-04-10T16:35:01.314204
2026/04/11 02:35:00,HALLWF1,69.99,AGL SA Generation Pty Limited,Hallett 1 Wind Farm,Wind,95.0,73.67,Hallett 1 Wind Farm,-33.367778,138.728611,2026-04-10T16:35:01.314204
2026/04/11 02:35:00,HALLWF2,45.01,AGL SA Generation Pty Limited,Hallett 2 Wind Farm,Wind,71.0,63.39,Hallett 2 Wind Farm,-33.367778,138.728611,2026-04-10T16:35:01.314204
2026/04/11 02:35:00,HD1WF1,0.0,Hawkesdale Asset Pty Ltd as trustee for Hawkesdale Asset Trust,Hawkesdale Wind Farm,Wind,89.0,0.0,Hawkesdale Wind Farm,-38.147894,142.361381,2026-04-10T16:35:01.314204
2026/04/11 02:35:00,HDWF1,73.1,HWF1 Pty Ltd,Hornsdale Wind Farm,Wind,102.0,71.67,Hornsdale Wind Farm,-33.050556,138.543611,2026-04-10T16:35:01.314204
2026/04/11 02:35:00,HDWF2,60.4,HWF 2 Pty Ltd,Hornsdale Wind Farm 2,Wind,102.0,59.22,Hornsdale Wind Farm 2,-33.06,138.54,2026-04-10T16:35:01.314204
2026/04/11 02:35:00,HDWF3,67.5,HWF3 Pty Ltd,Hornsdale Wind Farm 3,Wind,109.0,61.93,Hornsdale Wind Farm 3,-33.06,138.54,2026-04-10T16:35:01.314204
2026/04/11 02:35:00,KABANWF1,68.59,Kaban Wind Farm Pty Ltd as trustee for Kaban Wind Farm Trust,Kaban Wind Farm,Wind,152.0,45.13,Kaban Wind Farm,-17.56,145.41,2026-04-10T16:35:01.314204
2026/04/11 02:35:00,KEPWF1,22.6,Kennedy Energy Park Pty Ltd,Kennedy Energy Park,Wind,43.0,52.56,Kennedy Energy Park,-20.88,144.42,2026-04-10T16:35:01.314204
2026/04/11 02:35:00,KIATAWF1,17.4,Kiata ProjectCo Pty Ltd Atf Kiata Project Trust,Kiata Wind Farm,Wind,31.0,56.13,Kiata Wind Farm,-36.4,141.75,2026-04-10T16:35:01.314204
2026/04/11 02:35:00,LGAPWF1,27.35,Lincoln Gap Wind Farm (Operations) Pty Ltd,Lincoln Gap Wind Farm,Wind,123.0,22.24,Lincoln Gap Wind Farm,-32.564279,137.557328,2026-04-10T16:35:01.314204
2026/04/11 02:35:00,LGAPWF1,27.35,Lincoln Gap Wind Farm (Operations) Pty Ltd,Lincoln Gap Wind Farm,Wind,123.0,22.24,Lincoln Gap Wind Farm,-32.564279,137.557328,2026-04-10T16:35:01.314204
2026/04/11 02:35:00,LGAPWF2,25.54,Lincoln Gap Wind Farm (Operations) Pty Ltd,Lincoln Gap Wind Farm,Wind,85.0,30.05,Lincoln Gap Wind Farm,-32.564279,137.557328,2026-04-10T16:35:01.314204
2026/04/11 02:35:00,LGAPWF2,25.54,Lincoln Gap Wind Farm (Operations) Pty Ltd,Lincoln Gap Wind Farm,Wind,85.0,30.05,Lincoln Gap Wind Farm,-32.564279,137.557328,2026-04-10T16:35:01.314204
2026/04/11 02:35:00,LKBONNY1,0.0,Lake Bonney Wind Power Pty Ltd,Lake Bonney Wind Farm Stage 1,Wind,81.0,0.0,Lake Bonney Wind Farm Stage 1,-37.76,140.4,2026-04-10T16:35:01.314204
2026/04/11 02:35:00,LKBONNY2,59.53,Lake Bonney Wind Power Pty Ltd,Lake Bonney Stage 2 Windfarm,Wind,159.0,37.44,Lake Bonney Stage 2 Windfarm,-37.76,140.4,2026-04-10T16:35:01.314204
2026/04/11 02:35:00,LKBONNY3,0.0,Lake Bonney Wind Power Pty Ltd,Lake Bonney Stage 3 Wind Farm,Wind,39.0,0.0,Lake Bonney Stage 3 Wind Farm,-37.737781,140.388137,2026-04-10T16:35:01.314204
2026/04/11 02:35:00,MACARTH1,100.4,AGL Hydro Partnership,Macarthur Wind Farm,Wind,420.0,23.9,Macarthur Wind Farm,-38.048957,142.192112,2026-04-10T16:35:01.314204
2026/04/11 02:35:00,MCINTYR1,149.73,MacIntyre UJV Operator Pty Ltd,MacIntyre Wind Farm,Wind,890.0,16.82,MacIntyre Wind Farm,-28.32,151.54,2026-04-10T16:35:01.314204
2026/04/11 02:35:00,MERCER01,76.4,Mt Mercer Windfarm Pty Ltd,Mt Mercer Wind Farm,Wind,131.0,58.32,Mt Mercer Wind Farm,-37.841111,143.871111,2026-04-10T16:35:01.314204
2026/04/11 02:35:00,MEWF1,43.38,Ergon Energy Queensland Pty Ltd ,Mount Emerald Wind Farm,Wind,178.0,24.37,Mount Emerald Wind Farm,-17.133007,145.380644,2026-04-10T16:35:01.314204
2026/04/11 02:35:00,MRTLSWF1,119.72,Mortlake South Wind Farm Pty Ltd,Mortlake South Wind Farm,Wind,153.0,78.25,Mortlake South Wind Farm,-38.127337,142.857801,2026-04-10T16:35:01.314204
2026/04/11 02:35:00,MTGELWF1,99.76,Mt. Gellibrand Wind Farm Pty Ltd,Mt Gellibrand Wind Farm,Wind,132.0,75.58,Mt Gellibrand Wind Farm,-38.23,143.77,2026-04-10T16:35:01.314204
2026/04/11 02:35:00,MTMILLAR,10.0,Mt Millar Wind Farm Pty Ltd,Mt Millar Wind Farm,Wind,70.0,14.29,Mt Millar Wind Farm,-33.624444,136.703611,2026-04-10T16:35:01.314204
2026/04/11 02:35:00,MUSSELR1,122.3,Hydro-Electric Corporation,Musselroe Wind Farm,Wind,168.0,72.8,Musselroe Wind Farm,-40.780225,148.010799,2026-04-10T16:35:01.314204
2026/04/11 02:35:00,MUWAWF1,0.0,Telstra Energy (Generation) Pty Ltd,Murra Warra Wind Farm,Wind,225.7,0.0,Murra Warra Wind Farm,-36.432404,142.317853,2026-04-10T16:35:01.314204
2026/04/11 02:35:00,MUWAWF2,90.6,Murra Warra II Project Co Pty Ltd ATF The Murra Warra II Project Trust,Murra Warra Wind Farm Stage 2,Wind,203.0,44.63,Murra Warra Wind Farm Stage 2,-36.43,142.32,2026-04-10T16:35:01.314204
2026/04/11 02:35:00,NBHWF1,68.8,AGL SA Generation Pty Limited,North Brown Hill Wind Farm,Wind,132.0,52.12,North Brown Hill Wind Farm,-33.367778,138.728611,2026-04-10T16:35:01.314204
2026/04/11 02:35:00,OAKLAND1,36.1,AGL Hydro Partnership,Oaklands Hill Wind Farm,Wind,63.0,57.3,Oaklands Hill Wind Farm,-37.683078,142.551678,2026-04-10T16:35:01.314204
2026/04/11 02:35:00,PAREPW1,20.96,Iberdrola Australia Energy Markets Pty Limited,Port Augusta Renewable Energy Park,Wind,201.0,10.43,Port Augusta Renewable Energy Park,-32.566944,137.856111,2026-04-10T16:35:01.314204
2026/04/11 02:35:00,RYANCWF1,135.24,Ryan Corner Development Pty Ltd,Ryan Corner Wind Farm,Wind,205.0,65.97,Ryan Corner Wind Farm,-38.271017,142.140647,2026-04-10T16:35:01.314204
2026/04/11 02:35:00,RYEPARK1,214.59,Rye Park Renewable Energy Pty Ltd as trustee for Rye Park Wind Farm Trust,Rye Park Renewable Energy,Wind,384.0,55.88,Rye Park Renewable Energy,-32.138333,148.972778,2026-04-10T16:35:01.314204
2026/04/11 02:35:00,SALTCRK1,0.0,Salt Creek Wind Farm Pty Ltd,Salt Creek Wind Farm,Wind,54.0,0.0,Salt Creek Wind Farm,-37.95,142.63,2026-04-10T16:35:01.314204
2026/04/11 02:35:00,SAPHWF1,179.69,The Trustee For The SWF1 Operations Trust,Sapphire Wind Farm,Wind,270.0,66.55,Sapphire Wind Farm,-29.7,151.41,2026-04-10T16:35:01.314204
2026/04/11 02:35:00,SNOWNTH1,51.9,Snowtown Wind Farm Stage 2 Pty Ltd,Snowtown Wind Farm Stage 2 North,Wind,144.0,36.04,Snowtown Wind Farm Stage 2 North,-33.83,138.118611,2026-04-10T16:35:01.314204
2026/04/11 02:35:00,SNOWSTH1,64.3,Snowtown Wind Farm Stage 2 Pty Ltd,Snowtown South Wind Farm,Wind,126.0,51.03,Snowtown South Wind Farm,-33.83,138.118611,2026-04-10T16:35:01.314204
2026/04/11 02:35:00,SNOWTWN1,12.36,Snowtown Wind Farm Pty Ltd,Snowtown Wind Farm Units 1 And 47,Wind,99.0,12.48,Snowtown Wind Farm Units 1 And 47,-33.83,138.118611,2026-04-10T16:35:01.314204
2026/04/11 02:35:00,STARHLWF,12.2,Starfish Hill Wind Farm Pty Ltd,Starfish Hill Wind Farm,Wind,35.0,34.86,Starfish Hill Wind Farm,-35.58,138.14,2026-04-10T16:35:01.314204
2026/04/11 02:35:00,STOCKYD1,325.92,Stockyard Hill Wind Farm Pty Ltd,Stockyard Hill Wind Farm,Wind,511.0,63.78,Stockyard Hill Wind Farm,-37.535833,143.251389,2026-04-10T16:35:01.314204
2026/04/11 02:35:00,STWF1,120.44,PARF Company 8 Pty Ltd as The Trustee for Silverton Project Trust,Silverton Wind Farm,Wind,198.0,60.83,Silverton Wind Farm,-37.683168,142.551678,2026-04-10T16:35:01.314204
2026/04/11 02:35:00,TARALGA1,92.42,Taralga Wind Farm Nominees No 2 Pty Ltd (ATF Taralga Wind Farm Operating Trust),Taralga Wind Farm,Wind,106.0,87.19,Taralga Wind Farm,-34.42352,149.826267,2026-04-10T16:35:01.314204
2026/04/11 02:35:00,WAMBOWF1,139.58,Stanwell Corporation Limited,Wambo Wind Farm 1,Wind,245.0,56.97,Wambo Wind Farm 1,-35.187301,149.524945,2026-04-10T16:35:01.314204
2026/04/11 02:35:00,WATERLWF,80.2,Waterloo Wind Farm Pty Ltd,Waterloo Wind Farm,Wind,130.0,61.69,Waterloo Wind Farm,-34.00094,138.911567,2026-04-10T16:35:01.314204
2026/04/11 02:35:00,WGWF1,95.3,Willogoleche Power Pty Ltd As The Trustee For The Willogoleche Operating Trust,Willogoleche Wind Farm,Wind,119.0,80.08,Willogoleche Wind Farm,-33.39,138.85,2026-04-10T16:35:01.314204
2026/04/11 02:35:00,WOODLWN1,44.97,Woodlawn Wind Pty Ltd,Woodlawn Wind Farm,Wind,48.0,93.69,Woodlawn Wind Farm,-35.08,149.62,2026-04-10T16:35:01.314204
2026/04/11 02:35:00,WPWF,49.07,AGL SA Generation Pty Limited,Wattle Point Wind Farm,Wind,91.0,53.92,Wattle Point Wind Farm,-35.111624,137.7219,2026-04-10T16:35:01.314204
2026/04/11 02:35:00,WRWF1,25.84,White Rock Wind Farm Pty Ltd,White Rock Wind Farm,Wind,172.0,15.02,White Rock Wind Farm,-29.79,151.54,2026-04-10T16:35:01.314204
2026/04/11 02:35:00,YENDWF1,80.54,Lal Lal Wind Farms Nom Co Pty Ltd,Yendon Wind Farm,Wind,142.0,56.72,Yendon Wind Farm,-37.629987,144.022717,2026-04-10T16:35:01.314204
