SETTLEMENTDATE,DUID,SCADAVALUE,Participant,Station Name,Fuel Source - Primary,MAX_CAP,utilisation_pct,Plant,Latitude,Longitude,timestamp_utc
2026/04/16 01:40:00,CAPTL_WF,9.17,Iberdrola Australia Holdings Pty Limited,Capital Wind Farm,Wind,140.0,6.55,Capital Wind Farm,-35.1,149.31,2026-04-15T15:45:51.428021
2026/04/16 01:40:00,CHALLHWF,37.4,Pacific Hydro Challicum Hills Pty Ltd,Challicum Hills Wind Farm,Wind,52.0,71.92,Challicum Hills Wind Farm,-37.38,143.11,2026-04-15T15:45:51.428021
2026/04/16 01:40:00,CULLRGWF,9.25,Cullerin Range Wind Farm Pty Ltd,Cullerin Range Wind Farm,Wind,30.0,30.83,Cullerin Range Wind Farm,-34.81,149.4,2026-04-15T15:45:51.428021
2026/04/16 01:40:00,DIAPURWF1,3.2,Y.E.S. Energy (SA) Pty Ltd,Diapur Wind Farm,Wind,7.0,45.71,Diapur Wind Farm,-36.3425,141.43,2026-04-15T15:45:51.428021
2026/04/16 01:40:00,MLWF1,9.62,Mortons Lane Windfarm Pty Limited,Mortons Lane Wind Farm,Wind,20.0,48.1,Mortons Lane Wind Farm,-37.84,142.45,2026-04-15T15:45:51.428021
2026/04/16 01:40:00,WAUBRAWF,72.07,Pyrenees Wind Energy Developments Pty Ltd,Waubra Wind Farm,Wind,192.0,37.54,Waubra Wind Farm,-37.394498,143.638982,2026-04-15T15:45:51.428021
2026/04/16 01:40:00,WOOLNTH1,30.3,Hydro-Electric Corporation,Woolnorth Studland Bay / Bluff Point Wind Farm,Wind,140.0,21.64,Woolnorth Studland Bay / Bluff Point Wind Farm,-40.69,144.72,2026-04-15T15:45:51.428021
2026/04/16 01:40:00,YAMBUKWF,7.5,Energy Pacific (Vic) Pty Ltd,Yambuk Wind Farm,Wind,30.0,25.0,Yambuk Wind Farm,-38.299083,142.027577,2026-04-15T15:45:51.428021
2026/04/16 01:40:00,YSWF1,7.8,Pacific Hydro Yaloak South Pty Ltd,Yaloak South Wind Farm,Wind,28.0,27.86,Yaloak South Wind Farm,-37.7163,144.242853,2026-04-15T15:45:51.428021
2026/04/16 01:40:00,ARWF1,39.9,Ararat Wind Farm Pty Ltd,Ararat Wind Farm,Wind,241.0,16.56,Ararat Wind Farm,-37.232778,143.031389,2026-04-15T15:45:51.428021
2026/04/16 01:40:00,BALDHWF1,8.17,Alinta Energy Retail Sales Pty Ltd,Bald Hills Wind Farm,Wind,106.0,7.71,Bald Hills Wind Farm,-38.79,145.93,2026-04-15T15:45:51.428021
2026/04/16 01:40:00,BANGOWF1,1.9,BWF Nominees Pty Ltd as The Trustee for BWF Trust,Bango 973 Wind Farm,Wind,155.0,1.23,Bango 973 Wind Farm,-34.551582,148.732808,2026-04-15T15:45:51.428021
2026/04/16 01:40:00,BANGOWF2,4.3,BWF Nominees Pty Ltd as The Trustee for BWF Trust,Bango 999 Wind Farm,Wind,82.0,5.24,Bango 999 Wind Farm,-34.551582,148.732808,2026-04-15T15:45:51.428021
2026/04/16 01:40:00,BLUFF1,5.1,AGL SA Generation Pty Limited,The Bluff Wind Farm,Wind,53.0,9.62,The Bluff Wind Farm,-33.367778,138.728611,2026-04-15T15:45:51.428021
2026/04/16 01:40:00,BOCORWF1,0.0,Boco Rock Wind Farm Pty Ltd,Boco Rock Wind Farm,Wind,111.0,0.0,Boco Rock Wind Farm,-36.578611,149.103333,2026-04-15T15:45:51.428021
2026/04/16 01:40:00,BRYB1WF1,40.74,Berrybank Development Pty Ltd,Berrybank Wind Farm,Wind,175.9,23.16,Berrybank Wind Farm,-37.94,143.52,2026-04-15T15:45:51.428021
2026/04/16 01:40:00,BRYB2WF2,28.02,Berrybank 2 Asset Pty Ltd as trustee for Berrybank 2 Asset Trust,Berrybank 2 Wind Farm,Wind,105.0,26.69,Berrybank 2 Wind Farm,-37.94,143.52,2026-04-15T15:45:51.428021
2026/04/16 01:40:00,BULGANA1,25.91,Bulgana Wind Farm Pty Ltd,Bulgana Green Power Hub,Wind,204.0,12.7,Bulgana Green Power Hub,-37.0975,142.973611,2026-04-15T15:45:51.428021
2026/04/16 01:40:00,CATHROCK,0.0,Cathedral Rocks Wind Farm Pty Ltd,Cathedral Rocks,Wind,66.0,0.0,Cathedral Rocks,-34.51,135.35,2026-04-15T15:45:51.428021
2026/04/16 01:40:00,CHYTWF1,6.24,Cherry Tree Wind Farm Pty Ltd as trustee for The Cherry Tree Project trust ,Cherry Tree Wind Farm,Wind,57.0,10.95,Cherry Tree Wind Farm,-37.1,145.26,2026-04-15T15:45:51.428021
2026/04/16 01:40:00,CLEMGPWF,1.3,Pacific Hydro Clements Gap Pty Ltd,Clements Gap Wind Farm,Wind,57.0,2.28,Clements Gap Wind Farm,-33.48,138.1,2026-04-15T15:45:51.428021
2026/04/16 01:40:00,CLRKCWF1,325.88,Stanwell Corporation Limited ,Clarke Creek Wind Farm,Wind,338.0,96.41,Clarke Creek Wind Farm,-22.85,149.45,2026-04-15T15:45:51.428021
2026/04/16 01:40:00,CLRKCWF2,93.43,Stanwell Corporation Limited ,Clarke Creek Wind Farm,Wind,101.0,92.5,Clarke Creek Wind Farm,-22.85,149.45,2026-04-15T15:45:51.428021
2026/04/16 01:40:00,CNUNDAWF,8.81,Canunda Power Pty Ltd,Canunda Wind Farm,Wind,46.0,19.15,Canunda Wind Farm,-37.73,140.39,2026-04-15T15:45:51.428021
2026/04/16 01:40:00,COLWF01,30.43,Collector Wind Farm Pty Ltd,Collector Wind Farm 1,Wind,219.0,13.89,Collector Wind Farm 1,-34.8719,149.3967,2026-04-15T15:45:51.428021
2026/04/16 01:40:00,COOPGWF1,95.58,PARF Company 10 Pty Limited as The Trustee for Coopers Gap Project Trust,Coopers Gap Wind Farm,Wind,440.0,21.72,Coopers Gap Wind Farm,-26.74,151.45,2026-04-15T15:45:51.428021
2026/04/16 01:40:00,CROOKWF2,2.78,Crookwell Development Pty Ltd ,Crookwell 2 Wind Farm,Wind,91.0,3.05,Crookwell 2 Wind Farm,-34.52,149.54,2026-04-15T15:45:51.428021
2026/04/16 01:40:00,CROOKWF3,1.29,Crookwell 3 Development Pty Ltd,Crookwell 3 Wind Farm,Wind,56.0,2.3,Crookwell 3 Wind Farm,-34.52,149.54,2026-04-15T15:45:51.428021
2026/04/16 01:40:00,CROWLWF1,24.79,Pacific Hydro Crowlands Pty Ltd ,Crowlands Wind Farm,Wind,79.0,31.38,Crowlands Wind Farm,-37.13,143.16,2026-04-15T15:45:51.428021
2026/04/16 01:40:00,CRURWF1,0.0,CRWF Nominees Pty Ltd As Trustee For The CRWF Trust,Crudine Ridge Wind Farm,Wind,138.0,0.0,Crudine Ridge Wind Farm,-32.97,149.64,2026-04-15T15:45:51.428021
2026/04/16 01:40:00,CTHLWF1,78.29,Wild Cattle Hill Pty Ltd,Cattle Hill Wind Farm,Wind,144.0,54.37,Cattle Hill Wind Farm,-42.15,146.69,2026-04-15T15:45:51.428021
2026/04/16 01:40:00,DULAWF1,133.6,Dulacca Energy Project Co Pty Ltd,Dulacca Wind Farm,Wind,173.0,77.23,Dulacca Wind Farm,-26.63,149.87,2026-04-15T15:45:51.428021
2026/04/16 01:40:00,DUNDWF1,8.18,Dundonnell Wind Farm Pty Ltd,Dundonnell Wind Farm,Wind,168.0,4.87,Dundonnell Wind Farm,-37.52,142.58,2026-04-15T15:45:51.428021
2026/04/16 01:40:00,DUNDWF2,2.29,Dundonnell Wind Farm Pty Ltd,Dundonnell Wind Farm,Wind,46.0,4.98,Dundonnell Wind Farm,-37.52,142.58,2026-04-15T15:45:51.428021
2026/04/16 01:40:00,DUNDWF3,17.88,Dundonnell Wind Farm Pty Ltd,Dundonnell Wind Farm,Wind,122.0,14.66,Dundonnell Wind Farm,-37.52,142.58,2026-04-15T15:45:51.428021
2026/04/16 01:40:00,ELAINWF1,48.17,Lal Lal Wind Farms Nom Co Pty Ltd,Elaine Wind Farm,Wind,82.0,58.74,Elaine Wind Farm,-37.36,144.0,2026-04-15T15:45:51.428021
2026/04/16 01:40:00,FLYCRKWF,0.0,Iberdrola Australia Energy Markets Pty Limited,Flyers Creek Wind Farm,Wind,140.0,0.0,Flyers Creek Wind Farm,-33.365556,148.981944,2026-04-15T15:45:51.428021
2026/04/16 01:40:00,GPWFEST1,53.99,Golden Plains WF1 Pty Ltd as Trustee for the Golden Plains WF1 Unit Trust,Golden Plains Wind Farm East,Wind,240.0,22.5,Golden Plains Wind Farm East,-37.945091,143.752614,2026-04-15T15:45:51.428021
2026/04/16 01:40:00,GPWFEST2,51.18,Golden Plains WF1 Pty Ltd as Trustee for the Golden Plains WF1 Unit Trust,Golden Plains Wind Farm East,Wind,253.0,20.23,Golden Plains Wind Farm East,-37.945091,143.752614,2026-04-15T15:45:51.428021
2026/04/16 01:40:00,GPWFEST3,118.04,Golden Plains WF1 Pty Ltd as Trustee for the Golden Plains WF1 Unit Trust,Golden Plains Wind Farm East,Wind,240.0,49.18,Golden Plains Wind Farm East,-37.945091,143.752614,2026-04-15T15:45:51.428021
2026/04/16 01:40:00,GRANWF1,38.76,Granville Harbour Operations Pty Ltd as The Trustee for Granville Harbour Operations Trust,Granville Harbour Wind Farm,Wind,111.0,34.92,Granville Harbour Wind Farm,-41.8,145.06,2026-04-15T15:45:51.428021
2026/04/16 01:40:00,GSWF1A,33.05,Goyder Wind Farm 1 Pty Ltd as the Trustee for Goyder Wind Farm 1 Trust,Goyder South Wind Farm 1A,Wind,201.0,16.44,Goyder South Wind Farm 1A,-33.679758,138.937597,2026-04-15T15:45:51.428021
2026/04/16 01:40:00,GSWF1B1,47.68,Goyder Wind Farm 1B Pty Ltd as the Trustee for the Goyder Wind Farm 1B Trust,Goyder South Wind Farm 1B,Wind,196.0,24.33,Goyder South Wind Farm 1B,-33.679758,138.937597,2026-04-15T15:45:51.428021
2026/04/16 01:40:00,GULLRWF1,25.0,New Gullen Range Wind Farm Pty Ltd,Gullen Range Wind Farm,Wind,161.0,15.53,Gullen Range Wind Farm,-34.34,149.27,2026-04-15T15:45:51.428021
2026/04/16 01:40:00,GULLRWF2,3.81,New Gullen Range Wind Farm Pty Ltd,Gullen Range Wind Farm,Wind,107.0,3.56,Gullen Range Wind Farm,-34.34,149.27,2026-04-15T15:45:51.428021
2026/04/16 01:40:00,GUNNING1,8.14,Gunning Wind Energy Developments Pty Ltd,Gunning Wind Farm,Wind,47.0,17.32,Gunning Wind Farm,-34.813333,149.4,2026-04-15T15:45:51.428021
2026/04/16 01:40:00,HALLWF1,7.82,AGL SA Generation Pty Limited,Hallett 1 Wind Farm,Wind,95.0,8.23,Hallett 1 Wind Farm,-33.367778,138.728611,2026-04-15T15:45:51.428021
2026/04/16 01:40:00,HALLWF2,3.94,AGL SA Generation Pty Limited,Hallett 2 Wind Farm,Wind,71.0,5.55,Hallett 2 Wind Farm,-33.367778,138.728611,2026-04-15T15:45:51.428021
2026/04/16 01:40:00,HD1WF1,33.09,Hawkesdale Asset Pty Ltd as trustee for Hawkesdale Asset Trust,Hawkesdale Wind Farm,Wind,89.0,37.18,Hawkesdale Wind Farm,-38.147894,142.361381,2026-04-15T15:45:51.428021
2026/04/16 01:40:00,HDWF1,11.3,HWF1 Pty Ltd,Hornsdale Wind Farm,Wind,102.0,11.08,Hornsdale Wind Farm,-33.050556,138.543611,2026-04-15T15:45:51.428021
2026/04/16 01:40:00,HDWF2,12.5,HWF 2 Pty Ltd,Hornsdale Wind Farm 2,Wind,102.0,12.25,Hornsdale Wind Farm 2,-33.06,138.54,2026-04-15T15:45:51.428021
2026/04/16 01:40:00,HDWF3,9.5,HWF3 Pty Ltd,Hornsdale Wind Farm 3,Wind,109.0,8.72,Hornsdale Wind Farm 3,-33.06,138.54,2026-04-15T15:45:51.428021
2026/04/16 01:40:00,KABANWF1,45.45,Kaban Wind Farm Pty Ltd as trustee for Kaban Wind Farm Trust,Kaban Wind Farm,Wind,152.0,29.9,Kaban Wind Farm,-17.56,145.41,2026-04-15T15:45:51.428021
2026/04/16 01:40:00,KEPWF1,20.2,Kennedy Energy Park Pty Ltd,Kennedy Energy Park,Wind,43.0,46.98,Kennedy Energy Park,-20.88,144.42,2026-04-15T15:45:51.428021
2026/04/16 01:40:00,KIATAWF1,6.2,Kiata ProjectCo Pty Ltd Atf Kiata Project Trust,Kiata Wind Farm,Wind,31.0,20.0,Kiata Wind Farm,-36.4,141.75,2026-04-15T15:45:51.428021
2026/04/16 01:40:00,LGAPWF1,5.91,Lincoln Gap Wind Farm (Operations) Pty Ltd,Lincoln Gap Wind Farm,Wind,123.0,4.8,Lincoln Gap Wind Farm,-32.564279,137.557328,2026-04-15T15:45:51.428021
2026/04/16 01:40:00,LGAPWF1,5.91,Lincoln Gap Wind Farm (Operations) Pty Ltd,Lincoln Gap Wind Farm,Wind,123.0,4.8,Lincoln Gap Wind Farm,-32.564279,137.557328,2026-04-15T15:45:51.428021
2026/04/16 01:40:00,LGAPWF2,4.57,Lincoln Gap Wind Farm (Operations) Pty Ltd,Lincoln Gap Wind Farm,Wind,85.0,5.38,Lincoln Gap Wind Farm,-32.564279,137.557328,2026-04-15T15:45:51.428021
2026/04/16 01:40:00,LGAPWF2,4.57,Lincoln Gap Wind Farm (Operations) Pty Ltd,Lincoln Gap Wind Farm,Wind,85.0,5.38,Lincoln Gap Wind Farm,-32.564279,137.557328,2026-04-15T15:45:51.428021
2026/04/16 01:40:00,LKBONNY1,12.06,Lake Bonney Wind Power Pty Ltd,Lake Bonney Wind Farm Stage 1,Wind,81.0,14.89,Lake Bonney Wind Farm Stage 1,-37.76,140.4,2026-04-15T15:45:51.428021
2026/04/16 01:40:00,LKBONNY2,20.17,Lake Bonney Wind Power Pty Ltd,Lake Bonney Stage 2 Windfarm,Wind,159.0,12.69,Lake Bonney Stage 2 Windfarm,-37.76,140.4,2026-04-15T15:45:51.428021
2026/04/16 01:40:00,LKBONNY3,4.74,Lake Bonney Wind Power Pty Ltd,Lake Bonney Stage 3 Wind Farm,Wind,39.0,12.15,Lake Bonney Stage 3 Wind Farm,-37.737781,140.388137,2026-04-15T15:45:51.428021
2026/04/16 01:40:00,MACARTH1,83.6,AGL Hydro Partnership,Macarthur Wind Farm,Wind,420.0,19.9,Macarthur Wind Farm,-38.048957,142.192112,2026-04-15T15:45:51.428021
2026/04/16 01:40:00,MCINTYR1,63.26,MacIntyre UJV Operator Pty Ltd,MacIntyre Wind Farm,Wind,890.0,7.11,MacIntyre Wind Farm,-28.32,151.54,2026-04-15T15:45:51.428021
2026/04/16 01:40:00,MERCER01,61.0,Mt Mercer Windfarm Pty Ltd,Mt Mercer Wind Farm,Wind,131.0,46.56,Mt Mercer Wind Farm,-37.841111,143.871111,2026-04-15T15:45:51.428021
2026/04/16 01:40:00,MEWF1,99.96,Ergon Energy Queensland Pty Ltd ,Mount Emerald Wind Farm,Wind,178.0,56.16,Mount Emerald Wind Farm,-17.133007,145.380644,2026-04-15T15:45:51.428021
2026/04/16 01:40:00,MRTLSWF1,17.43,Mortlake South Wind Farm Pty Ltd,Mortlake South Wind Farm,Wind,153.0,11.39,Mortlake South Wind Farm,-38.127337,142.857801,2026-04-15T15:45:51.428021
2026/04/16 01:40:00,MTGELWF1,4.9,Mt. Gellibrand Wind Farm Pty Ltd,Mt Gellibrand Wind Farm,Wind,132.0,3.71,Mt Gellibrand Wind Farm,-38.23,143.77,2026-04-15T15:45:51.428021
2026/04/16 01:40:00,MTMILLAR,0.0,Mt Millar Wind Farm Pty Ltd,Mt Millar Wind Farm,Wind,70.0,0.0,Mt Millar Wind Farm,-33.624444,136.703611,2026-04-15T15:45:51.428021
2026/04/16 01:40:00,MUSSELR1,93.9,Hydro-Electric Corporation,Musselroe Wind Farm,Wind,168.0,55.89,Musselroe Wind Farm,-40.780225,148.010799,2026-04-15T15:45:51.428021
2026/04/16 01:40:00,MUWAWF1,18.42,Telstra Energy (Generation) Pty Ltd,Murra Warra Wind Farm,Wind,225.7,8.16,Murra Warra Wind Farm,-36.432404,142.317853,2026-04-15T15:45:51.428021
2026/04/16 01:40:00,MUWAWF2,0.0,Murra Warra II Project Co Pty Ltd ATF The Murra Warra II Project Trust,Murra Warra Wind Farm Stage 2,Wind,203.0,0.0,Murra Warra Wind Farm Stage 2,-36.43,142.32,2026-04-15T15:45:51.428021
2026/04/16 01:40:00,NBHWF1,16.1,AGL SA Generation Pty Limited,North Brown Hill Wind Farm,Wind,132.0,12.2,North Brown Hill Wind Farm,-33.367778,138.728611,2026-04-15T15:45:51.428021
2026/04/16 01:40:00,OAKLAND1,5.4,AGL Hydro Partnership,Oaklands Hill Wind Farm,Wind,63.0,8.57,Oaklands Hill Wind Farm,-37.683078,142.551678,2026-04-15T15:45:51.428021
2026/04/16 01:40:00,PAREPW1,0.0,Iberdrola Australia Energy Markets Pty Limited,Port Augusta Renewable Energy Park,Wind,201.0,0.0,Port Augusta Renewable Energy Park,-32.566944,137.856111,2026-04-15T15:45:51.428021
2026/04/16 01:40:00,RYANCWF1,114.88,Ryan Corner Development Pty Ltd,Ryan Corner Wind Farm,Wind,205.0,56.04,Ryan Corner Wind Farm,-38.271017,142.140647,2026-04-15T15:45:51.428021
2026/04/16 01:40:00,RYEPARK1,8.78,Rye Park Renewable Energy Pty Ltd as trustee for Rye Park Wind Farm Trust,Rye Park Renewable Energy,Wind,384.0,2.29,Rye Park Renewable Energy,-32.138333,148.972778,2026-04-15T15:45:51.428021
2026/04/16 01:40:00,SALTCRK1,16.56,Salt Creek Wind Farm Pty Ltd,Salt Creek Wind Farm,Wind,54.0,30.67,Salt Creek Wind Farm,-37.95,142.63,2026-04-15T15:45:51.428021
2026/04/16 01:40:00,SAPHWF1,0.0,The Trustee For The SWF1 Operations Trust,Sapphire Wind Farm,Wind,270.0,0.0,Sapphire Wind Farm,-29.7,151.41,2026-04-15T15:45:51.428021
2026/04/16 01:40:00,SNOWNTH1,27.2,Snowtown Wind Farm Stage 2 Pty Ltd,Snowtown Wind Farm Stage 2 North,Wind,144.0,18.89,Snowtown Wind Farm Stage 2 North,-33.83,138.118611,2026-04-15T15:45:51.428021
2026/04/16 01:40:00,SNOWSTH1,37.1,Snowtown Wind Farm Stage 2 Pty Ltd,Snowtown South Wind Farm,Wind,126.0,29.44,Snowtown South Wind Farm,-33.83,138.118611,2026-04-15T15:45:51.428021
2026/04/16 01:40:00,SNOWTWN1,25.88,Snowtown Wind Farm Pty Ltd,Snowtown Wind Farm Units 1 And 47,Wind,99.0,26.14,Snowtown Wind Farm Units 1 And 47,-33.83,138.118611,2026-04-15T15:45:51.428021
2026/04/16 01:40:00,STARHLWF,2.9,Starfish Hill Wind Farm Pty Ltd,Starfish Hill Wind Farm,Wind,35.0,8.29,Starfish Hill Wind Farm,-35.58,138.14,2026-04-15T15:45:51.428021
2026/04/16 01:40:00,STOCKYD1,183.41,Stockyard Hill Wind Farm Pty Ltd,Stockyard Hill Wind Farm,Wind,511.0,35.89,Stockyard Hill Wind Farm,-37.535833,143.251389,2026-04-15T15:45:51.428021
2026/04/16 01:40:00,STWF1,21.42,PARF Company 8 Pty Ltd as The Trustee for Silverton Project Trust,Silverton Wind Farm,Wind,198.0,10.82,Silverton Wind Farm,-37.683168,142.551678,2026-04-15T15:45:51.428021
2026/04/16 01:40:00,TARALGA1,3.83,Taralga Wind Farm Nominees No 2 Pty Ltd (ATF Taralga Wind Farm Operating Trust),Taralga Wind Farm,Wind,106.0,3.61,Taralga Wind Farm,-34.42352,149.826267,2026-04-15T15:45:51.428021
2026/04/16 01:40:00,WAMBOWF1,100.9,Stanwell Corporation Limited,Wambo Wind Farm 1,Wind,245.0,41.18,Wambo Wind Farm 1,-35.187301,149.524945,2026-04-15T15:45:51.428021
2026/04/16 01:40:00,WATERLWF,2.8,Waterloo Wind Farm Pty Ltd,Waterloo Wind Farm,Wind,130.0,2.15,Waterloo Wind Farm,-34.00094,138.911567,2026-04-15T15:45:51.428021
2026/04/16 01:40:00,WGWF1,5.9,Willogoleche Power Pty Ltd As The Trustee For The Willogoleche Operating Trust,Willogoleche Wind Farm,Wind,119.0,4.96,Willogoleche Wind Farm,-33.39,138.85,2026-04-15T15:45:51.428021
2026/04/16 01:40:00,WOODLWN1,16.11,Woodlawn Wind Pty Ltd,Woodlawn Wind Farm,Wind,48.0,33.56,Woodlawn Wind Farm,-35.08,149.62,2026-04-15T15:45:51.428021
2026/04/16 01:40:00,WPWF,5.59,AGL SA Generation Pty Limited,Wattle Point Wind Farm,Wind,91.0,6.14,Wattle Point Wind Farm,-35.111624,137.7219,2026-04-15T15:45:51.428021
2026/04/16 01:40:00,WRWF1,4.47,White Rock Wind Farm Pty Ltd,White Rock Wind Farm,Wind,172.0,2.6,White Rock Wind Farm,-29.79,151.54,2026-04-15T15:45:51.428021
2026/04/16 01:40:00,YENDWF1,106.98,Lal Lal Wind Farms Nom Co Pty Ltd,Yendon Wind Farm,Wind,142.0,75.34,Yendon Wind Farm,-37.629987,144.022717,2026-04-15T15:45:51.428021
