SETTLEMENTDATE,DUID,SCADAVALUE,Participant,Station Name,Fuel Source - Primary,MAX_CAP,utilisation_pct,Plant,Latitude,Longitude,timestamp_utc
2026/04/16 00:15:00,CAPTL_WF,0.0,Iberdrola Australia Holdings Pty Limited,Capital Wind Farm,Wind,140.0,0.0,Capital Wind Farm,-35.1,149.31,2026-04-15T14:23:02.730240
2026/04/16 00:15:00,CHALLHWF,19.5,Pacific Hydro Challicum Hills Pty Ltd,Challicum Hills Wind Farm,Wind,52.0,37.5,Challicum Hills Wind Farm,-37.38,143.11,2026-04-15T14:23:02.730240
2026/04/16 00:15:00,CULLRGWF,8.91,Cullerin Range Wind Farm Pty Ltd,Cullerin Range Wind Farm,Wind,30.0,29.7,Cullerin Range Wind Farm,-34.81,149.4,2026-04-15T14:23:02.730240
2026/04/16 00:15:00,DIAPURWF1,1.0,Y.E.S. Energy (SA) Pty Ltd,Diapur Wind Farm,Wind,7.0,14.29,Diapur Wind Farm,-36.3425,141.43,2026-04-15T14:23:02.730240
2026/04/16 00:15:00,MLWF1,5.86,Mortons Lane Windfarm Pty Limited,Mortons Lane Wind Farm,Wind,20.0,29.3,Mortons Lane Wind Farm,-37.84,142.45,2026-04-15T14:23:02.730240
2026/04/16 00:15:00,WAUBRAWF,59.74,Pyrenees Wind Energy Developments Pty Ltd,Waubra Wind Farm,Wind,192.0,31.11,Waubra Wind Farm,-37.394498,143.638982,2026-04-15T14:23:02.730240
2026/04/16 00:15:00,WOOLNTH1,44.14,Hydro-Electric Corporation,Woolnorth Studland Bay / Bluff Point Wind Farm,Wind,140.0,31.53,Woolnorth Studland Bay / Bluff Point Wind Farm,-40.69,144.72,2026-04-15T14:23:02.730240
2026/04/16 00:15:00,YAMBUKWF,6.1,Energy Pacific (Vic) Pty Ltd,Yambuk Wind Farm,Wind,30.0,20.33,Yambuk Wind Farm,-38.299083,142.027577,2026-04-15T14:23:02.730240
2026/04/16 00:15:00,YSWF1,7.7,Pacific Hydro Yaloak South Pty Ltd,Yaloak South Wind Farm,Wind,28.0,27.5,Yaloak South Wind Farm,-37.7163,144.242853,2026-04-15T14:23:02.730240
2026/04/16 00:15:00,ARWF1,30.2,Ararat Wind Farm Pty Ltd,Ararat Wind Farm,Wind,241.0,12.53,Ararat Wind Farm,-37.232778,143.031389,2026-04-15T14:23:02.730240
2026/04/16 00:15:00,BALDHWF1,11.61,Alinta Energy Retail Sales Pty Ltd,Bald Hills Wind Farm,Wind,106.0,10.95,Bald Hills Wind Farm,-38.79,145.93,2026-04-15T14:23:02.730240
2026/04/16 00:15:00,BANGOWF1,5.3,BWF Nominees Pty Ltd as The Trustee for BWF Trust,Bango 973 Wind Farm,Wind,155.0,3.42,Bango 973 Wind Farm,-34.551582,148.732808,2026-04-15T14:23:02.730240
2026/04/16 00:15:00,BANGOWF2,4.9,BWF Nominees Pty Ltd as The Trustee for BWF Trust,Bango 999 Wind Farm,Wind,82.0,5.98,Bango 999 Wind Farm,-34.551582,148.732808,2026-04-15T14:23:02.730240
2026/04/16 00:15:00,BLUFF1,4.4,AGL SA Generation Pty Limited,The Bluff Wind Farm,Wind,53.0,8.3,The Bluff Wind Farm,-33.367778,138.728611,2026-04-15T14:23:02.730240
2026/04/16 00:15:00,BOCORWF1,0.0,Boco Rock Wind Farm Pty Ltd,Boco Rock Wind Farm,Wind,111.0,0.0,Boco Rock Wind Farm,-36.578611,149.103333,2026-04-15T14:23:02.730240
2026/04/16 00:15:00,BRYB1WF1,27.13,Berrybank Development Pty Ltd,Berrybank Wind Farm,Wind,175.9,15.42,Berrybank Wind Farm,-37.94,143.52,2026-04-15T14:23:02.730240
2026/04/16 00:15:00,BRYB2WF2,14.72,Berrybank 2 Asset Pty Ltd as trustee for Berrybank 2 Asset Trust,Berrybank 2 Wind Farm,Wind,105.0,14.02,Berrybank 2 Wind Farm,-37.94,143.52,2026-04-15T14:23:02.730240
2026/04/16 00:15:00,BULGANA1,21.92,Bulgana Wind Farm Pty Ltd,Bulgana Green Power Hub,Wind,204.0,10.75,Bulgana Green Power Hub,-37.0975,142.973611,2026-04-15T14:23:02.730240
2026/04/16 00:15:00,CATHROCK,0.2,Cathedral Rocks Wind Farm Pty Ltd,Cathedral Rocks,Wind,66.0,0.3,Cathedral Rocks,-34.51,135.35,2026-04-15T14:23:02.730240
2026/04/16 00:15:00,CHYTWF1,9.23,Cherry Tree Wind Farm Pty Ltd as trustee for The Cherry Tree Project trust ,Cherry Tree Wind Farm,Wind,57.0,16.19,Cherry Tree Wind Farm,-37.1,145.26,2026-04-15T14:23:02.730240
2026/04/16 00:15:00,CLEMGPWF,9.8,Pacific Hydro Clements Gap Pty Ltd,Clements Gap Wind Farm,Wind,57.0,17.19,Clements Gap Wind Farm,-33.48,138.1,2026-04-15T14:23:02.730240
2026/04/16 00:15:00,CLRKCWF1,311.07,Stanwell Corporation Limited ,Clarke Creek Wind Farm,Wind,338.0,92.03,Clarke Creek Wind Farm,-22.85,149.45,2026-04-15T14:23:02.730240
2026/04/16 00:15:00,CLRKCWF2,100.68,Stanwell Corporation Limited ,Clarke Creek Wind Farm,Wind,101.0,99.68,Clarke Creek Wind Farm,-22.85,149.45,2026-04-15T14:23:02.730240
2026/04/16 00:15:00,CNUNDAWF,6.51,Canunda Power Pty Ltd,Canunda Wind Farm,Wind,46.0,14.15,Canunda Wind Farm,-37.73,140.39,2026-04-15T14:23:02.730240
2026/04/16 00:15:00,COLWF01,55.45,Collector Wind Farm Pty Ltd,Collector Wind Farm 1,Wind,219.0,25.32,Collector Wind Farm 1,-34.8719,149.3967,2026-04-15T14:23:02.730240
2026/04/16 00:15:00,COOPGWF1,106.46,PARF Company 10 Pty Limited as The Trustee for Coopers Gap Project Trust,Coopers Gap Wind Farm,Wind,440.0,24.2,Coopers Gap Wind Farm,-26.74,151.45,2026-04-15T14:23:02.730240
2026/04/16 00:15:00,CROOKWF2,4.26,Crookwell Development Pty Ltd ,Crookwell 2 Wind Farm,Wind,91.0,4.68,Crookwell 2 Wind Farm,-34.52,149.54,2026-04-15T14:23:02.730240
2026/04/16 00:15:00,CROOKWF3,0.83,Crookwell 3 Development Pty Ltd,Crookwell 3 Wind Farm,Wind,56.0,1.48,Crookwell 3 Wind Farm,-34.52,149.54,2026-04-15T14:23:02.730240
2026/04/16 00:15:00,CROWLWF1,27.05,Pacific Hydro Crowlands Pty Ltd ,Crowlands Wind Farm,Wind,79.0,34.24,Crowlands Wind Farm,-37.13,143.16,2026-04-15T14:23:02.730240
2026/04/16 00:15:00,CRURWF1,2.0,CRWF Nominees Pty Ltd As Trustee For The CRWF Trust,Crudine Ridge Wind Farm,Wind,138.0,1.45,Crudine Ridge Wind Farm,-32.97,149.64,2026-04-15T14:23:02.730240
2026/04/16 00:15:00,CTHLWF1,77.13,Wild Cattle Hill Pty Ltd,Cattle Hill Wind Farm,Wind,144.0,53.56,Cattle Hill Wind Farm,-42.15,146.69,2026-04-15T14:23:02.730240
2026/04/16 00:15:00,DULAWF1,35.0,Dulacca Energy Project Co Pty Ltd,Dulacca Wind Farm,Wind,173.0,20.23,Dulacca Wind Farm,-26.63,149.87,2026-04-15T14:23:02.730240
2026/04/16 00:15:00,DUNDWF1,29.04,Dundonnell Wind Farm Pty Ltd,Dundonnell Wind Farm,Wind,168.0,17.29,Dundonnell Wind Farm,-37.52,142.58,2026-04-15T14:23:02.730240
2026/04/16 00:15:00,DUNDWF2,6.88,Dundonnell Wind Farm Pty Ltd,Dundonnell Wind Farm,Wind,46.0,14.96,Dundonnell Wind Farm,-37.52,142.58,2026-04-15T14:23:02.730240
2026/04/16 00:15:00,DUNDWF3,21.71,Dundonnell Wind Farm Pty Ltd,Dundonnell Wind Farm,Wind,122.0,17.8,Dundonnell Wind Farm,-37.52,142.58,2026-04-15T14:23:02.730240
2026/04/16 00:15:00,ELAINWF1,31.25,Lal Lal Wind Farms Nom Co Pty Ltd,Elaine Wind Farm,Wind,82.0,38.11,Elaine Wind Farm,-37.36,144.0,2026-04-15T14:23:02.730240
2026/04/16 00:15:00,FLYCRKWF,0.0,Iberdrola Australia Energy Markets Pty Limited,Flyers Creek Wind Farm,Wind,140.0,0.0,Flyers Creek Wind Farm,-33.365556,148.981944,2026-04-15T14:23:02.730240
2026/04/16 00:15:00,GPWFEST1,22.83,Golden Plains WF1 Pty Ltd as Trustee for the Golden Plains WF1 Unit Trust,Golden Plains Wind Farm East,Wind,240.0,9.51,Golden Plains Wind Farm East,-37.945091,143.752614,2026-04-15T14:23:02.730240
2026/04/16 00:15:00,GPWFEST2,49.12,Golden Plains WF1 Pty Ltd as Trustee for the Golden Plains WF1 Unit Trust,Golden Plains Wind Farm East,Wind,253.0,19.42,Golden Plains Wind Farm East,-37.945091,143.752614,2026-04-15T14:23:02.730240
2026/04/16 00:15:00,GPWFEST3,117.44,Golden Plains WF1 Pty Ltd as Trustee for the Golden Plains WF1 Unit Trust,Golden Plains Wind Farm East,Wind,240.0,48.93,Golden Plains Wind Farm East,-37.945091,143.752614,2026-04-15T14:23:02.730240
2026/04/16 00:15:00,GRANWF1,28.04,Granville Harbour Operations Pty Ltd as The Trustee for Granville Harbour Operations Trust,Granville Harbour Wind Farm,Wind,111.0,25.26,Granville Harbour Wind Farm,-41.8,145.06,2026-04-15T14:23:02.730240
2026/04/16 00:15:00,GSWF1A,4.4,Goyder Wind Farm 1 Pty Ltd as the Trustee for Goyder Wind Farm 1 Trust,Goyder South Wind Farm 1A,Wind,201.0,2.19,Goyder South Wind Farm 1A,-33.679758,138.937597,2026-04-15T14:23:02.730240
2026/04/16 00:15:00,GSWF1B1,17.48,Goyder Wind Farm 1B Pty Ltd as the Trustee for the Goyder Wind Farm 1B Trust,Goyder South Wind Farm 1B,Wind,196.0,8.92,Goyder South Wind Farm 1B,-33.679758,138.937597,2026-04-15T14:23:02.730240
2026/04/16 00:15:00,GULLRWF1,32.64,New Gullen Range Wind Farm Pty Ltd,Gullen Range Wind Farm,Wind,161.0,20.27,Gullen Range Wind Farm,-34.34,149.27,2026-04-15T14:23:02.730240
2026/04/16 00:15:00,GULLRWF2,8.55,New Gullen Range Wind Farm Pty Ltd,Gullen Range Wind Farm,Wind,107.0,7.99,Gullen Range Wind Farm,-34.34,149.27,2026-04-15T14:23:02.730240
2026/04/16 00:15:00,GUNNING1,8.15,Gunning Wind Energy Developments Pty Ltd,Gunning Wind Farm,Wind,47.0,17.34,Gunning Wind Farm,-34.813333,149.4,2026-04-15T14:23:02.730240
2026/04/16 00:15:00,HALLWF1,6.56,AGL SA Generation Pty Limited,Hallett 1 Wind Farm,Wind,95.0,6.91,Hallett 1 Wind Farm,-33.367778,138.728611,2026-04-15T14:23:02.730240
2026/04/16 00:15:00,HALLWF2,0.18,AGL SA Generation Pty Limited,Hallett 2 Wind Farm,Wind,71.0,0.25,Hallett 2 Wind Farm,-33.367778,138.728611,2026-04-15T14:23:02.730240
2026/04/16 00:15:00,HD1WF1,20.36,Hawkesdale Asset Pty Ltd as trustee for Hawkesdale Asset Trust,Hawkesdale Wind Farm,Wind,89.0,22.88,Hawkesdale Wind Farm,-38.147894,142.361381,2026-04-15T14:23:02.730240
2026/04/16 00:15:00,HDWF1,9.5,HWF1 Pty Ltd,Hornsdale Wind Farm,Wind,102.0,9.31,Hornsdale Wind Farm,-33.050556,138.543611,2026-04-15T14:23:02.730240
2026/04/16 00:15:00,HDWF2,10.2,HWF 2 Pty Ltd,Hornsdale Wind Farm 2,Wind,102.0,10.0,Hornsdale Wind Farm 2,-33.06,138.54,2026-04-15T14:23:02.730240
2026/04/16 00:15:00,HDWF3,8.5,HWF3 Pty Ltd,Hornsdale Wind Farm 3,Wind,109.0,7.8,Hornsdale Wind Farm 3,-33.06,138.54,2026-04-15T14:23:02.730240
2026/04/16 00:15:00,KABANWF1,44.54,Kaban Wind Farm Pty Ltd as trustee for Kaban Wind Farm Trust,Kaban Wind Farm,Wind,152.0,29.3,Kaban Wind Farm,-17.56,145.41,2026-04-15T14:23:02.730240
2026/04/16 00:15:00,KEPWF1,20.3,Kennedy Energy Park Pty Ltd,Kennedy Energy Park,Wind,43.0,47.21,Kennedy Energy Park,-20.88,144.42,2026-04-15T14:23:02.730240
2026/04/16 00:15:00,KIATAWF1,0.8,Kiata ProjectCo Pty Ltd Atf Kiata Project Trust,Kiata Wind Farm,Wind,31.0,2.58,Kiata Wind Farm,-36.4,141.75,2026-04-15T14:23:02.730240
2026/04/16 00:15:00,LGAPWF1,5.68,Lincoln Gap Wind Farm (Operations) Pty Ltd,Lincoln Gap Wind Farm,Wind,123.0,4.62,Lincoln Gap Wind Farm,-32.564279,137.557328,2026-04-15T14:23:02.730240
2026/04/16 00:15:00,LGAPWF1,5.68,Lincoln Gap Wind Farm (Operations) Pty Ltd,Lincoln Gap Wind Farm,Wind,123.0,4.62,Lincoln Gap Wind Farm,-32.564279,137.557328,2026-04-15T14:23:02.730240
2026/04/16 00:15:00,LGAPWF2,2.31,Lincoln Gap Wind Farm (Operations) Pty Ltd,Lincoln Gap Wind Farm,Wind,85.0,2.72,Lincoln Gap Wind Farm,-32.564279,137.557328,2026-04-15T14:23:02.730240
2026/04/16 00:15:00,LGAPWF2,2.31,Lincoln Gap Wind Farm (Operations) Pty Ltd,Lincoln Gap Wind Farm,Wind,85.0,2.72,Lincoln Gap Wind Farm,-32.564279,137.557328,2026-04-15T14:23:02.730240
2026/04/16 00:15:00,LKBONNY1,12.5,Lake Bonney Wind Power Pty Ltd,Lake Bonney Wind Farm Stage 1,Wind,81.0,15.43,Lake Bonney Wind Farm Stage 1,-37.76,140.4,2026-04-15T14:23:02.730240
2026/04/16 00:15:00,LKBONNY2,29.27,Lake Bonney Wind Power Pty Ltd,Lake Bonney Stage 2 Windfarm,Wind,159.0,18.41,Lake Bonney Stage 2 Windfarm,-37.76,140.4,2026-04-15T14:23:02.730240
2026/04/16 00:15:00,LKBONNY3,6.53,Lake Bonney Wind Power Pty Ltd,Lake Bonney Stage 3 Wind Farm,Wind,39.0,16.74,Lake Bonney Stage 3 Wind Farm,-37.737781,140.388137,2026-04-15T14:23:02.730240
2026/04/16 00:15:00,MACARTH1,72.1,AGL Hydro Partnership,Macarthur Wind Farm,Wind,420.0,17.17,Macarthur Wind Farm,-38.048957,142.192112,2026-04-15T14:23:02.730240
2026/04/16 00:15:00,MCINTYR1,41.46,MacIntyre UJV Operator Pty Ltd,MacIntyre Wind Farm,Wind,890.0,4.66,MacIntyre Wind Farm,-28.32,151.54,2026-04-15T14:23:02.730240
2026/04/16 00:15:00,MERCER01,59.7,Mt Mercer Windfarm Pty Ltd,Mt Mercer Wind Farm,Wind,131.0,45.57,Mt Mercer Wind Farm,-37.841111,143.871111,2026-04-15T14:23:02.730240
2026/04/16 00:15:00,MEWF1,62.84,Ergon Energy Queensland Pty Ltd ,Mount Emerald Wind Farm,Wind,178.0,35.3,Mount Emerald Wind Farm,-17.133007,145.380644,2026-04-15T14:23:02.730240
2026/04/16 00:15:00,MRTLSWF1,5.4,Mortlake South Wind Farm Pty Ltd,Mortlake South Wind Farm,Wind,153.0,3.53,Mortlake South Wind Farm,-38.127337,142.857801,2026-04-15T14:23:02.730240
2026/04/16 00:15:00,MTGELWF1,0.0,Mt. Gellibrand Wind Farm Pty Ltd,Mt Gellibrand Wind Farm,Wind,132.0,0.0,Mt Gellibrand Wind Farm,-38.23,143.77,2026-04-15T14:23:02.730240
2026/04/16 00:15:00,MTMILLAR,0.0,Mt Millar Wind Farm Pty Ltd,Mt Millar Wind Farm,Wind,70.0,0.0,Mt Millar Wind Farm,-33.624444,136.703611,2026-04-15T14:23:02.730240
2026/04/16 00:15:00,MUSSELR1,80.4,Hydro-Electric Corporation,Musselroe Wind Farm,Wind,168.0,47.86,Musselroe Wind Farm,-40.780225,148.010799,2026-04-15T14:23:02.730240
2026/04/16 00:15:00,MUWAWF1,12.31,Telstra Energy (Generation) Pty Ltd,Murra Warra Wind Farm,Wind,225.7,5.45,Murra Warra Wind Farm,-36.432404,142.317853,2026-04-15T14:23:02.730240
2026/04/16 00:15:00,MUWAWF2,10.8,Murra Warra II Project Co Pty Ltd ATF The Murra Warra II Project Trust,Murra Warra Wind Farm Stage 2,Wind,203.0,5.32,Murra Warra Wind Farm Stage 2,-36.43,142.32,2026-04-15T14:23:02.730240
2026/04/16 00:15:00,NBHWF1,11.7,AGL SA Generation Pty Limited,North Brown Hill Wind Farm,Wind,132.0,8.86,North Brown Hill Wind Farm,-33.367778,138.728611,2026-04-15T14:23:02.730240
2026/04/16 00:15:00,OAKLAND1,4.3,AGL Hydro Partnership,Oaklands Hill Wind Farm,Wind,63.0,6.83,Oaklands Hill Wind Farm,-37.683078,142.551678,2026-04-15T14:23:02.730240
2026/04/16 00:15:00,PAREPW1,0.0,Iberdrola Australia Energy Markets Pty Limited,Port Augusta Renewable Energy Park,Wind,201.0,0.0,Port Augusta Renewable Energy Park,-32.566944,137.856111,2026-04-15T14:23:02.730240
2026/04/16 00:15:00,RYANCWF1,60.19,Ryan Corner Development Pty Ltd,Ryan Corner Wind Farm,Wind,205.0,29.36,Ryan Corner Wind Farm,-38.271017,142.140647,2026-04-15T14:23:02.730240
2026/04/16 00:15:00,RYEPARK1,7.31,Rye Park Renewable Energy Pty Ltd as trustee for Rye Park Wind Farm Trust,Rye Park Renewable Energy,Wind,384.0,1.9,Rye Park Renewable Energy,-32.138333,148.972778,2026-04-15T14:23:02.730240
2026/04/16 00:15:00,SALTCRK1,10.67,Salt Creek Wind Farm Pty Ltd,Salt Creek Wind Farm,Wind,54.0,19.76,Salt Creek Wind Farm,-37.95,142.63,2026-04-15T14:23:02.730240
2026/04/16 00:15:00,SAPHWF1,3.54,The Trustee For The SWF1 Operations Trust,Sapphire Wind Farm,Wind,270.0,1.31,Sapphire Wind Farm,-29.7,151.41,2026-04-15T14:23:02.730240
2026/04/16 00:15:00,SNOWNTH1,15.4,Snowtown Wind Farm Stage 2 Pty Ltd,Snowtown Wind Farm Stage 2 North,Wind,144.0,10.69,Snowtown Wind Farm Stage 2 North,-33.83,138.118611,2026-04-15T14:23:02.730240
2026/04/16 00:15:00,SNOWSTH1,7.6,Snowtown Wind Farm Stage 2 Pty Ltd,Snowtown South Wind Farm,Wind,126.0,6.03,Snowtown South Wind Farm,-33.83,138.118611,2026-04-15T14:23:02.730240
2026/04/16 00:15:00,SNOWTWN1,13.28,Snowtown Wind Farm Pty Ltd,Snowtown Wind Farm Units 1 And 47,Wind,99.0,13.41,Snowtown Wind Farm Units 1 And 47,-33.83,138.118611,2026-04-15T14:23:02.730240
2026/04/16 00:15:00,STARHLWF,2.0,Starfish Hill Wind Farm Pty Ltd,Starfish Hill Wind Farm,Wind,35.0,5.71,Starfish Hill Wind Farm,-35.58,138.14,2026-04-15T14:23:02.730240
2026/04/16 00:15:00,STOCKYD1,231.88,Stockyard Hill Wind Farm Pty Ltd,Stockyard Hill Wind Farm,Wind,511.0,45.38,Stockyard Hill Wind Farm,-37.535833,143.251389,2026-04-15T14:23:02.730240
2026/04/16 00:15:00,STWF1,24.3,PARF Company 8 Pty Ltd as The Trustee for Silverton Project Trust,Silverton Wind Farm,Wind,198.0,12.27,Silverton Wind Farm,-37.683168,142.551678,2026-04-15T14:23:02.730240
2026/04/16 00:15:00,TARALGA1,0.0,Taralga Wind Farm Nominees No 2 Pty Ltd (ATF Taralga Wind Farm Operating Trust),Taralga Wind Farm,Wind,106.0,0.0,Taralga Wind Farm,-34.42352,149.826267,2026-04-15T14:23:02.730240
2026/04/16 00:15:00,WAMBOWF1,88.18,Stanwell Corporation Limited,Wambo Wind Farm 1,Wind,245.0,35.99,Wambo Wind Farm 1,-35.187301,149.524945,2026-04-15T14:23:02.730240
2026/04/16 00:15:00,WATERLWF,3.5,Waterloo Wind Farm Pty Ltd,Waterloo Wind Farm,Wind,130.0,2.69,Waterloo Wind Farm,-34.00094,138.911567,2026-04-15T14:23:02.730240
2026/04/16 00:15:00,WGWF1,10.5,Willogoleche Power Pty Ltd As The Trustee For The Willogoleche Operating Trust,Willogoleche Wind Farm,Wind,119.0,8.82,Willogoleche Wind Farm,-33.39,138.85,2026-04-15T14:23:02.730240
2026/04/16 00:15:00,WOODLWN1,10.24,Woodlawn Wind Pty Ltd,Woodlawn Wind Farm,Wind,48.0,21.33,Woodlawn Wind Farm,-35.08,149.62,2026-04-15T14:23:02.730240
2026/04/16 00:15:00,WPWF,0.0,AGL SA Generation Pty Limited,Wattle Point Wind Farm,Wind,91.0,0.0,Wattle Point Wind Farm,-35.111624,137.7219,2026-04-15T14:23:02.730240
2026/04/16 00:15:00,WRWF1,6.85,White Rock Wind Farm Pty Ltd,White Rock Wind Farm,Wind,172.0,3.98,White Rock Wind Farm,-29.79,151.54,2026-04-15T14:23:02.730240
2026/04/16 00:15:00,YENDWF1,69.03,Lal Lal Wind Farms Nom Co Pty Ltd,Yendon Wind Farm,Wind,142.0,48.61,Yendon Wind Farm,-37.629987,144.022717,2026-04-15T14:23:02.730240
