SETTLEMENTDATE,DUID,SCADAVALUE,Participant,Station Name,Fuel Source - Primary,MAX_CAP,utilisation_pct,Plant,Latitude,Longitude,timestamp_utc
2026/02/11 20:35:00,CAPTL_WF,26.74,Iberdrola Australia Holdings Pty Limited,Capital Wind Farm,Wind,140.0,19.1,Capital Wind Farm,-35.1,149.31,2026-02-11T10:33:59.212176
2026/02/11 20:35:00,CHALLHWF,18.9,Pacific Hydro Challicum Hills Pty Ltd,Challicum Hills Wind Farm,Wind,52.0,36.35,Challicum Hills Wind Farm,-37.38,143.11,2026-02-11T10:33:59.212176
2026/02/11 20:35:00,CULLRGWF,11.65,Cullerin Range Wind Farm Pty Ltd,Cullerin Range Wind Farm,Wind,30.0,38.83,Cullerin Range Wind Farm,-34.81,149.4,2026-02-11T10:33:59.212176
2026/02/11 20:35:00,DIAPURWF1,7.2,Y.E.S. Energy (SA) Pty Ltd,Diapur Wind Farm,Wind,7.0,102.86,Diapur Wind Farm,-36.3425,141.43,2026-02-11T10:33:59.212176
2026/02/11 20:35:00,MLWF1,2.48,Mortons Lane Windfarm Pty Limited,Mortons Lane Wind Farm,Wind,20.0,12.4,Mortons Lane Wind Farm,-37.84,142.45,2026-02-11T10:33:59.212176
2026/02/11 20:35:00,WAUBRAWF,171.88,Pyrenees Wind Energy Developments Pty Ltd,Waubra Wind Farm,Wind,192.0,89.52,Waubra Wind Farm,-37.394498,143.638982,2026-02-11T10:33:59.212176
2026/02/11 20:35:00,WOOLNTH1,98.34,Hydro-Electric Corporation,Woolnorth Studland Bay / Bluff Point Wind Farm,Wind,140.0,70.24,Woolnorth Studland Bay / Bluff Point Wind Farm,-40.69,144.72,2026-02-11T10:33:59.212176
2026/02/11 20:35:00,YAMBUKWF,25.4,Energy Pacific (Vic) Pty Ltd,Yambuk Wind Farm,Wind,30.0,84.67,Yambuk Wind Farm,-38.299083,142.027577,2026-02-11T10:33:59.212176
2026/02/11 20:35:00,YSWF1,9.3,Pacific Hydro Yaloak South Pty Ltd,Yaloak South Wind Farm,Wind,28.0,33.21,Yaloak South Wind Farm,-37.7163,144.242853,2026-02-11T10:33:59.212176
2026/02/11 20:35:00,ARWF1,146.1,Ararat Wind Farm Pty Ltd,Ararat Wind Farm,Wind,241.0,60.62,Ararat Wind Farm,-37.232778,143.031389,2026-02-11T10:33:59.212176
2026/02/11 20:35:00,BALDHWF1,87.25,Alinta Energy Retail Sales Pty Ltd,Bald Hills Wind Farm,Wind,106.0,82.31,Bald Hills Wind Farm,-38.79,145.93,2026-02-11T10:33:59.212176
2026/02/11 20:35:00,BANGOWF1,89.2,BWF Nominees Pty Ltd as The Trustee for BWF Trust,Bango 973 Wind Farm,Wind,155.0,57.55,Bango 973 Wind Farm,-34.551582,148.732808,2026-02-11T10:33:59.212176
2026/02/11 20:35:00,BANGOWF2,45.5,BWF Nominees Pty Ltd as The Trustee for BWF Trust,Bango 999 Wind Farm,Wind,82.0,55.49,Bango 999 Wind Farm,-34.551582,148.732808,2026-02-11T10:33:59.212176
2026/02/11 20:35:00,BLUFF1,35.8,AGL SA Generation Pty Limited,The Bluff Wind Farm,Wind,53.0,67.55,The Bluff Wind Farm,-33.367778,138.728611,2026-02-11T10:33:59.212176
2026/02/11 20:35:00,BOCORWF1,54.21,Boco Rock Wind Farm Pty Ltd,Boco Rock Wind Farm,Wind,111.0,48.84,Boco Rock Wind Farm,-36.578611,149.103333,2026-02-11T10:33:59.212176
2026/02/11 20:35:00,BRYB1WF1,36.89,Berrybank Development Pty Ltd,Berrybank Wind Farm,Wind,175.9,20.97,Berrybank Wind Farm,-37.94,143.52,2026-02-11T10:33:59.212176
2026/02/11 20:35:00,BRYB2WF2,25.84,Berrybank 2 Asset Pty Ltd as trustee for Berrybank 2 Asset Trust,Berrybank 2 Wind Farm,Wind,105.0,24.61,Berrybank 2 Wind Farm,-37.94,143.52,2026-02-11T10:33:59.212176
2026/02/11 20:35:00,BULGANA1,124.01,Bulgana Wind Farm Pty Ltd,Bulgana Green Power Hub,Wind,204.0,60.79,Bulgana Green Power Hub,-37.0975,142.973611,2026-02-11T10:33:59.212176
2026/02/11 20:35:00,CATHROCK,34.3,Cathedral Rocks Wind Farm Pty Ltd,Cathedral Rocks,Wind,66.0,51.97,Cathedral Rocks,-34.51,135.35,2026-02-11T10:33:59.212176
2026/02/11 20:35:00,CHYTWF1,52.71,Cherry Tree Wind Farm Pty Ltd as trustee for The Cherry Tree Project trust ,Cherry Tree Wind Farm,Wind,57.0,92.47,Cherry Tree Wind Farm,-37.1,145.26,2026-02-11T10:33:59.212176
2026/02/11 20:35:00,CLEMGPWF,30.11,Pacific Hydro Clements Gap Pty Ltd,Clements Gap Wind Farm,Wind,57.0,52.82,Clements Gap Wind Farm,-33.48,138.1,2026-02-11T10:33:59.212176
2026/02/11 20:35:00,CLRKCWF1,112.32,Stanwell Corporation Limited ,Clarke Creek Wind Farm,Wind,338.0,33.23,Clarke Creek Wind Farm,-22.85,149.45,2026-02-11T10:33:59.212176
2026/02/11 20:35:00,CLRKCWF2,30.72,Stanwell Corporation Limited ,Clarke Creek Wind Farm,Wind,101.0,30.42,Clarke Creek Wind Farm,-22.85,149.45,2026-02-11T10:33:59.212176
2026/02/11 20:35:00,CNUNDAWF,18.42,Canunda Power Pty Ltd,Canunda Wind Farm,Wind,46.0,40.04,Canunda Wind Farm,-37.73,140.39,2026-02-11T10:33:59.212176
2026/02/11 20:35:00,COLWF01,35.35,Collector Wind Farm Pty Ltd,Collector Wind Farm 1,Wind,219.0,16.14,Collector Wind Farm 1,-34.8719,149.3967,2026-02-11T10:33:59.212176
2026/02/11 20:35:00,COOPGWF1,311.62,PARF Company 10 Pty Limited as The Trustee for Coopers Gap Project Trust,Coopers Gap Wind Farm,Wind,440.0,70.82,Coopers Gap Wind Farm,-26.74,151.45,2026-02-11T10:33:59.212176
2026/02/11 20:35:00,CROOKWF2,24.01,Crookwell Development Pty Ltd ,Crookwell 2 Wind Farm,Wind,91.0,26.38,Crookwell 2 Wind Farm,-34.52,149.54,2026-02-11T10:33:59.212176
2026/02/11 20:35:00,CROOKWF3,12.11,Crookwell 3 Development Pty Ltd,Crookwell 3 Wind Farm,Wind,56.0,21.62,Crookwell 3 Wind Farm,-34.52,149.54,2026-02-11T10:33:59.212176
2026/02/11 20:35:00,CROWLWF1,48.12,Pacific Hydro Crowlands Pty Ltd ,Crowlands Wind Farm,Wind,79.0,60.91,Crowlands Wind Farm,-37.13,143.16,2026-02-11T10:33:59.212176
2026/02/11 20:35:00,CRURWF1,33.9,CRWF Nominees Pty Ltd As Trustee For The CRWF Trust,Crudine Ridge Wind Farm,Wind,138.0,24.57,Crudine Ridge Wind Farm,-32.97,149.64,2026-02-11T10:33:59.212176
2026/02/11 20:35:00,CTHLWF1,125.93,Wild Cattle Hill Pty Ltd,Cattle Hill Wind Farm,Wind,144.0,87.45,Cattle Hill Wind Farm,-42.15,146.69,2026-02-11T10:33:59.212176
2026/02/11 20:35:00,DULAWF1,132.4,Dulacca Energy Project Co Pty Ltd,Dulacca Wind Farm,Wind,173.0,76.53,Dulacca Wind Farm,-26.63,149.87,2026-02-11T10:33:59.212176
2026/02/11 20:35:00,DUNDWF1,53.28,Dundonnell Wind Farm Pty Ltd,Dundonnell Wind Farm,Wind,168.0,31.71,Dundonnell Wind Farm,-37.52,142.58,2026-02-11T10:33:59.212176
2026/02/11 20:35:00,DUNDWF2,17.66,Dundonnell Wind Farm Pty Ltd,Dundonnell Wind Farm,Wind,46.0,38.39,Dundonnell Wind Farm,-37.52,142.58,2026-02-11T10:33:59.212176
2026/02/11 20:35:00,DUNDWF3,30.52,Dundonnell Wind Farm Pty Ltd,Dundonnell Wind Farm,Wind,122.0,25.02,Dundonnell Wind Farm,-37.52,142.58,2026-02-11T10:33:59.212176
2026/02/11 20:35:00,ELAINWF1,19.69,Lal Lal Wind Farms Nom Co Pty Ltd,Elaine Wind Farm,Wind,82.0,24.01,Elaine Wind Farm,-37.36,144.0,2026-02-11T10:33:59.212176
2026/02/11 20:35:00,FLYCRKWF,3.95,Iberdrola Australia Energy Markets Pty Limited,Flyers Creek Wind Farm,Wind,140.0,2.82,Flyers Creek Wind Farm,-33.365556,148.981944,2026-02-11T10:33:59.212176
2026/02/11 20:35:00,GPWFEST1,61.41,Golden Plains WF1 Pty Ltd as Trustee for the Golden Plains WF1 Unit Trust,Golden Plains Wind Farm East,Wind,240.0,25.59,Golden Plains Wind Farm East,-37.945091,143.752614,2026-02-11T10:33:59.212176
2026/02/11 20:35:00,GPWFEST2,53.35,Golden Plains WF1 Pty Ltd as Trustee for the Golden Plains WF1 Unit Trust,Golden Plains Wind Farm East,Wind,253.0,21.09,Golden Plains Wind Farm East,-37.945091,143.752614,2026-02-11T10:33:59.212176
2026/02/11 20:35:00,GPWFEST3,30.99,Golden Plains WF1 Pty Ltd as Trustee for the Golden Plains WF1 Unit Trust,Golden Plains Wind Farm East,Wind,240.0,12.91,Golden Plains Wind Farm East,-37.945091,143.752614,2026-02-11T10:33:59.212176
2026/02/11 20:35:00,GRANWF1,81.64,Granville Harbour Operations Pty Ltd as The Trustee for Granville Harbour Operations Trust,Granville Harbour Wind Farm,Wind,111.0,73.55,Granville Harbour Wind Farm,-41.8,145.06,2026-02-11T10:33:59.212176
2026/02/11 20:35:00,GSWF1A,131.1,Goyder Wind Farm 1 Pty Ltd as the Trustee for Goyder Wind Farm 1 Trust,Goyder South Wind Farm 1A,Wind,201.0,65.22,Goyder South Wind Farm 1A,-33.679758,138.937597,2026-02-11T10:33:59.212176
2026/02/11 20:35:00,GSWF1B1,123.07,Goyder Wind Farm 1B Pty Ltd as the Trustee for the Goyder Wind Farm 1B Trust,Goyder South Wind Farm 1B,Wind,196.0,62.79,Goyder South Wind Farm 1B,-33.679758,138.937597,2026-02-11T10:33:59.212176
2026/02/11 20:35:00,GULLRWF1,38.71,New Gullen Range Wind Farm Pty Ltd,Gullen Range Wind Farm,Wind,161.0,24.04,Gullen Range Wind Farm,-34.34,149.27,2026-02-11T10:33:59.212176
2026/02/11 20:35:00,GULLRWF2,39.38,New Gullen Range Wind Farm Pty Ltd,Gullen Range Wind Farm,Wind,107.0,36.8,Gullen Range Wind Farm,-34.34,149.27,2026-02-11T10:33:59.212176
2026/02/11 20:35:00,GUNNING1,14.03,Gunning Wind Energy Developments Pty Ltd,Gunning Wind Farm,Wind,47.0,29.85,Gunning Wind Farm,-34.813333,149.4,2026-02-11T10:33:59.212176
2026/02/11 20:35:00,HALLWF1,44.45,AGL SA Generation Pty Limited,Hallett 1 Wind Farm,Wind,95.0,46.79,Hallett 1 Wind Farm,-33.367778,138.728611,2026-02-11T10:33:59.212176
2026/02/11 20:35:00,HALLWF2,35.91,AGL SA Generation Pty Limited,Hallett 2 Wind Farm,Wind,71.0,50.58,Hallett 2 Wind Farm,-33.367778,138.728611,2026-02-11T10:33:59.212176
2026/02/11 20:35:00,HD1WF1,44.42,Hawkesdale Asset Pty Ltd as trustee for Hawkesdale Asset Trust,Hawkesdale Wind Farm,Wind,89.0,49.91,Hawkesdale Wind Farm,-38.147894,142.361381,2026-02-11T10:33:59.212176
2026/02/11 20:35:00,HDWF1,82.9,HWF1 Pty Ltd,Hornsdale Wind Farm,Wind,102.0,81.27,Hornsdale Wind Farm,-33.050556,138.543611,2026-02-11T10:33:59.212176
2026/02/11 20:35:00,HDWF2,70.9,HWF 2 Pty Ltd,Hornsdale Wind Farm 2,Wind,102.0,69.51,Hornsdale Wind Farm 2,-33.06,138.54,2026-02-11T10:33:59.212176
2026/02/11 20:35:00,HDWF3,85.9,HWF3 Pty Ltd,Hornsdale Wind Farm 3,Wind,109.0,78.81,Hornsdale Wind Farm 3,-33.06,138.54,2026-02-11T10:33:59.212176
2026/02/11 20:35:00,KABANWF1,0.0,Kaban Wind Farm Pty Ltd as trustee for Kaban Wind Farm Trust,Kaban Wind Farm,Wind,152.0,0.0,Kaban Wind Farm,-17.56,145.41,2026-02-11T10:33:59.212176
2026/02/11 20:35:00,KEPWF1,3.2,Kennedy Energy Park Pty Ltd,Kennedy Energy Park,Wind,43.0,7.44,Kennedy Energy Park,-20.88,144.42,2026-02-11T10:33:59.212176
2026/02/11 20:35:00,KIATAWF1,17.1,Kiata ProjectCo Pty Ltd Atf Kiata Project Trust,Kiata Wind Farm,Wind,31.0,55.16,Kiata Wind Farm,-36.4,141.75,2026-02-11T10:33:59.212176
2026/02/11 20:35:00,LGAPWF1,87.73,Lincoln Gap Wind Farm (Operations) Pty Ltd,Lincoln Gap Wind Farm,Wind,123.0,71.33,Lincoln Gap Wind Farm,-32.564279,137.557328,2026-02-11T10:33:59.212176
2026/02/11 20:35:00,LGAPWF1,87.73,Lincoln Gap Wind Farm (Operations) Pty Ltd,Lincoln Gap Wind Farm,Wind,123.0,71.33,Lincoln Gap Wind Farm,-32.564279,137.557328,2026-02-11T10:33:59.212176
2026/02/11 20:35:00,LGAPWF2,70.64,Lincoln Gap Wind Farm (Operations) Pty Ltd,Lincoln Gap Wind Farm,Wind,85.0,83.11,Lincoln Gap Wind Farm,-32.564279,137.557328,2026-02-11T10:33:59.212176
2026/02/11 20:35:00,LGAPWF2,70.64,Lincoln Gap Wind Farm (Operations) Pty Ltd,Lincoln Gap Wind Farm,Wind,85.0,83.11,Lincoln Gap Wind Farm,-32.564279,137.557328,2026-02-11T10:33:59.212176
2026/02/11 20:35:00,LKBONNY1,34.29,Lake Bonney Wind Power Pty Ltd,Lake Bonney Wind Farm Stage 1,Wind,81.0,42.33,Lake Bonney Wind Farm Stage 1,-37.76,140.4,2026-02-11T10:33:59.212176
2026/02/11 20:35:00,LKBONNY2,71.17,Lake Bonney Wind Power Pty Ltd,Lake Bonney Stage 2 Windfarm,Wind,159.0,44.76,Lake Bonney Stage 2 Windfarm,-37.76,140.4,2026-02-11T10:33:59.212176
2026/02/11 20:35:00,LKBONNY3,19.26,Lake Bonney Wind Power Pty Ltd,Lake Bonney Stage 3 Wind Farm,Wind,39.0,49.38,Lake Bonney Stage 3 Wind Farm,-37.737781,140.388137,2026-02-11T10:33:59.212176
2026/02/11 20:35:00,MACARTH1,75.6,AGL Hydro Partnership,Macarthur Wind Farm,Wind,420.0,18.0,Macarthur Wind Farm,-38.048957,142.192112,2026-02-11T10:33:59.212176
2026/02/11 20:35:00,MCINTYR1,236.36,MacIntyre UJV Operator Pty Ltd,MacIntyre Wind Farm,Wind,890.0,26.56,MacIntyre Wind Farm,-28.32,151.54,2026-02-11T10:33:59.212176
2026/02/11 20:35:00,MERCER01,11.9,Mt Mercer Windfarm Pty Ltd,Mt Mercer Wind Farm,Wind,131.0,9.08,Mt Mercer Wind Farm,-37.841111,143.871111,2026-02-11T10:33:59.212176
2026/02/11 20:35:00,MEWF1,0.0,Ergon Energy Queensland Pty Ltd ,Mount Emerald Wind Farm,Wind,178.0,0.0,Mount Emerald Wind Farm,-17.133007,145.380644,2026-02-11T10:33:59.212176
2026/02/11 20:35:00,MRTLSWF1,40.82,Mortlake South Wind Farm Pty Ltd,Mortlake South Wind Farm,Wind,153.0,26.68,Mortlake South Wind Farm,-38.127337,142.857801,2026-02-11T10:33:59.212176
2026/02/11 20:35:00,MTGELWF1,19.77,Mt. Gellibrand Wind Farm Pty Ltd,Mt Gellibrand Wind Farm,Wind,132.0,14.98,Mt Gellibrand Wind Farm,-38.23,143.77,2026-02-11T10:33:59.212176
2026/02/11 20:35:00,MTMILLAR,38.8,Mt Millar Wind Farm Pty Ltd,Mt Millar Wind Farm,Wind,70.0,55.43,Mt Millar Wind Farm,-33.624444,136.703611,2026-02-11T10:33:59.212176
2026/02/11 20:35:00,MUSSELR1,151.8,Hydro-Electric Corporation,Musselroe Wind Farm,Wind,168.0,90.36,Musselroe Wind Farm,-40.780225,148.010799,2026-02-11T10:33:59.212176
2026/02/11 20:35:00,MUWAWF1,136.2,Telstra Energy (Generation) Pty Ltd,Murra Warra Wind Farm,Wind,225.7,60.35,Murra Warra Wind Farm,-36.432404,142.317853,2026-02-11T10:33:59.212176
2026/02/11 20:35:00,MUWAWF2,123.7,Murra Warra II Project Co Pty Ltd ATF The Murra Warra II Project Trust,Murra Warra Wind Farm Stage 2,Wind,203.0,60.94,Murra Warra Wind Farm Stage 2,-36.43,142.32,2026-02-11T10:33:59.212176
2026/02/11 20:35:00,NBHWF1,96.6,AGL SA Generation Pty Limited,North Brown Hill Wind Farm,Wind,132.0,73.18,North Brown Hill Wind Farm,-33.367778,138.728611,2026-02-11T10:33:59.212176
2026/02/11 20:35:00,OAKLAND1,19.9,AGL Hydro Partnership,Oaklands Hill Wind Farm,Wind,63.0,31.59,Oaklands Hill Wind Farm,-37.683078,142.551678,2026-02-11T10:33:59.212176
2026/02/11 20:35:00,PAREPW1,165.11,Iberdrola Australia Energy Markets Pty Limited,Port Augusta Renewable Energy Park,Wind,201.0,82.14,Port Augusta Renewable Energy Park,-32.566944,137.856111,2026-02-11T10:33:59.212176
2026/02/11 20:35:00,RYANCWF1,133.8,Ryan Corner Development Pty Ltd,Ryan Corner Wind Farm,Wind,205.0,65.27,Ryan Corner Wind Farm,-38.271017,142.140647,2026-02-11T10:33:59.212176
2026/02/11 20:35:00,RYEPARK1,139.59,Rye Park Renewable Energy Pty Ltd as trustee for Rye Park Wind Farm Trust,Rye Park Renewable Energy,Wind,384.0,36.35,Rye Park Renewable Energy,-32.138333,148.972778,2026-02-11T10:33:59.212176
2026/02/11 20:35:00,SALTCRK1,11.08,Salt Creek Wind Farm Pty Ltd,Salt Creek Wind Farm,Wind,54.0,20.52,Salt Creek Wind Farm,-37.95,142.63,2026-02-11T10:33:59.212176
2026/02/11 20:35:00,SAPHWF1,166.26,The Trustee For The SWF1 Operations Trust,Sapphire Wind Farm,Wind,270.0,61.58,Sapphire Wind Farm,-29.7,151.41,2026-02-11T10:33:59.212176
2026/02/11 20:35:00,SNOWNTH1,116.7,Snowtown Wind Farm Stage 2 Pty Ltd,Snowtown Wind Farm Stage 2 North,Wind,144.0,81.04,Snowtown Wind Farm Stage 2 North,-33.83,138.118611,2026-02-11T10:33:59.212176
2026/02/11 20:35:00,SNOWSTH1,99.8,Snowtown Wind Farm Stage 2 Pty Ltd,Snowtown South Wind Farm,Wind,126.0,79.21,Snowtown South Wind Farm,-33.83,138.118611,2026-02-11T10:33:59.212176
2026/02/11 20:35:00,SNOWTWN1,82.49,Snowtown Wind Farm Pty Ltd,Snowtown Wind Farm Units 1 And 47,Wind,99.0,83.32,Snowtown Wind Farm Units 1 And 47,-33.83,138.118611,2026-02-11T10:33:59.212176
2026/02/11 20:35:00,STARHLWF,0.2,Starfish Hill Wind Farm Pty Ltd,Starfish Hill Wind Farm,Wind,35.0,0.57,Starfish Hill Wind Farm,-35.58,138.14,2026-02-11T10:33:59.212176
2026/02/11 20:35:00,STOCKYD1,233.02,Stockyard Hill Wind Farm Pty Ltd,Stockyard Hill Wind Farm,Wind,511.0,45.6,Stockyard Hill Wind Farm,-37.535833,143.251389,2026-02-11T10:33:59.212176
2026/02/11 20:35:00,STWF1,6.56,PARF Company 8 Pty Ltd as The Trustee for Silverton Project Trust,Silverton Wind Farm,Wind,198.0,3.31,Silverton Wind Farm,-37.683168,142.551678,2026-02-11T10:33:59.212176
2026/02/11 20:35:00,TARALGA1,10.72,Taralga Wind Farm Nominees No 2 Pty Ltd (ATF Taralga Wind Farm Operating Trust),Taralga Wind Farm,Wind,106.0,10.11,Taralga Wind Farm,-34.42352,149.826267,2026-02-11T10:33:59.212176
2026/02/11 20:35:00,WAMBOWF1,156.89,Stanwell Corporation Limited,Wambo Wind Farm 1,Wind,245.0,64.04,Wambo Wind Farm 1,-35.187301,149.524945,2026-02-11T10:33:59.212176
2026/02/11 20:35:00,WATERLWF,72.0,Waterloo Wind Farm Pty Ltd,Waterloo Wind Farm,Wind,130.0,55.38,Waterloo Wind Farm,-34.00094,138.911567,2026-02-11T10:33:59.212176
2026/02/11 20:35:00,WGWF1,69.9,Willogoleche Power Pty Ltd As The Trustee For The Willogoleche Operating Trust,Willogoleche Wind Farm,Wind,119.0,58.74,Willogoleche Wind Farm,-33.39,138.85,2026-02-11T10:33:59.212176
2026/02/11 20:35:00,WOODLWN1,10.24,Woodlawn Wind Pty Ltd,Woodlawn Wind Farm,Wind,48.0,21.33,Woodlawn Wind Farm,-35.08,149.62,2026-02-11T10:33:59.212176
2026/02/11 20:35:00,WPWF,70.97,AGL SA Generation Pty Limited,Wattle Point Wind Farm,Wind,91.0,77.99,Wattle Point Wind Farm,-35.111624,137.7219,2026-02-11T10:33:59.212176
2026/02/11 20:35:00,WRWF1,64.12,White Rock Wind Farm Pty Ltd,White Rock Wind Farm,Wind,172.0,37.28,White Rock Wind Farm,-29.79,151.54,2026-02-11T10:33:59.212176
2026/02/11 20:35:00,YENDWF1,34.95,Lal Lal Wind Farms Nom Co Pty Ltd,Yendon Wind Farm,Wind,142.0,24.61,Yendon Wind Farm,-37.629987,144.022717,2026-02-11T10:33:59.212176
