SETTLEMENTDATE,DUID,SCADAVALUE,Participant,Station Name,Fuel Source - Primary,MAX_CAP,utilisation_pct,Plant,Latitude,Longitude,timestamp_utc
2026/03/07 23:50:00,CAPTL_WF,104.92,Iberdrola Australia Holdings Pty Limited,Capital Wind Farm,Wind,140.0,74.94,Capital Wind Farm,-35.1,149.31,2026-03-07T13:49:28.102234
2026/03/07 23:50:00,CHALLHWF,40.3,Pacific Hydro Challicum Hills Pty Ltd,Challicum Hills Wind Farm,Wind,52.0,77.5,Challicum Hills Wind Farm,-37.38,143.11,2026-03-07T13:49:28.102234
2026/03/07 23:50:00,CULLRGWF,22.35,Cullerin Range Wind Farm Pty Ltd,Cullerin Range Wind Farm,Wind,30.0,74.5,Cullerin Range Wind Farm,-34.81,149.4,2026-03-07T13:49:28.102234
2026/03/07 23:50:00,DIAPURWF1,7.2,Y.E.S. Energy (SA) Pty Ltd,Diapur Wind Farm,Wind,7.0,102.86,Diapur Wind Farm,-36.3425,141.43,2026-03-07T13:49:28.102234
2026/03/07 23:50:00,MLWF1,3.09,Mortons Lane Windfarm Pty Limited,Mortons Lane Wind Farm,Wind,20.0,15.45,Mortons Lane Wind Farm,-37.84,142.45,2026-03-07T13:49:28.102234
2026/03/07 23:50:00,WAUBRAWF,174.84,Pyrenees Wind Energy Developments Pty Ltd,Waubra Wind Farm,Wind,192.0,91.06,Waubra Wind Farm,-37.394498,143.638982,2026-03-07T13:49:28.102234
2026/03/07 23:50:00,WOOLNTH1,20.09,Hydro-Electric Corporation,Woolnorth Studland Bay / Bluff Point Wind Farm,Wind,140.0,14.35,Woolnorth Studland Bay / Bluff Point Wind Farm,-40.69,144.72,2026-03-07T13:49:28.102234
2026/03/07 23:50:00,YAMBUKWF,21.8,Energy Pacific (Vic) Pty Ltd,Yambuk Wind Farm,Wind,30.0,72.67,Yambuk Wind Farm,-38.299083,142.027577,2026-03-07T13:49:28.102234
2026/03/07 23:50:00,YSWF1,16.0,Pacific Hydro Yaloak South Pty Ltd,Yaloak South Wind Farm,Wind,28.0,57.14,Yaloak South Wind Farm,-37.7163,144.242853,2026-03-07T13:49:28.102234
2026/03/07 23:50:00,ARWF1,167.1,Ararat Wind Farm Pty Ltd,Ararat Wind Farm,Wind,241.0,69.34,Ararat Wind Farm,-37.232778,143.031389,2026-03-07T13:49:28.102234
2026/03/07 23:50:00,BALDHWF1,5.24,Alinta Energy Retail Sales Pty Ltd,Bald Hills Wind Farm,Wind,106.0,4.94,Bald Hills Wind Farm,-38.79,145.93,2026-03-07T13:49:28.102234
2026/03/07 23:50:00,BANGOWF1,113.9,BWF Nominees Pty Ltd as The Trustee for BWF Trust,Bango 973 Wind Farm,Wind,155.0,73.48,Bango 973 Wind Farm,-34.551582,148.732808,2026-03-07T13:49:28.102234
2026/03/07 23:50:00,BANGOWF2,62.5,BWF Nominees Pty Ltd as The Trustee for BWF Trust,Bango 999 Wind Farm,Wind,82.0,76.22,Bango 999 Wind Farm,-34.551582,148.732808,2026-03-07T13:49:28.102234
2026/03/07 23:50:00,BLUFF1,6.1,AGL SA Generation Pty Limited,The Bluff Wind Farm,Wind,53.0,11.51,The Bluff Wind Farm,-33.367778,138.728611,2026-03-07T13:49:28.102234
2026/03/07 23:50:00,BOCORWF1,27.34,Boco Rock Wind Farm Pty Ltd,Boco Rock Wind Farm,Wind,111.0,24.63,Boco Rock Wind Farm,-36.578611,149.103333,2026-03-07T13:49:28.102234
2026/03/07 23:50:00,BRYB1WF1,75.38,Berrybank Development Pty Ltd,Berrybank Wind Farm,Wind,175.9,42.85,Berrybank Wind Farm,-37.94,143.52,2026-03-07T13:49:28.102234
2026/03/07 23:50:00,BRYB2WF2,40.03,Berrybank 2 Asset Pty Ltd as trustee for Berrybank 2 Asset Trust,Berrybank 2 Wind Farm,Wind,105.0,38.12,Berrybank 2 Wind Farm,-37.94,143.52,2026-03-07T13:49:28.102234
2026/03/07 23:50:00,BULGANA1,157.38,Bulgana Wind Farm Pty Ltd,Bulgana Green Power Hub,Wind,204.0,77.15,Bulgana Green Power Hub,-37.0975,142.973611,2026-03-07T13:49:28.102234
2026/03/07 23:50:00,CATHROCK,27.4,Cathedral Rocks Wind Farm Pty Ltd,Cathedral Rocks,Wind,66.0,41.52,Cathedral Rocks,-34.51,135.35,2026-03-07T13:49:28.102234
2026/03/07 23:50:00,CHYTWF1,56.51,Cherry Tree Wind Farm Pty Ltd as trustee for The Cherry Tree Project trust ,Cherry Tree Wind Farm,Wind,57.0,99.14,Cherry Tree Wind Farm,-37.1,145.26,2026-03-07T13:49:28.102234
2026/03/07 23:50:00,CLEMGPWF,49.56,Pacific Hydro Clements Gap Pty Ltd,Clements Gap Wind Farm,Wind,57.0,86.95,Clements Gap Wind Farm,-33.48,138.1,2026-03-07T13:49:28.102234
2026/03/07 23:50:00,CLRKCWF1,274.92,Stanwell Corporation Limited ,Clarke Creek Wind Farm,Wind,338.0,81.34,Clarke Creek Wind Farm,-22.85,149.45,2026-03-07T13:49:28.102234
2026/03/07 23:50:00,CLRKCWF2,69.6,Stanwell Corporation Limited ,Clarke Creek Wind Farm,Wind,101.0,68.91,Clarke Creek Wind Farm,-22.85,149.45,2026-03-07T13:49:28.102234
2026/03/07 23:50:00,CNUNDAWF,13.62,Canunda Power Pty Ltd,Canunda Wind Farm,Wind,46.0,29.61,Canunda Wind Farm,-37.73,140.39,2026-03-07T13:49:28.102234
2026/03/07 23:50:00,COLWF01,92.25,Collector Wind Farm Pty Ltd,Collector Wind Farm 1,Wind,219.0,42.12,Collector Wind Farm 1,-34.8719,149.3967,2026-03-07T13:49:28.102234
2026/03/07 23:50:00,COOPGWF1,113.91,PARF Company 10 Pty Limited as The Trustee for Coopers Gap Project Trust,Coopers Gap Wind Farm,Wind,440.0,25.89,Coopers Gap Wind Farm,-26.74,151.45,2026-03-07T13:49:28.102234
2026/03/07 23:50:00,CROOKWF2,11.37,Crookwell Development Pty Ltd ,Crookwell 2 Wind Farm,Wind,91.0,12.49,Crookwell 2 Wind Farm,-34.52,149.54,2026-03-07T13:49:28.102234
2026/03/07 23:50:00,CROOKWF3,10.51,Crookwell 3 Development Pty Ltd,Crookwell 3 Wind Farm,Wind,56.0,18.77,Crookwell 3 Wind Farm,-34.52,149.54,2026-03-07T13:49:28.102234
2026/03/07 23:50:00,CROWLWF1,59.97,Pacific Hydro Crowlands Pty Ltd ,Crowlands Wind Farm,Wind,79.0,75.91,Crowlands Wind Farm,-37.13,143.16,2026-03-07T13:49:28.102234
2026/03/07 23:50:00,CRURWF1,13.1,CRWF Nominees Pty Ltd As Trustee For The CRWF Trust,Crudine Ridge Wind Farm,Wind,138.0,9.49,Crudine Ridge Wind Farm,-32.97,149.64,2026-03-07T13:49:28.102234
2026/03/07 23:50:00,CTHLWF1,0.0,Wild Cattle Hill Pty Ltd,Cattle Hill Wind Farm,Wind,144.0,0.0,Cattle Hill Wind Farm,-42.15,146.69,2026-03-07T13:49:28.102234
2026/03/07 23:50:00,DULAWF1,47.4,Dulacca Energy Project Co Pty Ltd,Dulacca Wind Farm,Wind,173.0,27.4,Dulacca Wind Farm,-26.63,149.87,2026-03-07T13:49:28.102234
2026/03/07 23:50:00,DUNDWF1,72.78,Dundonnell Wind Farm Pty Ltd,Dundonnell Wind Farm,Wind,168.0,43.32,Dundonnell Wind Farm,-37.52,142.58,2026-03-07T13:49:28.102234
2026/03/07 23:50:00,DUNDWF2,20.39,Dundonnell Wind Farm Pty Ltd,Dundonnell Wind Farm,Wind,46.0,44.33,Dundonnell Wind Farm,-37.52,142.58,2026-03-07T13:49:28.102234
2026/03/07 23:50:00,DUNDWF3,41.38,Dundonnell Wind Farm Pty Ltd,Dundonnell Wind Farm,Wind,122.0,33.92,Dundonnell Wind Farm,-37.52,142.58,2026-03-07T13:49:28.102234
2026/03/07 23:50:00,ELAINWF1,52.99,Lal Lal Wind Farms Nom Co Pty Ltd,Elaine Wind Farm,Wind,82.0,64.62,Elaine Wind Farm,-37.36,144.0,2026-03-07T13:49:28.102234
2026/03/07 23:50:00,FLYCRKWF,64.29,Iberdrola Australia Energy Markets Pty Limited,Flyers Creek Wind Farm,Wind,140.0,45.92,Flyers Creek Wind Farm,-33.365556,148.981944,2026-03-07T13:49:28.102234
2026/03/07 23:50:00,GPWFEST1,0.0,Golden Plains WF1 Pty Ltd as Trustee for the Golden Plains WF1 Unit Trust,Golden Plains Wind Farm East,Wind,240.0,0.0,Golden Plains Wind Farm East,-37.945091,143.752614,2026-03-07T13:49:28.102234
2026/03/07 23:50:00,GPWFEST2,0.0,Golden Plains WF1 Pty Ltd as Trustee for the Golden Plains WF1 Unit Trust,Golden Plains Wind Farm East,Wind,253.0,0.0,Golden Plains Wind Farm East,-37.945091,143.752614,2026-03-07T13:49:28.102234
2026/03/07 23:50:00,GPWFEST3,116.64,Golden Plains WF1 Pty Ltd as Trustee for the Golden Plains WF1 Unit Trust,Golden Plains Wind Farm East,Wind,240.0,48.6,Golden Plains Wind Farm East,-37.945091,143.752614,2026-03-07T13:49:28.102234
2026/03/07 23:50:00,GRANWF1,52.58,Granville Harbour Operations Pty Ltd as The Trustee for Granville Harbour Operations Trust,Granville Harbour Wind Farm,Wind,111.0,47.37,Granville Harbour Wind Farm,-41.8,145.06,2026-03-07T13:49:28.102234
2026/03/07 23:50:00,GSWF1A,170.5,Goyder Wind Farm 1 Pty Ltd as the Trustee for Goyder Wind Farm 1 Trust,Goyder South Wind Farm 1A,Wind,201.0,84.83,Goyder South Wind Farm 1A,-33.679758,138.937597,2026-03-07T13:49:28.102234
2026/03/07 23:50:00,GSWF1B1,40.8,Goyder Wind Farm 1B Pty Ltd as the Trustee for the Goyder Wind Farm 1B Trust,Goyder South Wind Farm 1B,Wind,196.0,20.82,Goyder South Wind Farm 1B,-33.679758,138.937597,2026-03-07T13:49:28.102234
2026/03/07 23:50:00,GULLRWF1,72.64,New Gullen Range Wind Farm Pty Ltd,Gullen Range Wind Farm,Wind,161.0,45.12,Gullen Range Wind Farm,-34.34,149.27,2026-03-07T13:49:28.102234
2026/03/07 23:50:00,GULLRWF2,100.96,New Gullen Range Wind Farm Pty Ltd,Gullen Range Wind Farm,Wind,107.0,94.36,Gullen Range Wind Farm,-34.34,149.27,2026-03-07T13:49:28.102234
2026/03/07 23:50:00,GUNNING1,32.06,Gunning Wind Energy Developments Pty Ltd,Gunning Wind Farm,Wind,47.0,68.21,Gunning Wind Farm,-34.813333,149.4,2026-03-07T13:49:28.102234
2026/03/07 23:50:00,HALLWF1,50.34,AGL SA Generation Pty Limited,Hallett 1 Wind Farm,Wind,95.0,52.99,Hallett 1 Wind Farm,-33.367778,138.728611,2026-03-07T13:49:28.102234
2026/03/07 23:50:00,HALLWF2,63.92,AGL SA Generation Pty Limited,Hallett 2 Wind Farm,Wind,71.0,90.03,Hallett 2 Wind Farm,-33.367778,138.728611,2026-03-07T13:49:28.102234
2026/03/07 23:50:00,HD1WF1,0.0,Hawkesdale Asset Pty Ltd as trustee for Hawkesdale Asset Trust,Hawkesdale Wind Farm,Wind,89.0,0.0,Hawkesdale Wind Farm,-38.147894,142.361381,2026-03-07T13:49:28.102234
2026/03/07 23:50:00,HDWF1,58.1,HWF1 Pty Ltd,Hornsdale Wind Farm,Wind,102.0,56.96,Hornsdale Wind Farm,-33.050556,138.543611,2026-03-07T13:49:28.102234
2026/03/07 23:50:00,HDWF2,43.6,HWF 2 Pty Ltd,Hornsdale Wind Farm 2,Wind,102.0,42.75,Hornsdale Wind Farm 2,-33.06,138.54,2026-03-07T13:49:28.102234
2026/03/07 23:50:00,HDWF3,39.3,HWF3 Pty Ltd,Hornsdale Wind Farm 3,Wind,109.0,36.06,Hornsdale Wind Farm 3,-33.06,138.54,2026-03-07T13:49:28.102234
2026/03/07 23:50:00,KABANWF1,72.55,Kaban Wind Farm Pty Ltd as trustee for Kaban Wind Farm Trust,Kaban Wind Farm,Wind,152.0,47.73,Kaban Wind Farm,-17.56,145.41,2026-03-07T13:49:28.102234
2026/03/07 23:50:00,KEPWF1,1.0,Kennedy Energy Park Pty Ltd,Kennedy Energy Park,Wind,43.0,2.33,Kennedy Energy Park,-20.88,144.42,2026-03-07T13:49:28.102234
2026/03/07 23:50:00,KIATAWF1,0.0,Kiata ProjectCo Pty Ltd Atf Kiata Project Trust,Kiata Wind Farm,Wind,31.0,0.0,Kiata Wind Farm,-36.4,141.75,2026-03-07T13:49:28.102234
2026/03/07 23:50:00,LGAPWF1,53.09,Lincoln Gap Wind Farm (Operations) Pty Ltd,Lincoln Gap Wind Farm,Wind,123.0,43.16,Lincoln Gap Wind Farm,-32.564279,137.557328,2026-03-07T13:49:28.102234
2026/03/07 23:50:00,LGAPWF1,53.09,Lincoln Gap Wind Farm (Operations) Pty Ltd,Lincoln Gap Wind Farm,Wind,123.0,43.16,Lincoln Gap Wind Farm,-32.564279,137.557328,2026-03-07T13:49:28.102234
2026/03/07 23:50:00,LGAPWF2,70.69,Lincoln Gap Wind Farm (Operations) Pty Ltd,Lincoln Gap Wind Farm,Wind,85.0,83.16,Lincoln Gap Wind Farm,-32.564279,137.557328,2026-03-07T13:49:28.102234
2026/03/07 23:50:00,LGAPWF2,70.69,Lincoln Gap Wind Farm (Operations) Pty Ltd,Lincoln Gap Wind Farm,Wind,85.0,83.16,Lincoln Gap Wind Farm,-32.564279,137.557328,2026-03-07T13:49:28.102234
2026/03/07 23:50:00,LKBONNY1,14.11,Lake Bonney Wind Power Pty Ltd,Lake Bonney Wind Farm Stage 1,Wind,81.0,17.42,Lake Bonney Wind Farm Stage 1,-37.76,140.4,2026-03-07T13:49:28.102234
2026/03/07 23:50:00,LKBONNY2,44.49,Lake Bonney Wind Power Pty Ltd,Lake Bonney Stage 2 Windfarm,Wind,159.0,27.98,Lake Bonney Stage 2 Windfarm,-37.76,140.4,2026-03-07T13:49:28.102234
2026/03/07 23:50:00,LKBONNY3,11.89,Lake Bonney Wind Power Pty Ltd,Lake Bonney Stage 3 Wind Farm,Wind,39.0,30.49,Lake Bonney Stage 3 Wind Farm,-37.737781,140.388137,2026-03-07T13:49:28.102234
2026/03/07 23:50:00,MACARTH1,127.3,AGL Hydro Partnership,Macarthur Wind Farm,Wind,420.0,30.31,Macarthur Wind Farm,-38.048957,142.192112,2026-03-07T13:49:28.102234
2026/03/07 23:50:00,MCINTYR1,178.76,MacIntyre UJV Operator Pty Ltd,MacIntyre Wind Farm,Wind,890.0,20.09,MacIntyre Wind Farm,-28.32,151.54,2026-03-07T13:49:28.102234
2026/03/07 23:50:00,MERCER01,39.9,Mt Mercer Windfarm Pty Ltd,Mt Mercer Wind Farm,Wind,131.0,30.46,Mt Mercer Wind Farm,-37.841111,143.871111,2026-03-07T13:49:28.102234
2026/03/07 23:50:00,MEWF1,5.99,Ergon Energy Queensland Pty Ltd ,Mount Emerald Wind Farm,Wind,178.0,3.37,Mount Emerald Wind Farm,-17.133007,145.380644,2026-03-07T13:49:28.102234
2026/03/07 23:50:00,MRTLSWF1,40.15,Mortlake South Wind Farm Pty Ltd,Mortlake South Wind Farm,Wind,153.0,26.24,Mortlake South Wind Farm,-38.127337,142.857801,2026-03-07T13:49:28.102234
2026/03/07 23:50:00,MTGELWF1,68.59,Mt. Gellibrand Wind Farm Pty Ltd,Mt Gellibrand Wind Farm,Wind,132.0,51.96,Mt Gellibrand Wind Farm,-38.23,143.77,2026-03-07T13:49:28.102234
2026/03/07 23:50:00,MTMILLAR,30.7,Mt Millar Wind Farm Pty Ltd,Mt Millar Wind Farm,Wind,70.0,43.86,Mt Millar Wind Farm,-33.624444,136.703611,2026-03-07T13:49:28.102234
2026/03/07 23:50:00,MUSSELR1,33.7,Hydro-Electric Corporation,Musselroe Wind Farm,Wind,168.0,20.06,Musselroe Wind Farm,-40.780225,148.010799,2026-03-07T13:49:28.102234
2026/03/07 23:50:00,MUWAWF1,0.0,Telstra Energy (Generation) Pty Ltd,Murra Warra Wind Farm,Wind,225.7,0.0,Murra Warra Wind Farm,-36.432404,142.317853,2026-03-07T13:49:28.102234
2026/03/07 23:50:00,MUWAWF2,132.4,Murra Warra II Project Co Pty Ltd ATF The Murra Warra II Project Trust,Murra Warra Wind Farm Stage 2,Wind,203.0,65.22,Murra Warra Wind Farm Stage 2,-36.43,142.32,2026-03-07T13:49:28.102234
2026/03/07 23:50:00,NBHWF1,95.7,AGL SA Generation Pty Limited,North Brown Hill Wind Farm,Wind,132.0,72.5,North Brown Hill Wind Farm,-33.367778,138.728611,2026-03-07T13:49:28.102234
2026/03/07 23:50:00,OAKLAND1,25.3,AGL Hydro Partnership,Oaklands Hill Wind Farm,Wind,63.0,40.16,Oaklands Hill Wind Farm,-37.683078,142.551678,2026-03-07T13:49:28.102234
2026/03/07 23:50:00,PAREPW1,121.78,Iberdrola Australia Energy Markets Pty Limited,Port Augusta Renewable Energy Park,Wind,201.0,60.59,Port Augusta Renewable Energy Park,-32.566944,137.856111,2026-03-07T13:49:28.102234
2026/03/07 23:50:00,RYANCWF1,126.59,Ryan Corner Development Pty Ltd,Ryan Corner Wind Farm,Wind,205.0,61.75,Ryan Corner Wind Farm,-38.271017,142.140647,2026-03-07T13:49:28.102234
2026/03/07 23:50:00,RYEPARK1,359.83,Rye Park Renewable Energy Pty Ltd as trustee for Rye Park Wind Farm Trust,Rye Park Renewable Energy,Wind,384.0,93.71,Rye Park Renewable Energy,-32.138333,148.972778,2026-03-07T13:49:28.102234
2026/03/07 23:50:00,SALTCRK1,0.0,Salt Creek Wind Farm Pty Ltd,Salt Creek Wind Farm,Wind,54.0,0.0,Salt Creek Wind Farm,-37.95,142.63,2026-03-07T13:49:28.102234
2026/03/07 23:50:00,SAPHWF1,234.59,The Trustee For The SWF1 Operations Trust,Sapphire Wind Farm,Wind,270.0,86.89,Sapphire Wind Farm,-29.7,151.41,2026-03-07T13:49:28.102234
2026/03/07 23:50:00,SNOWNTH1,127.2,Snowtown Wind Farm Stage 2 Pty Ltd,Snowtown Wind Farm Stage 2 North,Wind,144.0,88.33,Snowtown Wind Farm Stage 2 North,-33.83,138.118611,2026-03-07T13:49:28.102234
2026/03/07 23:50:00,SNOWSTH1,117.6,Snowtown Wind Farm Stage 2 Pty Ltd,Snowtown South Wind Farm,Wind,126.0,93.33,Snowtown South Wind Farm,-33.83,138.118611,2026-03-07T13:49:28.102234
2026/03/07 23:50:00,SNOWTWN1,73.77,Snowtown Wind Farm Pty Ltd,Snowtown Wind Farm Units 1 And 47,Wind,99.0,74.52,Snowtown Wind Farm Units 1 And 47,-33.83,138.118611,2026-03-07T13:49:28.102234
2026/03/07 23:50:00,STARHLWF,21.39,Starfish Hill Wind Farm Pty Ltd,Starfish Hill Wind Farm,Wind,35.0,61.11,Starfish Hill Wind Farm,-35.58,138.14,2026-03-07T13:49:28.102234
2026/03/07 23:50:00,STOCKYD1,421.5,Stockyard Hill Wind Farm Pty Ltd,Stockyard Hill Wind Farm,Wind,511.0,82.49,Stockyard Hill Wind Farm,-37.535833,143.251389,2026-03-07T13:49:28.102234
2026/03/07 23:50:00,STWF1,128.18,PARF Company 8 Pty Ltd as The Trustee for Silverton Project Trust,Silverton Wind Farm,Wind,198.0,64.74,Silverton Wind Farm,-37.683168,142.551678,2026-03-07T13:49:28.102234
2026/03/07 23:50:00,TARALGA1,10.26,Taralga Wind Farm Nominees No 2 Pty Ltd (ATF Taralga Wind Farm Operating Trust),Taralga Wind Farm,Wind,106.0,9.68,Taralga Wind Farm,-34.42352,149.826267,2026-03-07T13:49:28.102234
2026/03/07 23:50:00,WAMBOWF1,121.88,Stanwell Corporation Limited,Wambo Wind Farm 1,Wind,245.0,49.75,Wambo Wind Farm 1,-35.187301,149.524945,2026-03-07T13:49:28.102234
2026/03/07 23:50:00,WATERLWF,56.7,Waterloo Wind Farm Pty Ltd,Waterloo Wind Farm,Wind,130.0,43.62,Waterloo Wind Farm,-34.00094,138.911567,2026-03-07T13:49:28.102234
2026/03/07 23:50:00,WGWF1,114.1,Willogoleche Power Pty Ltd As The Trustee For The Willogoleche Operating Trust,Willogoleche Wind Farm,Wind,119.0,95.88,Willogoleche Wind Farm,-33.39,138.85,2026-03-07T13:49:28.102234
2026/03/07 23:50:00,WOODLWN1,34.46,Woodlawn Wind Pty Ltd,Woodlawn Wind Farm,Wind,48.0,71.79,Woodlawn Wind Farm,-35.08,149.62,2026-03-07T13:49:28.102234
2026/03/07 23:50:00,WPWF,73.78,AGL SA Generation Pty Limited,Wattle Point Wind Farm,Wind,91.0,81.08,Wattle Point Wind Farm,-35.111624,137.7219,2026-03-07T13:49:28.102234
2026/03/07 23:50:00,WRWF1,107.61,White Rock Wind Farm Pty Ltd,White Rock Wind Farm,Wind,172.0,62.56,White Rock Wind Farm,-29.79,151.54,2026-03-07T13:49:28.102234
2026/03/07 23:50:00,YENDWF1,98.31,Lal Lal Wind Farms Nom Co Pty Ltd,Yendon Wind Farm,Wind,142.0,69.23,Yendon Wind Farm,-37.629987,144.022717,2026-03-07T13:49:28.102234
