SETTLEMENTDATE,DUID,SCADAVALUE,Participant,Station Name,Fuel Source - Primary,MAX_CAP,utilisation_pct,Plant,Latitude,Longitude,timestamp_utc
2026/02/06 01:25:00,CAPTL_WF,26.02,Iberdrola Australia Holdings Pty Limited,Capital Wind Farm,Wind,140.0,18.59,Capital Wind Farm,-35.1,149.31,2026-02-05T15:23:53.749420
2026/02/06 01:25:00,CHALLHWF,10.3,Pacific Hydro Challicum Hills Pty Ltd,Challicum Hills Wind Farm,Wind,52.0,19.81,Challicum Hills Wind Farm,-37.38,143.11,2026-02-05T15:23:53.749420
2026/02/06 01:25:00,CULLRGWF,9.83,Cullerin Range Wind Farm Pty Ltd,Cullerin Range Wind Farm,Wind,30.0,32.77,Cullerin Range Wind Farm,-34.81,149.4,2026-02-05T15:23:53.749420
2026/02/06 01:25:00,DIAPURWF1,2.1,Y.E.S. Energy (SA) Pty Ltd,Diapur Wind Farm,Wind,7.0,30.0,Diapur Wind Farm,-36.3425,141.43,2026-02-05T15:23:53.749420
2026/02/06 01:25:00,MLWF1,1.64,Mortons Lane Windfarm Pty Limited,Mortons Lane Wind Farm,Wind,20.0,8.2,Mortons Lane Wind Farm,-37.84,142.45,2026-02-05T15:23:53.749420
2026/02/06 01:25:00,WAUBRAWF,56.43,Pyrenees Wind Energy Developments Pty Ltd,Waubra Wind Farm,Wind,192.0,29.39,Waubra Wind Farm,-37.394498,143.638982,2026-02-05T15:23:53.749420
2026/02/06 01:25:00,YAMBUKWF,-0.1,Energy Pacific (Vic) Pty Ltd,Yambuk Wind Farm,Wind,30.0,-0.33,Yambuk Wind Farm,-38.299083,142.027577,2026-02-05T15:23:53.749420
2026/02/06 01:25:00,YSWF1,0.2,Pacific Hydro Yaloak South Pty Ltd,Yaloak South Wind Farm,Wind,28.0,0.71,Yaloak South Wind Farm,-37.7163,144.242853,2026-02-05T15:23:53.749420
2026/02/06 01:25:00,ARWF1,21.8,Ararat Wind Farm Pty Ltd,Ararat Wind Farm,Wind,241.0,9.05,Ararat Wind Farm,-37.232778,143.031389,2026-02-05T15:23:53.749420
2026/02/06 01:25:00,BALDHWF1,1.42,Alinta Energy Retail Sales Pty Ltd,Bald Hills Wind Farm,Wind,106.0,1.34,Bald Hills Wind Farm,-38.79,145.93,2026-02-05T15:23:53.749420
2026/02/06 01:25:00,BANGOWF1,8.2,BWF Nominees Pty Ltd as The Trustee for BWF Trust,Bango 973 Wind Farm,Wind,155.0,5.29,Bango 973 Wind Farm,-34.551582,148.732808,2026-02-05T15:23:53.749420
2026/02/06 01:25:00,BANGOWF2,4.3,BWF Nominees Pty Ltd as The Trustee for BWF Trust,Bango 999 Wind Farm,Wind,82.0,5.24,Bango 999 Wind Farm,-34.551582,148.732808,2026-02-05T15:23:53.749420
2026/02/06 01:25:00,BLUFF1,0.2,AGL SA Generation Pty Limited,The Bluff Wind Farm,Wind,53.0,0.38,The Bluff Wind Farm,-33.367778,138.728611,2026-02-05T15:23:53.749420
2026/02/06 01:25:00,BOCORWF1,4.22,Boco Rock Wind Farm Pty Ltd,Boco Rock Wind Farm,Wind,111.0,3.8,Boco Rock Wind Farm,-36.578611,149.103333,2026-02-05T15:23:53.749420
2026/02/06 01:25:00,BRYB1WF1,11.45,Berrybank Development Pty Ltd,Berrybank Wind Farm,Wind,175.9,6.51,Berrybank Wind Farm,-37.94,143.52,2026-02-05T15:23:53.749420
2026/02/06 01:25:00,BRYB2WF2,10.51,Berrybank 2 Asset Pty Ltd as trustee for Berrybank 2 Asset Trust,Berrybank 2 Wind Farm,Wind,105.0,10.01,Berrybank 2 Wind Farm,-37.94,143.52,2026-02-05T15:23:53.749420
2026/02/06 01:25:00,BULGANA1,42.2,Bulgana Wind Farm Pty Ltd,Bulgana Green Power Hub,Wind,204.0,20.69,Bulgana Green Power Hub,-37.0975,142.973611,2026-02-05T15:23:53.749420
2026/02/06 01:25:00,CATHROCK,27.2,Cathedral Rocks Wind Farm Pty Ltd,Cathedral Rocks,Wind,66.0,41.21,Cathedral Rocks,-34.51,135.35,2026-02-05T15:23:53.749420
2026/02/06 01:25:00,CHYTWF1,49.19,Cherry Tree Wind Farm Pty Ltd as trustee for The Cherry Tree Project trust ,Cherry Tree Wind Farm,Wind,57.0,86.3,Cherry Tree Wind Farm,-37.1,145.26,2026-02-05T15:23:53.749420
2026/02/06 01:25:00,CLEMGPWF,11.38,Pacific Hydro Clements Gap Pty Ltd,Clements Gap Wind Farm,Wind,57.0,19.96,Clements Gap Wind Farm,-33.48,138.1,2026-02-05T15:23:53.749420
2026/02/06 01:25:00,CLRKCWF1,302.96,Stanwell Corporation Limited ,Clarke Creek Wind Farm,Wind,338.0,89.63,Clarke Creek Wind Farm,-22.85,149.45,2026-02-05T15:23:53.749420
2026/02/06 01:25:00,CLRKCWF2,62.48,Stanwell Corporation Limited ,Clarke Creek Wind Farm,Wind,101.0,61.86,Clarke Creek Wind Farm,-22.85,149.45,2026-02-05T15:23:53.749420
2026/02/06 01:25:00,CNUNDAWF,2.8,Canunda Power Pty Ltd,Canunda Wind Farm,Wind,46.0,6.09,Canunda Wind Farm,-37.73,140.39,2026-02-05T15:23:53.749420
2026/02/06 01:25:00,COLWF01,56.78,Collector Wind Farm Pty Ltd,Collector Wind Farm 1,Wind,219.0,25.93,Collector Wind Farm 1,-34.8719,149.3967,2026-02-05T15:23:53.749420
2026/02/06 01:25:00,COOPGWF1,110.31,PARF Company 10 Pty Limited as The Trustee for Coopers Gap Project Trust,Coopers Gap Wind Farm,Wind,440.0,25.07,Coopers Gap Wind Farm,-26.74,151.45,2026-02-05T15:23:53.749420
2026/02/06 01:25:00,CROOKWF2,3.44,Crookwell Development Pty Ltd ,Crookwell 2 Wind Farm,Wind,91.0,3.78,Crookwell 2 Wind Farm,-34.52,149.54,2026-02-05T15:23:53.749420
2026/02/06 01:25:00,CROOKWF3,9.92,Crookwell 3 Development Pty Ltd,Crookwell 3 Wind Farm,Wind,56.0,17.71,Crookwell 3 Wind Farm,-34.52,149.54,2026-02-05T15:23:53.749420
2026/02/06 01:25:00,CROWLWF1,6.78,Pacific Hydro Crowlands Pty Ltd ,Crowlands Wind Farm,Wind,79.0,8.58,Crowlands Wind Farm,-37.13,143.16,2026-02-05T15:23:53.749420
2026/02/06 01:25:00,CRURWF1,5.8,CRWF Nominees Pty Ltd As Trustee For The CRWF Trust,Crudine Ridge Wind Farm,Wind,138.0,4.2,Crudine Ridge Wind Farm,-32.97,149.64,2026-02-05T15:23:53.749420
2026/02/06 01:25:00,CTHLWF1,66.67,Wild Cattle Hill Pty Ltd,Cattle Hill Wind Farm,Wind,144.0,46.3,Cattle Hill Wind Farm,-42.15,146.69,2026-02-05T15:23:53.749420
2026/02/06 01:25:00,DULAWF1,93.9,Dulacca Energy Project Co Pty Ltd,Dulacca Wind Farm,Wind,173.0,54.28,Dulacca Wind Farm,-26.63,149.87,2026-02-05T15:23:53.749420
2026/02/06 01:25:00,DUNDWF1,20.59,Dundonnell Wind Farm Pty Ltd,Dundonnell Wind Farm,Wind,168.0,12.26,Dundonnell Wind Farm,-37.52,142.58,2026-02-05T15:23:53.749420
2026/02/06 01:25:00,DUNDWF2,5.48,Dundonnell Wind Farm Pty Ltd,Dundonnell Wind Farm,Wind,46.0,11.91,Dundonnell Wind Farm,-37.52,142.58,2026-02-05T15:23:53.749420
2026/02/06 01:25:00,DUNDWF3,9.04,Dundonnell Wind Farm Pty Ltd,Dundonnell Wind Farm,Wind,122.0,7.41,Dundonnell Wind Farm,-37.52,142.58,2026-02-05T15:23:53.749420
2026/02/06 01:25:00,ELAINWF1,6.34,Lal Lal Wind Farms Nom Co Pty Ltd,Elaine Wind Farm,Wind,82.0,7.73,Elaine Wind Farm,-37.36,144.0,2026-02-05T15:23:53.749420
2026/02/06 01:25:00,FLYCRKWF,7.27,Iberdrola Australia Energy Markets Pty Limited,Flyers Creek Wind Farm,Wind,140.0,5.19,Flyers Creek Wind Farm,-33.365556,148.981944,2026-02-05T15:23:53.749420
2026/02/06 01:25:00,GPWFEST1,16.68,Golden Plains WF1 Pty Ltd as Trustee for the Golden Plains WF1 Unit Trust,Golden Plains Wind Farm East,Wind,240.0,6.95,Golden Plains Wind Farm East,-37.945091,143.752614,2026-02-05T15:23:53.749420
2026/02/06 01:25:00,GPWFEST2,22.48,Golden Plains WF1 Pty Ltd as Trustee for the Golden Plains WF1 Unit Trust,Golden Plains Wind Farm East,Wind,253.0,8.89,Golden Plains Wind Farm East,-37.945091,143.752614,2026-02-05T15:23:53.749420
2026/02/06 01:25:00,GPWFEST3,25.88,Golden Plains WF1 Pty Ltd as Trustee for the Golden Plains WF1 Unit Trust,Golden Plains Wind Farm East,Wind,240.0,10.78,Golden Plains Wind Farm East,-37.945091,143.752614,2026-02-05T15:23:53.749420
2026/02/06 01:25:00,GRANWF1,4.03,Granville Harbour Operations Pty Ltd as The Trustee for Granville Harbour Operations Trust,Granville Harbour Wind Farm,Wind,111.0,3.63,Granville Harbour Wind Farm,-41.8,145.06,2026-02-05T15:23:53.749420
2026/02/06 01:25:00,GSWF1A,63.08,Goyder Wind Farm 1 Pty Ltd as the Trustee for Goyder Wind Farm 1 Trust,Goyder South Wind Farm 1A,Wind,201.0,31.38,Goyder South Wind Farm 1A,-33.679758,138.937597,2026-02-05T15:23:53.749420
2026/02/06 01:25:00,GSWF1B1,28.16,Goyder Wind Farm 1B Pty Ltd as the Trustee for the Goyder Wind Farm 1B Trust,Goyder South Wind Farm 1B,Wind,196.0,14.37,Goyder South Wind Farm 1B,-33.679758,138.937597,2026-02-05T15:23:53.749420
2026/02/06 01:25:00,GULLRWF1,18.2,New Gullen Range Wind Farm Pty Ltd,Gullen Range Wind Farm,Wind,161.0,11.3,Gullen Range Wind Farm,-34.34,149.27,2026-02-05T15:23:53.749420
2026/02/06 01:25:00,GULLRWF2,41.29,New Gullen Range Wind Farm Pty Ltd,Gullen Range Wind Farm,Wind,107.0,38.59,Gullen Range Wind Farm,-34.34,149.27,2026-02-05T15:23:53.749420
2026/02/06 01:25:00,GUNNING1,22.63,Gunning Wind Energy Developments Pty Ltd,Gunning Wind Farm,Wind,47.0,48.15,Gunning Wind Farm,-34.813333,149.4,2026-02-05T15:23:53.749420
2026/02/06 01:25:00,HALLWF1,20.2,AGL SA Generation Pty Limited,Hallett 1 Wind Farm,Wind,95.0,21.26,Hallett 1 Wind Farm,-33.367778,138.728611,2026-02-05T15:23:53.749420
2026/02/06 01:25:00,HALLWF2,13.48,AGL SA Generation Pty Limited,Hallett 2 Wind Farm,Wind,71.0,18.99,Hallett 2 Wind Farm,-33.367778,138.728611,2026-02-05T15:23:53.749420
2026/02/06 01:25:00,HD1WF1,12.33,Hawkesdale Asset Pty Ltd as trustee for Hawkesdale Asset Trust,Hawkesdale Wind Farm,Wind,89.0,13.85,Hawkesdale Wind Farm,-38.147894,142.361381,2026-02-05T15:23:53.749420
2026/02/06 01:25:00,HDWF1,57.3,HWF1 Pty Ltd,Hornsdale Wind Farm,Wind,102.0,56.18,Hornsdale Wind Farm,-33.050556,138.543611,2026-02-05T15:23:53.749420
2026/02/06 01:25:00,HDWF2,69.1,HWF 2 Pty Ltd,Hornsdale Wind Farm 2,Wind,102.0,67.75,Hornsdale Wind Farm 2,-33.06,138.54,2026-02-05T15:23:53.749420
2026/02/06 01:25:00,HDWF3,63.9,HWF3 Pty Ltd,Hornsdale Wind Farm 3,Wind,109.0,58.62,Hornsdale Wind Farm 3,-33.06,138.54,2026-02-05T15:23:53.749420
2026/02/06 01:25:00,KABANWF1,30.58,Kaban Wind Farm Pty Ltd as trustee for Kaban Wind Farm Trust,Kaban Wind Farm,Wind,152.0,20.12,Kaban Wind Farm,-17.56,145.41,2026-02-05T15:23:53.749420
2026/02/06 01:25:00,KEPWF1,31.4,Kennedy Energy Park Pty Ltd,Kennedy Energy Park,Wind,43.0,73.02,Kennedy Energy Park,-20.88,144.42,2026-02-05T15:23:53.749420
2026/02/06 01:25:00,KIATAWF1,6.8,Kiata ProjectCo Pty Ltd Atf Kiata Project Trust,Kiata Wind Farm,Wind,31.0,21.94,Kiata Wind Farm,-36.4,141.75,2026-02-05T15:23:53.749420
2026/02/06 01:25:00,LGAPWF1,34.64,Lincoln Gap Wind Farm (Operations) Pty Ltd,Lincoln Gap Wind Farm,Wind,123.0,28.16,Lincoln Gap Wind Farm,-32.564279,137.557328,2026-02-05T15:23:53.749420
2026/02/06 01:25:00,LGAPWF1,34.64,Lincoln Gap Wind Farm (Operations) Pty Ltd,Lincoln Gap Wind Farm,Wind,123.0,28.16,Lincoln Gap Wind Farm,-32.564279,137.557328,2026-02-05T15:23:53.749420
2026/02/06 01:25:00,LGAPWF2,27.11,Lincoln Gap Wind Farm (Operations) Pty Ltd,Lincoln Gap Wind Farm,Wind,85.0,31.89,Lincoln Gap Wind Farm,-32.564279,137.557328,2026-02-05T15:23:53.749420
2026/02/06 01:25:00,LGAPWF2,27.11,Lincoln Gap Wind Farm (Operations) Pty Ltd,Lincoln Gap Wind Farm,Wind,85.0,31.89,Lincoln Gap Wind Farm,-32.564279,137.557328,2026-02-05T15:23:53.749420
2026/02/06 01:25:00,LKBONNY1,3.93,Lake Bonney Wind Power Pty Ltd,Lake Bonney Wind Farm Stage 1,Wind,81.0,4.85,Lake Bonney Wind Farm Stage 1,-37.76,140.4,2026-02-05T15:23:53.749420
2026/02/06 01:25:00,LKBONNY2,11.67,Lake Bonney Wind Power Pty Ltd,Lake Bonney Stage 2 Windfarm,Wind,159.0,7.34,Lake Bonney Stage 2 Windfarm,-37.76,140.4,2026-02-05T15:23:53.749420
2026/02/06 01:25:00,LKBONNY3,2.85,Lake Bonney Wind Power Pty Ltd,Lake Bonney Stage 3 Wind Farm,Wind,39.0,7.31,Lake Bonney Stage 3 Wind Farm,-37.737781,140.388137,2026-02-05T15:23:53.749420
2026/02/06 01:25:00,MACARTH1,35.7,AGL Hydro Partnership,Macarthur Wind Farm,Wind,420.0,8.5,Macarthur Wind Farm,-38.048957,142.192112,2026-02-05T15:23:53.749420
2026/02/06 01:25:00,MCINTYR1,53.34,MacIntyre UJV Operator Pty Ltd,MacIntyre Wind Farm,Wind,890.0,5.99,MacIntyre Wind Farm,-28.32,151.54,2026-02-05T15:23:53.749420
2026/02/06 01:25:00,MERCER01,11.3,Mt Mercer Windfarm Pty Ltd,Mt Mercer Wind Farm,Wind,131.0,8.63,Mt Mercer Wind Farm,-37.841111,143.871111,2026-02-05T15:23:53.749420
2026/02/06 01:25:00,MEWF1,29.76,Ergon Energy Queensland Pty Ltd ,Mount Emerald Wind Farm,Wind,178.0,16.72,Mount Emerald Wind Farm,-17.133007,145.380644,2026-02-05T15:23:53.749420
2026/02/06 01:25:00,MRTLSWF1,0.77,Mortlake South Wind Farm Pty Ltd,Mortlake South Wind Farm,Wind,153.0,0.5,Mortlake South Wind Farm,-38.127337,142.857801,2026-02-05T15:23:53.749420
2026/02/06 01:25:00,MTGELWF1,0.0,Mt. Gellibrand Wind Farm Pty Ltd,Mt Gellibrand Wind Farm,Wind,132.0,0.0,Mt Gellibrand Wind Farm,-38.23,143.77,2026-02-05T15:23:53.749420
2026/02/06 01:25:00,MTMILLAR,38.8,Mt Millar Wind Farm Pty Ltd,Mt Millar Wind Farm,Wind,70.0,55.43,Mt Millar Wind Farm,-33.624444,136.703611,2026-02-05T15:23:53.749420
2026/02/06 01:25:00,MUSSELR1,63.4,Hydro-Electric Corporation,Musselroe Wind Farm,Wind,168.0,37.74,Musselroe Wind Farm,-40.780225,148.010799,2026-02-05T15:23:53.749420
2026/02/06 01:25:00,MUWAWF1,94.56,Telstra Energy (Generation) Pty Ltd,Murra Warra Wind Farm,Wind,225.7,41.9,Murra Warra Wind Farm,-36.432404,142.317853,2026-02-05T15:23:53.749420
2026/02/06 01:25:00,MUWAWF2,121.4,Murra Warra II Project Co Pty Ltd ATF The Murra Warra II Project Trust,Murra Warra Wind Farm Stage 2,Wind,203.0,59.8,Murra Warra Wind Farm Stage 2,-36.43,142.32,2026-02-05T15:23:53.749420
2026/02/06 01:25:00,NBHWF1,61.3,AGL SA Generation Pty Limited,North Brown Hill Wind Farm,Wind,132.0,46.44,North Brown Hill Wind Farm,-33.367778,138.728611,2026-02-05T15:23:53.749420
2026/02/06 01:25:00,OAKLAND1,10.5,AGL Hydro Partnership,Oaklands Hill Wind Farm,Wind,63.0,16.67,Oaklands Hill Wind Farm,-37.683078,142.551678,2026-02-05T15:23:53.749420
2026/02/06 01:25:00,PAREPW1,132.51,Iberdrola Australia Energy Markets Pty Limited,Port Augusta Renewable Energy Park,Wind,201.0,65.93,Port Augusta Renewable Energy Park,-32.566944,137.856111,2026-02-05T15:23:53.749420
2026/02/06 01:25:00,RYANCWF1,4.05,Ryan Corner Development Pty Ltd,Ryan Corner Wind Farm,Wind,205.0,1.98,Ryan Corner Wind Farm,-38.271017,142.140647,2026-02-05T15:23:53.749420
2026/02/06 01:25:00,RYEPARK1,44.37,Rye Park Renewable Energy Pty Ltd as trustee for Rye Park Wind Farm Trust,Rye Park Renewable Energy,Wind,384.0,11.55,Rye Park Renewable Energy,-32.138333,148.972778,2026-02-05T15:23:53.749420
2026/02/06 01:25:00,SALTCRK1,2.78,Salt Creek Wind Farm Pty Ltd,Salt Creek Wind Farm,Wind,54.0,5.15,Salt Creek Wind Farm,-37.95,142.63,2026-02-05T15:23:53.749420
2026/02/06 01:25:00,SAPHWF1,28.59,The Trustee For The SWF1 Operations Trust,Sapphire Wind Farm,Wind,270.0,10.59,Sapphire Wind Farm,-29.7,151.41,2026-02-05T15:23:53.749420
2026/02/06 01:25:00,SNOWNTH1,33.4,Snowtown Wind Farm Stage 2 Pty Ltd,Snowtown Wind Farm Stage 2 North,Wind,144.0,23.19,Snowtown Wind Farm Stage 2 North,-33.83,138.118611,2026-02-05T15:23:53.749420
2026/02/06 01:25:00,SNOWSTH1,56.6,Snowtown Wind Farm Stage 2 Pty Ltd,Snowtown South Wind Farm,Wind,126.0,44.92,Snowtown South Wind Farm,-33.83,138.118611,2026-02-05T15:23:53.749420
2026/02/06 01:25:00,SNOWTWN1,35.01,Snowtown Wind Farm Pty Ltd,Snowtown Wind Farm Units 1 And 47,Wind,99.0,35.36,Snowtown Wind Farm Units 1 And 47,-33.83,138.118611,2026-02-05T15:23:53.749420
2026/02/06 01:25:00,STARHLWF,17.1,Starfish Hill Wind Farm Pty Ltd,Starfish Hill Wind Farm,Wind,35.0,48.86,Starfish Hill Wind Farm,-35.58,138.14,2026-02-05T15:23:53.749420
2026/02/06 01:25:00,STOCKYD1,49.72,Stockyard Hill Wind Farm Pty Ltd,Stockyard Hill Wind Farm,Wind,511.0,9.73,Stockyard Hill Wind Farm,-37.535833,143.251389,2026-02-05T15:23:53.749420
2026/02/06 01:25:00,STWF1,19.06,PARF Company 8 Pty Ltd as The Trustee for Silverton Project Trust,Silverton Wind Farm,Wind,198.0,9.63,Silverton Wind Farm,-37.683168,142.551678,2026-02-05T15:23:53.749420
2026/02/06 01:25:00,TARALGA1,0.0,Taralga Wind Farm Nominees No 2 Pty Ltd (ATF Taralga Wind Farm Operating Trust),Taralga Wind Farm,Wind,106.0,0.0,Taralga Wind Farm,-34.42352,149.826267,2026-02-05T15:23:53.749420
2026/02/06 01:25:00,WAMBOWF1,25.18,Stanwell Corporation Limited,Wambo Wind Farm 1,Wind,245.0,10.28,Wambo Wind Farm 1,-35.187301,149.524945,2026-02-05T15:23:53.749420
2026/02/06 01:25:00,WATERLWF,20.8,Waterloo Wind Farm Pty Ltd,Waterloo Wind Farm,Wind,130.0,16.0,Waterloo Wind Farm,-34.00094,138.911567,2026-02-05T15:23:53.749420
2026/02/06 01:25:00,WGWF1,12.6,Willogoleche Power Pty Ltd As The Trustee For The Willogoleche Operating Trust,Willogoleche Wind Farm,Wind,119.0,10.59,Willogoleche Wind Farm,-33.39,138.85,2026-02-05T15:23:53.749420
2026/02/06 01:25:00,WOODLWN1,15.96,Woodlawn Wind Pty Ltd,Woodlawn Wind Farm,Wind,48.0,33.25,Woodlawn Wind Farm,-35.08,149.62,2026-02-05T15:23:53.749420
2026/02/06 01:25:00,WPWF,16.37,AGL SA Generation Pty Limited,Wattle Point Wind Farm,Wind,91.0,17.99,Wattle Point Wind Farm,-35.111624,137.7219,2026-02-05T15:23:53.749420
2026/02/06 01:25:00,WRWF1,49.85,White Rock Wind Farm Pty Ltd,White Rock Wind Farm,Wind,172.0,28.98,White Rock Wind Farm,-29.79,151.54,2026-02-05T15:23:53.749420
2026/02/06 01:25:00,YENDWF1,13.11,Lal Lal Wind Farms Nom Co Pty Ltd,Yendon Wind Farm,Wind,142.0,9.23,Yendon Wind Farm,-37.629987,144.022717,2026-02-05T15:23:53.749420
