SETTLEMENTDATE,DUID,SCADAVALUE,Participant,Station Name,Fuel Source - Primary,MAX_CAP,utilisation_pct,Plant,Latitude,Longitude,timestamp_utc
2026/04/03 20:00:00,CAPTL_WF,82.51,Iberdrola Australia Holdings Pty Limited,Capital Wind Farm,Wind,140.0,58.94,Capital Wind Farm,-35.1,149.31,2026-04-03T10:02:49.532963
2026/04/03 20:00:00,CHALLHWF,26.7,Pacific Hydro Challicum Hills Pty Ltd,Challicum Hills Wind Farm,Wind,52.0,51.35,Challicum Hills Wind Farm,-37.38,143.11,2026-04-03T10:02:49.532963
2026/04/03 20:00:00,CULLRGWF,22.77,Cullerin Range Wind Farm Pty Ltd,Cullerin Range Wind Farm,Wind,30.0,75.9,Cullerin Range Wind Farm,-34.81,149.4,2026-04-03T10:02:49.532963
2026/04/03 20:00:00,DIAPURWF1,5.1,Y.E.S. Energy (SA) Pty Ltd,Diapur Wind Farm,Wind,7.0,72.86,Diapur Wind Farm,-36.3425,141.43,2026-04-03T10:02:49.532963
2026/04/03 20:00:00,MLWF1,7.35,Mortons Lane Windfarm Pty Limited,Mortons Lane Wind Farm,Wind,20.0,36.75,Mortons Lane Wind Farm,-37.84,142.45,2026-04-03T10:02:49.532963
2026/04/03 20:00:00,WAUBRAWF,103.38,Pyrenees Wind Energy Developments Pty Ltd,Waubra Wind Farm,Wind,192.0,53.84,Waubra Wind Farm,-37.394498,143.638982,2026-04-03T10:02:49.532963
2026/04/03 20:00:00,WOOLNTH1,10.0,Hydro-Electric Corporation,Woolnorth Studland Bay / Bluff Point Wind Farm,Wind,140.0,7.14,Woolnorth Studland Bay / Bluff Point Wind Farm,-40.69,144.72,2026-04-03T10:02:49.532963
2026/04/03 20:00:00,YAMBUKWF,8.2,Energy Pacific (Vic) Pty Ltd,Yambuk Wind Farm,Wind,30.0,27.33,Yambuk Wind Farm,-38.299083,142.027577,2026-04-03T10:02:49.532963
2026/04/03 20:00:00,YSWF1,4.3,Pacific Hydro Yaloak South Pty Ltd,Yaloak South Wind Farm,Wind,28.0,15.36,Yaloak South Wind Farm,-37.7163,144.242853,2026-04-03T10:02:49.532963
2026/04/03 20:00:00,ARWF1,102.8,Ararat Wind Farm Pty Ltd,Ararat Wind Farm,Wind,241.0,42.66,Ararat Wind Farm,-37.232778,143.031389,2026-04-03T10:02:49.532963
2026/04/03 20:00:00,BALDHWF1,4.68,Alinta Energy Retail Sales Pty Ltd,Bald Hills Wind Farm,Wind,106.0,4.42,Bald Hills Wind Farm,-38.79,145.93,2026-04-03T10:02:49.532963
2026/04/03 20:00:00,BANGOWF1,59.9,BWF Nominees Pty Ltd as The Trustee for BWF Trust,Bango 973 Wind Farm,Wind,155.0,38.65,Bango 973 Wind Farm,-34.551582,148.732808,2026-04-03T10:02:49.532963
2026/04/03 20:00:00,BANGOWF2,48.7,BWF Nominees Pty Ltd as The Trustee for BWF Trust,Bango 999 Wind Farm,Wind,82.0,59.39,Bango 999 Wind Farm,-34.551582,148.732808,2026-04-03T10:02:49.532963
2026/04/03 20:00:00,BLUFF1,3.3,AGL SA Generation Pty Limited,The Bluff Wind Farm,Wind,53.0,6.23,The Bluff Wind Farm,-33.367778,138.728611,2026-04-03T10:02:49.532963
2026/04/03 20:00:00,BOCORWF1,25.81,Boco Rock Wind Farm Pty Ltd,Boco Rock Wind Farm,Wind,111.0,23.25,Boco Rock Wind Farm,-36.578611,149.103333,2026-04-03T10:02:49.532963
2026/04/03 20:00:00,BRYB1WF1,44.28,Berrybank Development Pty Ltd,Berrybank Wind Farm,Wind,175.9,25.17,Berrybank Wind Farm,-37.94,143.52,2026-04-03T10:02:49.532963
2026/04/03 20:00:00,BRYB2WF2,27.38,Berrybank 2 Asset Pty Ltd as trustee for Berrybank 2 Asset Trust,Berrybank 2 Wind Farm,Wind,105.0,26.08,Berrybank 2 Wind Farm,-37.94,143.52,2026-04-03T10:02:49.532963
2026/04/03 20:00:00,BULGANA1,0.0,Bulgana Wind Farm Pty Ltd,Bulgana Green Power Hub,Wind,204.0,0.0,Bulgana Green Power Hub,-37.0975,142.973611,2026-04-03T10:02:49.532963
2026/04/03 20:00:00,CATHROCK,20.9,Cathedral Rocks Wind Farm Pty Ltd,Cathedral Rocks,Wind,66.0,31.67,Cathedral Rocks,-34.51,135.35,2026-04-03T10:02:49.532963
2026/04/03 20:00:00,CHYTWF1,56.52,Cherry Tree Wind Farm Pty Ltd as trustee for The Cherry Tree Project trust ,Cherry Tree Wind Farm,Wind,57.0,99.16,Cherry Tree Wind Farm,-37.1,145.26,2026-04-03T10:02:49.532963
2026/04/03 20:00:00,CLEMGPWF,55.32,Pacific Hydro Clements Gap Pty Ltd,Clements Gap Wind Farm,Wind,57.0,97.05,Clements Gap Wind Farm,-33.48,138.1,2026-04-03T10:02:49.532963
2026/04/03 20:00:00,CLRKCWF1,194.41,Stanwell Corporation Limited ,Clarke Creek Wind Farm,Wind,338.0,57.52,Clarke Creek Wind Farm,-22.85,149.45,2026-04-03T10:02:49.532963
2026/04/03 20:00:00,CLRKCWF2,63.09,Stanwell Corporation Limited ,Clarke Creek Wind Farm,Wind,101.0,62.47,Clarke Creek Wind Farm,-22.85,149.45,2026-04-03T10:02:49.532963
2026/04/03 20:00:00,CNUNDAWF,13.72,Canunda Power Pty Ltd,Canunda Wind Farm,Wind,46.0,29.83,Canunda Wind Farm,-37.73,140.39,2026-04-03T10:02:49.532963
2026/04/03 20:00:00,COLWF01,131.83,Collector Wind Farm Pty Ltd,Collector Wind Farm 1,Wind,219.0,60.2,Collector Wind Farm 1,-34.8719,149.3967,2026-04-03T10:02:49.532963
2026/04/03 20:00:00,COOPGWF1,295.44,PARF Company 10 Pty Limited as The Trustee for Coopers Gap Project Trust,Coopers Gap Wind Farm,Wind,440.0,67.15,Coopers Gap Wind Farm,-26.74,151.45,2026-04-03T10:02:49.532963
2026/04/03 20:00:00,CROOKWF2,32.14,Crookwell Development Pty Ltd ,Crookwell 2 Wind Farm,Wind,91.0,35.32,Crookwell 2 Wind Farm,-34.52,149.54,2026-04-03T10:02:49.532963
2026/04/03 20:00:00,CROOKWF3,28.64,Crookwell 3 Development Pty Ltd,Crookwell 3 Wind Farm,Wind,56.0,51.14,Crookwell 3 Wind Farm,-34.52,149.54,2026-04-03T10:02:49.532963
2026/04/03 20:00:00,CROWLWF1,48.38,Pacific Hydro Crowlands Pty Ltd ,Crowlands Wind Farm,Wind,79.0,61.24,Crowlands Wind Farm,-37.13,143.16,2026-04-03T10:02:49.532963
2026/04/03 20:00:00,CRURWF1,31.7,CRWF Nominees Pty Ltd As Trustee For The CRWF Trust,Crudine Ridge Wind Farm,Wind,138.0,22.97,Crudine Ridge Wind Farm,-32.97,149.64,2026-04-03T10:02:49.532963
2026/04/03 20:00:00,CTHLWF1,36.63,Wild Cattle Hill Pty Ltd,Cattle Hill Wind Farm,Wind,144.0,25.44,Cattle Hill Wind Farm,-42.15,146.69,2026-04-03T10:02:49.532963
2026/04/03 20:00:00,DULAWF1,6.1,Dulacca Energy Project Co Pty Ltd,Dulacca Wind Farm,Wind,173.0,3.53,Dulacca Wind Farm,-26.63,149.87,2026-04-03T10:02:49.532963
2026/04/03 20:00:00,DUNDWF1,76.7,Dundonnell Wind Farm Pty Ltd,Dundonnell Wind Farm,Wind,168.0,45.65,Dundonnell Wind Farm,-37.52,142.58,2026-04-03T10:02:49.532963
2026/04/03 20:00:00,DUNDWF2,23.01,Dundonnell Wind Farm Pty Ltd,Dundonnell Wind Farm,Wind,46.0,50.02,Dundonnell Wind Farm,-37.52,142.58,2026-04-03T10:02:49.532963
2026/04/03 20:00:00,DUNDWF3,60.81,Dundonnell Wind Farm Pty Ltd,Dundonnell Wind Farm,Wind,122.0,49.84,Dundonnell Wind Farm,-37.52,142.58,2026-04-03T10:02:49.532963
2026/04/03 20:00:00,ELAINWF1,31.34,Lal Lal Wind Farms Nom Co Pty Ltd,Elaine Wind Farm,Wind,82.0,38.22,Elaine Wind Farm,-37.36,144.0,2026-04-03T10:02:49.532963
2026/04/03 20:00:00,FLYCRKWF,5.65,Iberdrola Australia Energy Markets Pty Limited,Flyers Creek Wind Farm,Wind,140.0,4.04,Flyers Creek Wind Farm,-33.365556,148.981944,2026-04-03T10:02:49.532963
2026/04/03 20:00:00,GPWFEST1,52.9,Golden Plains WF1 Pty Ltd as Trustee for the Golden Plains WF1 Unit Trust,Golden Plains Wind Farm East,Wind,240.0,22.04,Golden Plains Wind Farm East,-37.945091,143.752614,2026-04-03T10:02:49.532963
2026/04/03 20:00:00,GPWFEST2,46.85,Golden Plains WF1 Pty Ltd as Trustee for the Golden Plains WF1 Unit Trust,Golden Plains Wind Farm East,Wind,253.0,18.52,Golden Plains Wind Farm East,-37.945091,143.752614,2026-04-03T10:02:49.532963
2026/04/03 20:00:00,GPWFEST3,32.4,Golden Plains WF1 Pty Ltd as Trustee for the Golden Plains WF1 Unit Trust,Golden Plains Wind Farm East,Wind,240.0,13.5,Golden Plains Wind Farm East,-37.945091,143.752614,2026-04-03T10:02:49.532963
2026/04/03 20:00:00,GRANWF1,29.95,Granville Harbour Operations Pty Ltd as The Trustee for Granville Harbour Operations Trust,Granville Harbour Wind Farm,Wind,111.0,26.98,Granville Harbour Wind Farm,-41.8,145.06,2026-04-03T10:02:49.532963
2026/04/03 20:00:00,GSWF1A,142.11,Goyder Wind Farm 1 Pty Ltd as the Trustee for Goyder Wind Farm 1 Trust,Goyder South Wind Farm 1A,Wind,201.0,70.7,Goyder South Wind Farm 1A,-33.679758,138.937597,2026-04-03T10:02:49.532963
2026/04/03 20:00:00,GSWF1B1,90.16,Goyder Wind Farm 1B Pty Ltd as the Trustee for the Goyder Wind Farm 1B Trust,Goyder South Wind Farm 1B,Wind,196.0,46.0,Goyder South Wind Farm 1B,-33.679758,138.937597,2026-04-03T10:02:49.532963
2026/04/03 20:00:00,GULLRWF1,45.58,New Gullen Range Wind Farm Pty Ltd,Gullen Range Wind Farm,Wind,161.0,28.31,Gullen Range Wind Farm,-34.34,149.27,2026-04-03T10:02:49.532963
2026/04/03 20:00:00,GULLRWF2,74.03,New Gullen Range Wind Farm Pty Ltd,Gullen Range Wind Farm,Wind,107.0,69.19,Gullen Range Wind Farm,-34.34,149.27,2026-04-03T10:02:49.532963
2026/04/03 20:00:00,GUNNING1,31.29,Gunning Wind Energy Developments Pty Ltd,Gunning Wind Farm,Wind,47.0,66.57,Gunning Wind Farm,-34.813333,149.4,2026-04-03T10:02:49.532963
2026/04/03 20:00:00,HALLWF1,37.46,AGL SA Generation Pty Limited,Hallett 1 Wind Farm,Wind,95.0,39.43,Hallett 1 Wind Farm,-33.367778,138.728611,2026-04-03T10:02:49.532963
2026/04/03 20:00:00,HALLWF2,40.6,AGL SA Generation Pty Limited,Hallett 2 Wind Farm,Wind,71.0,57.18,Hallett 2 Wind Farm,-33.367778,138.728611,2026-04-03T10:02:49.532963
2026/04/03 20:00:00,HD1WF1,23.02,Hawkesdale Asset Pty Ltd as trustee for Hawkesdale Asset Trust,Hawkesdale Wind Farm,Wind,89.0,25.87,Hawkesdale Wind Farm,-38.147894,142.361381,2026-04-03T10:02:49.532963
2026/04/03 20:00:00,HDWF1,77.6,HWF1 Pty Ltd,Hornsdale Wind Farm,Wind,102.0,76.08,Hornsdale Wind Farm,-33.050556,138.543611,2026-04-03T10:02:49.532963
2026/04/03 20:00:00,HDWF2,93.5,HWF 2 Pty Ltd,Hornsdale Wind Farm 2,Wind,102.0,91.67,Hornsdale Wind Farm 2,-33.06,138.54,2026-04-03T10:02:49.532963
2026/04/03 20:00:00,HDWF3,85.4,HWF3 Pty Ltd,Hornsdale Wind Farm 3,Wind,109.0,78.35,Hornsdale Wind Farm 3,-33.06,138.54,2026-04-03T10:02:49.532963
2026/04/03 20:00:00,KABANWF1,59.26,Kaban Wind Farm Pty Ltd as trustee for Kaban Wind Farm Trust,Kaban Wind Farm,Wind,152.0,38.99,Kaban Wind Farm,-17.56,145.41,2026-04-03T10:02:49.532963
2026/04/03 20:00:00,KEPWF1,27.1,Kennedy Energy Park Pty Ltd,Kennedy Energy Park,Wind,43.0,63.02,Kennedy Energy Park,-20.88,144.42,2026-04-03T10:02:49.532963
2026/04/03 20:00:00,KIATAWF1,29.3,Kiata ProjectCo Pty Ltd Atf Kiata Project Trust,Kiata Wind Farm,Wind,31.0,94.52,Kiata Wind Farm,-36.4,141.75,2026-04-03T10:02:49.532963
2026/04/03 20:00:00,LGAPWF1,13.49,Lincoln Gap Wind Farm (Operations) Pty Ltd,Lincoln Gap Wind Farm,Wind,123.0,10.97,Lincoln Gap Wind Farm,-32.564279,137.557328,2026-04-03T10:02:49.532963
2026/04/03 20:00:00,LGAPWF1,13.49,Lincoln Gap Wind Farm (Operations) Pty Ltd,Lincoln Gap Wind Farm,Wind,123.0,10.97,Lincoln Gap Wind Farm,-32.564279,137.557328,2026-04-03T10:02:49.532963
2026/04/03 20:00:00,LGAPWF2,18.55,Lincoln Gap Wind Farm (Operations) Pty Ltd,Lincoln Gap Wind Farm,Wind,85.0,21.82,Lincoln Gap Wind Farm,-32.564279,137.557328,2026-04-03T10:02:49.532963
2026/04/03 20:00:00,LGAPWF2,18.55,Lincoln Gap Wind Farm (Operations) Pty Ltd,Lincoln Gap Wind Farm,Wind,85.0,21.82,Lincoln Gap Wind Farm,-32.564279,137.557328,2026-04-03T10:02:49.532963
2026/04/03 20:00:00,LKBONNY1,11.25,Lake Bonney Wind Power Pty Ltd,Lake Bonney Wind Farm Stage 1,Wind,81.0,13.89,Lake Bonney Wind Farm Stage 1,-37.76,140.4,2026-04-03T10:02:49.532963
2026/04/03 20:00:00,LKBONNY2,43.38,Lake Bonney Wind Power Pty Ltd,Lake Bonney Stage 2 Windfarm,Wind,159.0,27.28,Lake Bonney Stage 2 Windfarm,-37.76,140.4,2026-04-03T10:02:49.532963
2026/04/03 20:00:00,LKBONNY3,6.2,Lake Bonney Wind Power Pty Ltd,Lake Bonney Stage 3 Wind Farm,Wind,39.0,15.9,Lake Bonney Stage 3 Wind Farm,-37.737781,140.388137,2026-04-03T10:02:49.532963
2026/04/03 20:00:00,MACARTH1,59.8,AGL Hydro Partnership,Macarthur Wind Farm,Wind,420.0,14.24,Macarthur Wind Farm,-38.048957,142.192112,2026-04-03T10:02:49.532963
2026/04/03 20:00:00,MCINTYR1,214.48,MacIntyre UJV Operator Pty Ltd,MacIntyre Wind Farm,Wind,890.0,24.1,MacIntyre Wind Farm,-28.32,151.54,2026-04-03T10:02:49.532963
2026/04/03 20:00:00,MERCER01,27.6,Mt Mercer Windfarm Pty Ltd,Mt Mercer Wind Farm,Wind,131.0,21.07,Mt Mercer Wind Farm,-37.841111,143.871111,2026-04-03T10:02:49.532963
2026/04/03 20:00:00,MEWF1,49.6,Ergon Energy Queensland Pty Ltd ,Mount Emerald Wind Farm,Wind,178.0,27.87,Mount Emerald Wind Farm,-17.133007,145.380644,2026-04-03T10:02:49.532963
2026/04/03 20:00:00,MRTLSWF1,41.1,Mortlake South Wind Farm Pty Ltd,Mortlake South Wind Farm,Wind,153.0,26.86,Mortlake South Wind Farm,-38.127337,142.857801,2026-04-03T10:02:49.532963
2026/04/03 20:00:00,MTGELWF1,22.86,Mt. Gellibrand Wind Farm Pty Ltd,Mt Gellibrand Wind Farm,Wind,132.0,17.32,Mt Gellibrand Wind Farm,-38.23,143.77,2026-04-03T10:02:49.532963
2026/04/03 20:00:00,MTMILLAR,17.2,Mt Millar Wind Farm Pty Ltd,Mt Millar Wind Farm,Wind,70.0,24.57,Mt Millar Wind Farm,-33.624444,136.703611,2026-04-03T10:02:49.532963
2026/04/03 20:00:00,MUSSELR1,0.0,Hydro-Electric Corporation,Musselroe Wind Farm,Wind,168.0,0.0,Musselroe Wind Farm,-40.780225,148.010799,2026-04-03T10:02:49.532963
2026/04/03 20:00:00,MUWAWF1,197.75,Telstra Energy (Generation) Pty Ltd,Murra Warra Wind Farm,Wind,225.7,87.62,Murra Warra Wind Farm,-36.432404,142.317853,2026-04-03T10:02:49.532963
2026/04/03 20:00:00,MUWAWF2,177.4,Murra Warra II Project Co Pty Ltd ATF The Murra Warra II Project Trust,Murra Warra Wind Farm Stage 2,Wind,203.0,87.39,Murra Warra Wind Farm Stage 2,-36.43,142.32,2026-04-03T10:02:49.532963
2026/04/03 20:00:00,NBHWF1,75.0,AGL SA Generation Pty Limited,North Brown Hill Wind Farm,Wind,132.0,56.82,North Brown Hill Wind Farm,-33.367778,138.728611,2026-04-03T10:02:49.532963
2026/04/03 20:00:00,OAKLAND1,18.3,AGL Hydro Partnership,Oaklands Hill Wind Farm,Wind,63.0,29.05,Oaklands Hill Wind Farm,-37.683078,142.551678,2026-04-03T10:02:49.532963
2026/04/03 20:00:00,PAREPW1,35.27,Iberdrola Australia Energy Markets Pty Limited,Port Augusta Renewable Energy Park,Wind,201.0,17.55,Port Augusta Renewable Energy Park,-32.566944,137.856111,2026-04-03T10:02:49.532963
2026/04/03 20:00:00,RYANCWF1,40.45,Ryan Corner Development Pty Ltd,Ryan Corner Wind Farm,Wind,205.0,19.73,Ryan Corner Wind Farm,-38.271017,142.140647,2026-04-03T10:02:49.532963
2026/04/03 20:00:00,RYEPARK1,244.17,Rye Park Renewable Energy Pty Ltd as trustee for Rye Park Wind Farm Trust,Rye Park Renewable Energy,Wind,384.0,63.59,Rye Park Renewable Energy,-32.138333,148.972778,2026-04-03T10:02:49.532963
2026/04/03 20:00:00,SALTCRK1,19.81,Salt Creek Wind Farm Pty Ltd,Salt Creek Wind Farm,Wind,54.0,36.69,Salt Creek Wind Farm,-37.95,142.63,2026-04-03T10:02:49.532963
2026/04/03 20:00:00,SAPHWF1,234.17,The Trustee For The SWF1 Operations Trust,Sapphire Wind Farm,Wind,270.0,86.73,Sapphire Wind Farm,-29.7,151.41,2026-04-03T10:02:49.532963
2026/04/03 20:00:00,SNOWNTH1,85.8,Snowtown Wind Farm Stage 2 Pty Ltd,Snowtown Wind Farm Stage 2 North,Wind,144.0,59.58,Snowtown Wind Farm Stage 2 North,-33.83,138.118611,2026-04-03T10:02:49.532963
2026/04/03 20:00:00,SNOWSTH1,106.1,Snowtown Wind Farm Stage 2 Pty Ltd,Snowtown South Wind Farm,Wind,126.0,84.21,Snowtown South Wind Farm,-33.83,138.118611,2026-04-03T10:02:49.532963
2026/04/03 20:00:00,SNOWTWN1,84.39,Snowtown Wind Farm Pty Ltd,Snowtown Wind Farm Units 1 And 47,Wind,99.0,85.24,Snowtown Wind Farm Units 1 And 47,-33.83,138.118611,2026-04-03T10:02:49.532963
2026/04/03 20:00:00,STARHLWF,29.39,Starfish Hill Wind Farm Pty Ltd,Starfish Hill Wind Farm,Wind,35.0,83.97,Starfish Hill Wind Farm,-35.58,138.14,2026-04-03T10:02:49.532963
2026/04/03 20:00:00,STOCKYD1,265.89,Stockyard Hill Wind Farm Pty Ltd,Stockyard Hill Wind Farm,Wind,511.0,52.03,Stockyard Hill Wind Farm,-37.535833,143.251389,2026-04-03T10:02:49.532963
2026/04/03 20:00:00,STWF1,121.12,PARF Company 8 Pty Ltd as The Trustee for Silverton Project Trust,Silverton Wind Farm,Wind,198.0,61.17,Silverton Wind Farm,-37.683168,142.551678,2026-04-03T10:02:49.532963
2026/04/03 20:00:00,TARALGA1,22.82,Taralga Wind Farm Nominees No 2 Pty Ltd (ATF Taralga Wind Farm Operating Trust),Taralga Wind Farm,Wind,106.0,21.53,Taralga Wind Farm,-34.42352,149.826267,2026-04-03T10:02:49.532963
2026/04/03 20:00:00,WAMBOWF1,165.37,Stanwell Corporation Limited,Wambo Wind Farm 1,Wind,245.0,67.5,Wambo Wind Farm 1,-35.187301,149.524945,2026-04-03T10:02:49.532963
2026/04/03 20:00:00,WATERLWF,52.9,Waterloo Wind Farm Pty Ltd,Waterloo Wind Farm,Wind,130.0,40.69,Waterloo Wind Farm,-34.00094,138.911567,2026-04-03T10:02:49.532963
2026/04/03 20:00:00,WGWF1,52.2,Willogoleche Power Pty Ltd As The Trustee For The Willogoleche Operating Trust,Willogoleche Wind Farm,Wind,119.0,43.87,Willogoleche Wind Farm,-33.39,138.85,2026-04-03T10:02:49.532963
2026/04/03 20:00:00,WOODLWN1,20.29,Woodlawn Wind Pty Ltd,Woodlawn Wind Farm,Wind,48.0,42.27,Woodlawn Wind Farm,-35.08,149.62,2026-04-03T10:02:49.532963
2026/04/03 20:00:00,WPWF,62.54,AGL SA Generation Pty Limited,Wattle Point Wind Farm,Wind,91.0,68.73,Wattle Point Wind Farm,-35.111624,137.7219,2026-04-03T10:02:49.532963
2026/04/03 20:00:00,WRWF1,128.31,White Rock Wind Farm Pty Ltd,White Rock Wind Farm,Wind,172.0,74.6,White Rock Wind Farm,-29.79,151.54,2026-04-03T10:02:49.532963
2026/04/03 20:00:00,YENDWF1,46.85,Lal Lal Wind Farms Nom Co Pty Ltd,Yendon Wind Farm,Wind,142.0,32.99,Yendon Wind Farm,-37.629987,144.022717,2026-04-03T10:02:49.532963
