SETTLEMENTDATE,DUID,SCADAVALUE,Participant,Station Name,Fuel Source - Primary,MAX_CAP,utilisation_pct,Plant,Latitude,Longitude,timestamp_utc
2026/03/01 05:55:00,CAPTL_WF,64.35,Iberdrola Australia Holdings Pty Limited,Capital Wind Farm,Wind,140.0,45.96,Capital Wind Farm,-35.1,149.31,2026-02-28T19:51:55.978739
2026/03/01 05:55:00,CHALLHWF,31.7,Pacific Hydro Challicum Hills Pty Ltd,Challicum Hills Wind Farm,Wind,52.0,60.96,Challicum Hills Wind Farm,-37.38,143.11,2026-02-28T19:51:55.978739
2026/03/01 05:55:00,CULLRGWF,26.58,Cullerin Range Wind Farm Pty Ltd,Cullerin Range Wind Farm,Wind,30.0,88.6,Cullerin Range Wind Farm,-34.81,149.4,2026-02-28T19:51:55.978739
2026/03/01 05:55:00,DIAPURWF1,8.3,Y.E.S. Energy (SA) Pty Ltd,Diapur Wind Farm,Wind,7.0,118.57,Diapur Wind Farm,-36.3425,141.43,2026-02-28T19:51:55.978739
2026/03/01 05:55:00,MLWF1,13.29,Mortons Lane Windfarm Pty Limited,Mortons Lane Wind Farm,Wind,20.0,66.45,Mortons Lane Wind Farm,-37.84,142.45,2026-02-28T19:51:55.978739
2026/03/01 05:55:00,WAUBRAWF,133.81,Pyrenees Wind Energy Developments Pty Ltd,Waubra Wind Farm,Wind,192.0,69.69,Waubra Wind Farm,-37.394498,143.638982,2026-02-28T19:51:55.978739
2026/03/01 05:55:00,WOOLNTH1,122.06,Hydro-Electric Corporation,Woolnorth Studland Bay / Bluff Point Wind Farm,Wind,140.0,87.19,Woolnorth Studland Bay / Bluff Point Wind Farm,-40.69,144.72,2026-02-28T19:51:55.978739
2026/03/01 05:55:00,YAMBUKWF,9.3,Energy Pacific (Vic) Pty Ltd,Yambuk Wind Farm,Wind,30.0,31.0,Yambuk Wind Farm,-38.299083,142.027577,2026-02-28T19:51:55.978739
2026/03/01 05:55:00,YSWF1,1.7,Pacific Hydro Yaloak South Pty Ltd,Yaloak South Wind Farm,Wind,28.0,6.07,Yaloak South Wind Farm,-37.7163,144.242853,2026-02-28T19:51:55.978739
2026/03/01 05:55:00,ARWF1,97.9,Ararat Wind Farm Pty Ltd,Ararat Wind Farm,Wind,241.0,40.62,Ararat Wind Farm,-37.232778,143.031389,2026-02-28T19:51:55.978739
2026/03/01 05:55:00,BALDHWF1,82.14,Alinta Energy Retail Sales Pty Ltd,Bald Hills Wind Farm,Wind,106.0,77.49,Bald Hills Wind Farm,-38.79,145.93,2026-02-28T19:51:55.978739
2026/03/01 05:55:00,BANGOWF1,121.2,BWF Nominees Pty Ltd as The Trustee for BWF Trust,Bango 973 Wind Farm,Wind,155.0,78.19,Bango 973 Wind Farm,-34.551582,148.732808,2026-02-28T19:51:55.978739
2026/03/01 05:55:00,BANGOWF2,70.8,BWF Nominees Pty Ltd as The Trustee for BWF Trust,Bango 999 Wind Farm,Wind,82.0,86.34,Bango 999 Wind Farm,-34.551582,148.732808,2026-02-28T19:51:55.978739
2026/03/01 05:55:00,BLUFF1,9.5,AGL SA Generation Pty Limited,The Bluff Wind Farm,Wind,53.0,17.92,The Bluff Wind Farm,-33.367778,138.728611,2026-02-28T19:51:55.978739
2026/03/01 05:55:00,BOCORWF1,15.15,Boco Rock Wind Farm Pty Ltd,Boco Rock Wind Farm,Wind,111.0,13.65,Boco Rock Wind Farm,-36.578611,149.103333,2026-02-28T19:51:55.978739
2026/03/01 05:55:00,BRYB1WF1,23.05,Berrybank Development Pty Ltd,Berrybank Wind Farm,Wind,175.9,13.1,Berrybank Wind Farm,-37.94,143.52,2026-02-28T19:51:55.978739
2026/03/01 05:55:00,BRYB2WF2,13.04,Berrybank 2 Asset Pty Ltd as trustee for Berrybank 2 Asset Trust,Berrybank 2 Wind Farm,Wind,105.0,12.42,Berrybank 2 Wind Farm,-37.94,143.52,2026-02-28T19:51:55.978739
2026/03/01 05:55:00,BULGANA1,83.25,Bulgana Wind Farm Pty Ltd,Bulgana Green Power Hub,Wind,204.0,40.81,Bulgana Green Power Hub,-37.0975,142.973611,2026-02-28T19:51:55.978739
2026/03/01 05:55:00,CATHROCK,2.1,Cathedral Rocks Wind Farm Pty Ltd,Cathedral Rocks,Wind,66.0,3.18,Cathedral Rocks,-34.51,135.35,2026-02-28T19:51:55.978739
2026/03/01 05:55:00,CHYTWF1,36.98,Cherry Tree Wind Farm Pty Ltd as trustee for The Cherry Tree Project trust ,Cherry Tree Wind Farm,Wind,57.0,64.88,Cherry Tree Wind Farm,-37.1,145.26,2026-02-28T19:51:55.978739
2026/03/01 05:55:00,CLEMGPWF,12.97,Pacific Hydro Clements Gap Pty Ltd,Clements Gap Wind Farm,Wind,57.0,22.75,Clements Gap Wind Farm,-33.48,138.1,2026-02-28T19:51:55.978739
2026/03/01 05:55:00,CLRKCWF1,275.64,Stanwell Corporation Limited ,Clarke Creek Wind Farm,Wind,338.0,81.55,Clarke Creek Wind Farm,-22.85,149.45,2026-02-28T19:51:55.978739
2026/03/01 05:55:00,CLRKCWF2,71.55,Stanwell Corporation Limited ,Clarke Creek Wind Farm,Wind,101.0,70.84,Clarke Creek Wind Farm,-22.85,149.45,2026-02-28T19:51:55.978739
2026/03/01 05:55:00,CNUNDAWF,22.43,Canunda Power Pty Ltd,Canunda Wind Farm,Wind,46.0,48.76,Canunda Wind Farm,-37.73,140.39,2026-02-28T19:51:55.978739
2026/03/01 05:55:00,COLWF01,166.37,Collector Wind Farm Pty Ltd,Collector Wind Farm 1,Wind,219.0,75.97,Collector Wind Farm 1,-34.8719,149.3967,2026-02-28T19:51:55.978739
2026/03/01 05:55:00,COOPGWF1,278.4,PARF Company 10 Pty Limited as The Trustee for Coopers Gap Project Trust,Coopers Gap Wind Farm,Wind,440.0,63.27,Coopers Gap Wind Farm,-26.74,151.45,2026-02-28T19:51:55.978739
2026/03/01 05:55:00,CROOKWF2,29.46,Crookwell Development Pty Ltd ,Crookwell 2 Wind Farm,Wind,91.0,32.37,Crookwell 2 Wind Farm,-34.52,149.54,2026-02-28T19:51:55.978739
2026/03/01 05:55:00,CROOKWF3,31.13,Crookwell 3 Development Pty Ltd,Crookwell 3 Wind Farm,Wind,56.0,55.59,Crookwell 3 Wind Farm,-34.52,149.54,2026-02-28T19:51:55.978739
2026/03/01 05:55:00,CROWLWF1,69.58,Pacific Hydro Crowlands Pty Ltd ,Crowlands Wind Farm,Wind,79.0,88.08,Crowlands Wind Farm,-37.13,143.16,2026-02-28T19:51:55.978739
2026/03/01 05:55:00,CRURWF1,78.0,CRWF Nominees Pty Ltd As Trustee For The CRWF Trust,Crudine Ridge Wind Farm,Wind,138.0,56.52,Crudine Ridge Wind Farm,-32.97,149.64,2026-02-28T19:51:55.978739
2026/03/01 05:55:00,CTHLWF1,75.51,Wild Cattle Hill Pty Ltd,Cattle Hill Wind Farm,Wind,144.0,52.44,Cattle Hill Wind Farm,-42.15,146.69,2026-02-28T19:51:55.978739
2026/03/01 05:55:00,DULAWF1,125.9,Dulacca Energy Project Co Pty Ltd,Dulacca Wind Farm,Wind,173.0,72.77,Dulacca Wind Farm,-26.63,149.87,2026-02-28T19:51:55.978739
2026/03/01 05:55:00,DUNDWF1,127.47,Dundonnell Wind Farm Pty Ltd,Dundonnell Wind Farm,Wind,168.0,75.88,Dundonnell Wind Farm,-37.52,142.58,2026-02-28T19:51:55.978739
2026/03/01 05:55:00,DUNDWF2,30.55,Dundonnell Wind Farm Pty Ltd,Dundonnell Wind Farm,Wind,46.0,66.41,Dundonnell Wind Farm,-37.52,142.58,2026-02-28T19:51:55.978739
2026/03/01 05:55:00,DUNDWF3,76.37,Dundonnell Wind Farm Pty Ltd,Dundonnell Wind Farm,Wind,122.0,62.6,Dundonnell Wind Farm,-37.52,142.58,2026-02-28T19:51:55.978739
2026/03/01 05:55:00,ELAINWF1,19.37,Lal Lal Wind Farms Nom Co Pty Ltd,Elaine Wind Farm,Wind,82.0,23.62,Elaine Wind Farm,-37.36,144.0,2026-02-28T19:51:55.978739
2026/03/01 05:55:00,FLYCRKWF,71.15,Iberdrola Australia Energy Markets Pty Limited,Flyers Creek Wind Farm,Wind,140.0,50.82,Flyers Creek Wind Farm,-33.365556,148.981944,2026-02-28T19:51:55.978739
2026/03/01 05:55:00,GPWFEST1,33.55,Golden Plains WF1 Pty Ltd as Trustee for the Golden Plains WF1 Unit Trust,Golden Plains Wind Farm East,Wind,240.0,13.98,Golden Plains Wind Farm East,-37.945091,143.752614,2026-02-28T19:51:55.978739
2026/03/01 05:55:00,GPWFEST2,43.31,Golden Plains WF1 Pty Ltd as Trustee for the Golden Plains WF1 Unit Trust,Golden Plains Wind Farm East,Wind,253.0,17.12,Golden Plains Wind Farm East,-37.945091,143.752614,2026-02-28T19:51:55.978739
2026/03/01 05:55:00,GPWFEST3,46.6,Golden Plains WF1 Pty Ltd as Trustee for the Golden Plains WF1 Unit Trust,Golden Plains Wind Farm East,Wind,240.0,19.42,Golden Plains Wind Farm East,-37.945091,143.752614,2026-02-28T19:51:55.978739
2026/03/01 05:55:00,GRANWF1,98.12,Granville Harbour Operations Pty Ltd as The Trustee for Granville Harbour Operations Trust,Granville Harbour Wind Farm,Wind,111.0,88.4,Granville Harbour Wind Farm,-41.8,145.06,2026-02-28T19:51:55.978739
2026/03/01 05:55:00,GSWF1A,103.11,Goyder Wind Farm 1 Pty Ltd as the Trustee for Goyder Wind Farm 1 Trust,Goyder South Wind Farm 1A,Wind,201.0,51.3,Goyder South Wind Farm 1A,-33.679758,138.937597,2026-02-28T19:51:55.978739
2026/03/01 05:55:00,GSWF1B1,50.5,Goyder Wind Farm 1B Pty Ltd as the Trustee for the Goyder Wind Farm 1B Trust,Goyder South Wind Farm 1B,Wind,196.0,25.77,Goyder South Wind Farm 1B,-33.679758,138.937597,2026-02-28T19:51:55.978739
2026/03/01 05:55:00,GULLRWF1,80.86,New Gullen Range Wind Farm Pty Ltd,Gullen Range Wind Farm,Wind,161.0,50.22,Gullen Range Wind Farm,-34.34,149.27,2026-02-28T19:51:55.978739
2026/03/01 05:55:00,GULLRWF2,107.97,New Gullen Range Wind Farm Pty Ltd,Gullen Range Wind Farm,Wind,107.0,100.91,Gullen Range Wind Farm,-34.34,149.27,2026-02-28T19:51:55.978739
2026/03/01 05:55:00,GUNNING1,41.43,Gunning Wind Energy Developments Pty Ltd,Gunning Wind Farm,Wind,47.0,88.15,Gunning Wind Farm,-34.813333,149.4,2026-02-28T19:51:55.978739
2026/03/01 05:55:00,HALLWF1,18.18,AGL SA Generation Pty Limited,Hallett 1 Wind Farm,Wind,95.0,19.14,Hallett 1 Wind Farm,-33.367778,138.728611,2026-02-28T19:51:55.978739
2026/03/01 05:55:00,HALLWF2,11.03,AGL SA Generation Pty Limited,Hallett 2 Wind Farm,Wind,71.0,15.54,Hallett 2 Wind Farm,-33.367778,138.728611,2026-02-28T19:51:55.978739
2026/03/01 05:55:00,HD1WF1,82.07,Hawkesdale Asset Pty Ltd as trustee for Hawkesdale Asset Trust,Hawkesdale Wind Farm,Wind,89.0,92.21,Hawkesdale Wind Farm,-38.147894,142.361381,2026-02-28T19:51:55.978739
2026/03/01 05:55:00,HDWF1,28.8,HWF1 Pty Ltd,Hornsdale Wind Farm,Wind,102.0,28.24,Hornsdale Wind Farm,-33.050556,138.543611,2026-02-28T19:51:55.978739
2026/03/01 05:55:00,HDWF2,31.3,HWF 2 Pty Ltd,Hornsdale Wind Farm 2,Wind,102.0,30.69,Hornsdale Wind Farm 2,-33.06,138.54,2026-02-28T19:51:55.978739
2026/03/01 05:55:00,HDWF3,33.3,HWF3 Pty Ltd,Hornsdale Wind Farm 3,Wind,109.0,30.55,Hornsdale Wind Farm 3,-33.06,138.54,2026-02-28T19:51:55.978739
2026/03/01 05:55:00,KABANWF1,47.37,Kaban Wind Farm Pty Ltd as trustee for Kaban Wind Farm Trust,Kaban Wind Farm,Wind,152.0,31.16,Kaban Wind Farm,-17.56,145.41,2026-02-28T19:51:55.978739
2026/03/01 05:55:00,KEPWF1,40.1,Kennedy Energy Park Pty Ltd,Kennedy Energy Park,Wind,43.0,93.26,Kennedy Energy Park,-20.88,144.42,2026-02-28T19:51:55.978739
2026/03/01 05:55:00,KIATAWF1,31.0,Kiata ProjectCo Pty Ltd Atf Kiata Project Trust,Kiata Wind Farm,Wind,31.0,100.0,Kiata Wind Farm,-36.4,141.75,2026-02-28T19:51:55.978739
2026/03/01 05:55:00,LGAPWF1,0.0,Lincoln Gap Wind Farm (Operations) Pty Ltd,Lincoln Gap Wind Farm,Wind,123.0,0.0,Lincoln Gap Wind Farm,-32.564279,137.557328,2026-02-28T19:51:55.978739
2026/03/01 05:55:00,LGAPWF1,0.0,Lincoln Gap Wind Farm (Operations) Pty Ltd,Lincoln Gap Wind Farm,Wind,123.0,0.0,Lincoln Gap Wind Farm,-32.564279,137.557328,2026-02-28T19:51:55.978739
2026/03/01 05:55:00,LGAPWF2,0.0,Lincoln Gap Wind Farm (Operations) Pty Ltd,Lincoln Gap Wind Farm,Wind,85.0,0.0,Lincoln Gap Wind Farm,-32.564279,137.557328,2026-02-28T19:51:55.978739
2026/03/01 05:55:00,LGAPWF2,0.0,Lincoln Gap Wind Farm (Operations) Pty Ltd,Lincoln Gap Wind Farm,Wind,85.0,0.0,Lincoln Gap Wind Farm,-32.564279,137.557328,2026-02-28T19:51:55.978739
2026/03/01 05:55:00,LKBONNY1,30.63,Lake Bonney Wind Power Pty Ltd,Lake Bonney Wind Farm Stage 1,Wind,81.0,37.81,Lake Bonney Wind Farm Stage 1,-37.76,140.4,2026-02-28T19:51:55.978739
2026/03/01 05:55:00,LKBONNY2,66.36,Lake Bonney Wind Power Pty Ltd,Lake Bonney Stage 2 Windfarm,Wind,159.0,41.74,Lake Bonney Stage 2 Windfarm,-37.76,140.4,2026-02-28T19:51:55.978739
2026/03/01 05:55:00,LKBONNY3,13.4,Lake Bonney Wind Power Pty Ltd,Lake Bonney Stage 3 Wind Farm,Wind,39.0,34.36,Lake Bonney Stage 3 Wind Farm,-37.737781,140.388137,2026-02-28T19:51:55.978739
2026/03/01 05:55:00,MACARTH1,188.3,AGL Hydro Partnership,Macarthur Wind Farm,Wind,420.0,44.83,Macarthur Wind Farm,-38.048957,142.192112,2026-02-28T19:51:55.978739
2026/03/01 05:55:00,MCINTYR1,403.52,MacIntyre UJV Operator Pty Ltd,MacIntyre Wind Farm,Wind,890.0,45.34,MacIntyre Wind Farm,-28.32,151.54,2026-02-28T19:51:55.978739
2026/03/01 05:55:00,MERCER01,14.3,Mt Mercer Windfarm Pty Ltd,Mt Mercer Wind Farm,Wind,131.0,10.92,Mt Mercer Wind Farm,-37.841111,143.871111,2026-02-28T19:51:55.978739
2026/03/01 05:55:00,MEWF1,19.0,Ergon Energy Queensland Pty Ltd ,Mount Emerald Wind Farm,Wind,178.0,10.67,Mount Emerald Wind Farm,-17.133007,145.380644,2026-02-28T19:51:55.978739
2026/03/01 05:55:00,MRTLSWF1,63.73,Mortlake South Wind Farm Pty Ltd,Mortlake South Wind Farm,Wind,153.0,41.65,Mortlake South Wind Farm,-38.127337,142.857801,2026-02-28T19:51:55.978739
2026/03/01 05:55:00,MTGELWF1,26.75,Mt. Gellibrand Wind Farm Pty Ltd,Mt Gellibrand Wind Farm,Wind,132.0,20.27,Mt Gellibrand Wind Farm,-38.23,143.77,2026-02-28T19:51:55.978739
2026/03/01 05:55:00,MTMILLAR,0.0,Mt Millar Wind Farm Pty Ltd,Mt Millar Wind Farm,Wind,70.0,0.0,Mt Millar Wind Farm,-33.624444,136.703611,2026-02-28T19:51:55.978739
2026/03/01 05:55:00,MUSSELR1,74.7,Hydro-Electric Corporation,Musselroe Wind Farm,Wind,168.0,44.46,Musselroe Wind Farm,-40.780225,148.010799,2026-02-28T19:51:55.978739
2026/03/01 05:55:00,MUWAWF1,195.74,Telstra Energy (Generation) Pty Ltd,Murra Warra Wind Farm,Wind,225.7,86.73,Murra Warra Wind Farm,-36.432404,142.317853,2026-02-28T19:51:55.978739
2026/03/01 05:55:00,MUWAWF2,179.9,Murra Warra II Project Co Pty Ltd ATF The Murra Warra II Project Trust,Murra Warra Wind Farm Stage 2,Wind,203.0,88.62,Murra Warra Wind Farm Stage 2,-36.43,142.32,2026-02-28T19:51:55.978739
2026/03/01 05:55:00,NBHWF1,40.0,AGL SA Generation Pty Limited,North Brown Hill Wind Farm,Wind,132.0,30.3,North Brown Hill Wind Farm,-33.367778,138.728611,2026-02-28T19:51:55.978739
2026/03/01 05:55:00,OAKLAND1,59.7,AGL Hydro Partnership,Oaklands Hill Wind Farm,Wind,63.0,94.76,Oaklands Hill Wind Farm,-37.683078,142.551678,2026-02-28T19:51:55.978739
2026/03/01 05:55:00,PAREPW1,23.9,Iberdrola Australia Energy Markets Pty Limited,Port Augusta Renewable Energy Park,Wind,201.0,11.89,Port Augusta Renewable Energy Park,-32.566944,137.856111,2026-02-28T19:51:55.978739
2026/03/01 05:55:00,RYANCWF1,102.07,Ryan Corner Development Pty Ltd,Ryan Corner Wind Farm,Wind,205.0,49.79,Ryan Corner Wind Farm,-38.271017,142.140647,2026-02-28T19:51:55.978739
2026/03/01 05:55:00,RYEPARK1,328.45,Rye Park Renewable Energy Pty Ltd as trustee for Rye Park Wind Farm Trust,Rye Park Renewable Energy,Wind,384.0,85.53,Rye Park Renewable Energy,-32.138333,148.972778,2026-02-28T19:51:55.978739
2026/03/01 05:55:00,SALTCRK1,8.51,Salt Creek Wind Farm Pty Ltd,Salt Creek Wind Farm,Wind,54.0,15.76,Salt Creek Wind Farm,-37.95,142.63,2026-02-28T19:51:55.978739
2026/03/01 05:55:00,SAPHWF1,258.46,The Trustee For The SWF1 Operations Trust,Sapphire Wind Farm,Wind,270.0,95.73,Sapphire Wind Farm,-29.7,151.41,2026-02-28T19:51:55.978739
2026/03/01 05:55:00,SNOWNTH1,39.7,Snowtown Wind Farm Stage 2 Pty Ltd,Snowtown Wind Farm Stage 2 North,Wind,144.0,27.57,Snowtown Wind Farm Stage 2 North,-33.83,138.118611,2026-02-28T19:51:55.978739
2026/03/01 05:55:00,SNOWSTH1,37.0,Snowtown Wind Farm Stage 2 Pty Ltd,Snowtown South Wind Farm,Wind,126.0,29.37,Snowtown South Wind Farm,-33.83,138.118611,2026-02-28T19:51:55.978739
2026/03/01 05:55:00,SNOWTWN1,36.87,Snowtown Wind Farm Pty Ltd,Snowtown Wind Farm Units 1 And 47,Wind,99.0,37.24,Snowtown Wind Farm Units 1 And 47,-33.83,138.118611,2026-02-28T19:51:55.978739
2026/03/01 05:55:00,STARHLWF,6.1,Starfish Hill Wind Farm Pty Ltd,Starfish Hill Wind Farm,Wind,35.0,17.43,Starfish Hill Wind Farm,-35.58,138.14,2026-02-28T19:51:55.978739
2026/03/01 05:55:00,STOCKYD1,392.91,Stockyard Hill Wind Farm Pty Ltd,Stockyard Hill Wind Farm,Wind,511.0,76.89,Stockyard Hill Wind Farm,-37.535833,143.251389,2026-02-28T19:51:55.978739
2026/03/01 05:55:00,STWF1,109.93,PARF Company 8 Pty Ltd as The Trustee for Silverton Project Trust,Silverton Wind Farm,Wind,198.0,55.52,Silverton Wind Farm,-37.683168,142.551678,2026-02-28T19:51:55.978739
2026/03/01 05:55:00,TARALGA1,18.14,Taralga Wind Farm Nominees No 2 Pty Ltd (ATF Taralga Wind Farm Operating Trust),Taralga Wind Farm,Wind,106.0,17.11,Taralga Wind Farm,-34.42352,149.826267,2026-02-28T19:51:55.978739
2026/03/01 05:55:00,WAMBOWF1,125.58,Stanwell Corporation Limited,Wambo Wind Farm 1,Wind,245.0,51.26,Wambo Wind Farm 1,-35.187301,149.524945,2026-02-28T19:51:55.978739
2026/03/01 05:55:00,WATERLWF,53.4,Waterloo Wind Farm Pty Ltd,Waterloo Wind Farm,Wind,130.0,41.08,Waterloo Wind Farm,-34.00094,138.911567,2026-02-28T19:51:55.978739
2026/03/01 05:55:00,WGWF1,36.3,Willogoleche Power Pty Ltd As The Trustee For The Willogoleche Operating Trust,Willogoleche Wind Farm,Wind,119.0,30.5,Willogoleche Wind Farm,-33.39,138.85,2026-02-28T19:51:55.978739
2026/03/01 05:55:00,WOODLWN1,33.37,Woodlawn Wind Pty Ltd,Woodlawn Wind Farm,Wind,48.0,69.52,Woodlawn Wind Farm,-35.08,149.62,2026-02-28T19:51:55.978739
2026/03/01 05:55:00,WPWF,3.8,AGL SA Generation Pty Limited,Wattle Point Wind Farm,Wind,91.0,4.18,Wattle Point Wind Farm,-35.111624,137.7219,2026-02-28T19:51:55.978739
2026/03/01 05:55:00,WRWF1,147.14,White Rock Wind Farm Pty Ltd,White Rock Wind Farm,Wind,172.0,85.55,White Rock Wind Farm,-29.79,151.54,2026-02-28T19:51:55.978739
2026/03/01 05:55:00,YENDWF1,38.5,Lal Lal Wind Farms Nom Co Pty Ltd,Yendon Wind Farm,Wind,142.0,27.11,Yendon Wind Farm,-37.629987,144.022717,2026-02-28T19:51:55.978739
