SETTLEMENTDATE,DUID,SCADAVALUE,Participant,Station Name,Fuel Source - Primary,MAX_CAP,utilisation_pct,Plant,Latitude,Longitude,timestamp_utc
2026/02/15 03:05:00,CAPTL_WF,0.0,Iberdrola Australia Holdings Pty Limited,Capital Wind Farm,Wind,140.0,0.0,Capital Wind Farm,-35.1,149.31,2026-02-14T17:04:02.673166
2026/02/15 03:05:00,CHALLHWF,14.9,Pacific Hydro Challicum Hills Pty Ltd,Challicum Hills Wind Farm,Wind,52.0,28.65,Challicum Hills Wind Farm,-37.38,143.11,2026-02-14T17:04:02.673166
2026/02/15 03:05:00,CULLRGWF,15.09,Cullerin Range Wind Farm Pty Ltd,Cullerin Range Wind Farm,Wind,30.0,50.3,Cullerin Range Wind Farm,-34.81,149.4,2026-02-14T17:04:02.673166
2026/02/15 03:05:00,DIAPURWF1,8.3,Y.E.S. Energy (SA) Pty Ltd,Diapur Wind Farm,Wind,7.0,118.57,Diapur Wind Farm,-36.3425,141.43,2026-02-14T17:04:02.673166
2026/02/15 03:05:00,MLWF1,0.56,Mortons Lane Windfarm Pty Limited,Mortons Lane Wind Farm,Wind,20.0,2.8,Mortons Lane Wind Farm,-37.84,142.45,2026-02-14T17:04:02.673166
2026/02/15 03:05:00,WAUBRAWF,23.91,Pyrenees Wind Energy Developments Pty Ltd,Waubra Wind Farm,Wind,192.0,12.45,Waubra Wind Farm,-37.394498,143.638982,2026-02-14T17:04:02.673166
2026/02/15 03:05:00,WOOLNTH1,24.49,Hydro-Electric Corporation,Woolnorth Studland Bay / Bluff Point Wind Farm,Wind,140.0,17.49,Woolnorth Studland Bay / Bluff Point Wind Farm,-40.69,144.72,2026-02-14T17:04:02.673166
2026/02/15 03:05:00,YAMBUKWF,0.9,Energy Pacific (Vic) Pty Ltd,Yambuk Wind Farm,Wind,30.0,3.0,Yambuk Wind Farm,-38.299083,142.027577,2026-02-14T17:04:02.673166
2026/02/15 03:05:00,YSWF1,0.2,Pacific Hydro Yaloak South Pty Ltd,Yaloak South Wind Farm,Wind,28.0,0.71,Yaloak South Wind Farm,-37.7163,144.242853,2026-02-14T17:04:02.673166
2026/02/15 03:05:00,ARWF1,1.8,Ararat Wind Farm Pty Ltd,Ararat Wind Farm,Wind,241.0,0.75,Ararat Wind Farm,-37.232778,143.031389,2026-02-14T17:04:02.673166
2026/02/15 03:05:00,BALDHWF1,47.59,Alinta Energy Retail Sales Pty Ltd,Bald Hills Wind Farm,Wind,106.0,44.9,Bald Hills Wind Farm,-38.79,145.93,2026-02-14T17:04:02.673166
2026/02/15 03:05:00,BANGOWF1,53.4,BWF Nominees Pty Ltd as The Trustee for BWF Trust,Bango 973 Wind Farm,Wind,155.0,34.45,Bango 973 Wind Farm,-34.551582,148.732808,2026-02-14T17:04:02.673166
2026/02/15 03:05:00,BANGOWF2,32.5,BWF Nominees Pty Ltd as The Trustee for BWF Trust,Bango 999 Wind Farm,Wind,82.0,39.63,Bango 999 Wind Farm,-34.551582,148.732808,2026-02-14T17:04:02.673166
2026/02/15 03:05:00,BLUFF1,6.4,AGL SA Generation Pty Limited,The Bluff Wind Farm,Wind,53.0,12.08,The Bluff Wind Farm,-33.367778,138.728611,2026-02-14T17:04:02.673166
2026/02/15 03:05:00,BOCORWF1,43.92,Boco Rock Wind Farm Pty Ltd,Boco Rock Wind Farm,Wind,111.0,39.57,Boco Rock Wind Farm,-36.578611,149.103333,2026-02-14T17:04:02.673166
2026/02/15 03:05:00,BRYB1WF1,38.77,Berrybank Development Pty Ltd,Berrybank Wind Farm,Wind,175.9,22.04,Berrybank Wind Farm,-37.94,143.52,2026-02-14T17:04:02.673166
2026/02/15 03:05:00,BRYB2WF2,15.75,Berrybank 2 Asset Pty Ltd as trustee for Berrybank 2 Asset Trust,Berrybank 2 Wind Farm,Wind,105.0,15.0,Berrybank 2 Wind Farm,-37.94,143.52,2026-02-14T17:04:02.673166
2026/02/15 03:05:00,BULGANA1,0.0,Bulgana Wind Farm Pty Ltd,Bulgana Green Power Hub,Wind,204.0,0.0,Bulgana Green Power Hub,-37.0975,142.973611,2026-02-14T17:04:02.673166
2026/02/15 03:05:00,CATHROCK,49.7,Cathedral Rocks Wind Farm Pty Ltd,Cathedral Rocks,Wind,66.0,75.3,Cathedral Rocks,-34.51,135.35,2026-02-14T17:04:02.673166
2026/02/15 03:05:00,CHYTWF1,3.82,Cherry Tree Wind Farm Pty Ltd as trustee for The Cherry Tree Project trust ,Cherry Tree Wind Farm,Wind,57.0,6.7,Cherry Tree Wind Farm,-37.1,145.26,2026-02-14T17:04:02.673166
2026/02/15 03:05:00,CLEMGPWF,55.03,Pacific Hydro Clements Gap Pty Ltd,Clements Gap Wind Farm,Wind,57.0,96.54,Clements Gap Wind Farm,-33.48,138.1,2026-02-14T17:04:02.673166
2026/02/15 03:05:00,CLRKCWF1,220.38,Stanwell Corporation Limited ,Clarke Creek Wind Farm,Wind,338.0,65.2,Clarke Creek Wind Farm,-22.85,149.45,2026-02-14T17:04:02.673166
2026/02/15 03:05:00,CLRKCWF2,55.43,Stanwell Corporation Limited ,Clarke Creek Wind Farm,Wind,101.0,54.88,Clarke Creek Wind Farm,-22.85,149.45,2026-02-14T17:04:02.673166
2026/02/15 03:05:00,CNUNDAWF,34.14,Canunda Power Pty Ltd,Canunda Wind Farm,Wind,46.0,74.22,Canunda Wind Farm,-37.73,140.39,2026-02-14T17:04:02.673166
2026/02/15 03:05:00,COLWF01,55.81,Collector Wind Farm Pty Ltd,Collector Wind Farm 1,Wind,219.0,25.48,Collector Wind Farm 1,-34.8719,149.3967,2026-02-14T17:04:02.673166
2026/02/15 03:05:00,COOPGWF1,254.13,PARF Company 10 Pty Limited as The Trustee for Coopers Gap Project Trust,Coopers Gap Wind Farm,Wind,440.0,57.76,Coopers Gap Wind Farm,-26.74,151.45,2026-02-14T17:04:02.673166
2026/02/15 03:05:00,CROOKWF2,14.76,Crookwell Development Pty Ltd ,Crookwell 2 Wind Farm,Wind,91.0,16.22,Crookwell 2 Wind Farm,-34.52,149.54,2026-02-14T17:04:02.673166
2026/02/15 03:05:00,CROOKWF3,11.33,Crookwell 3 Development Pty Ltd,Crookwell 3 Wind Farm,Wind,56.0,20.23,Crookwell 3 Wind Farm,-34.52,149.54,2026-02-14T17:04:02.673166
2026/02/15 03:05:00,CROWLWF1,16.67,Pacific Hydro Crowlands Pty Ltd ,Crowlands Wind Farm,Wind,79.0,21.1,Crowlands Wind Farm,-37.13,143.16,2026-02-14T17:04:02.673166
2026/02/15 03:05:00,CRURWF1,49.8,CRWF Nominees Pty Ltd As Trustee For The CRWF Trust,Crudine Ridge Wind Farm,Wind,138.0,36.09,Crudine Ridge Wind Farm,-32.97,149.64,2026-02-14T17:04:02.673166
2026/02/15 03:05:00,CTHLWF1,3.85,Wild Cattle Hill Pty Ltd,Cattle Hill Wind Farm,Wind,144.0,2.67,Cattle Hill Wind Farm,-42.15,146.69,2026-02-14T17:04:02.673166
2026/02/15 03:05:00,DULAWF1,117.6,Dulacca Energy Project Co Pty Ltd,Dulacca Wind Farm,Wind,173.0,67.98,Dulacca Wind Farm,-26.63,149.87,2026-02-14T17:04:02.673166
2026/02/15 03:05:00,DUNDWF1,32.77,Dundonnell Wind Farm Pty Ltd,Dundonnell Wind Farm,Wind,168.0,19.51,Dundonnell Wind Farm,-37.52,142.58,2026-02-14T17:04:02.673166
2026/02/15 03:05:00,DUNDWF2,7.52,Dundonnell Wind Farm Pty Ltd,Dundonnell Wind Farm,Wind,46.0,16.35,Dundonnell Wind Farm,-37.52,142.58,2026-02-14T17:04:02.673166
2026/02/15 03:05:00,DUNDWF3,14.77,Dundonnell Wind Farm Pty Ltd,Dundonnell Wind Farm,Wind,122.0,12.11,Dundonnell Wind Farm,-37.52,142.58,2026-02-14T17:04:02.673166
2026/02/15 03:05:00,ELAINWF1,2.8,Lal Lal Wind Farms Nom Co Pty Ltd,Elaine Wind Farm,Wind,82.0,3.41,Elaine Wind Farm,-37.36,144.0,2026-02-14T17:04:02.673166
2026/02/15 03:05:00,FLYCRKWF,58.02,Iberdrola Australia Energy Markets Pty Limited,Flyers Creek Wind Farm,Wind,140.0,41.44,Flyers Creek Wind Farm,-33.365556,148.981944,2026-02-14T17:04:02.673166
2026/02/15 03:05:00,GPWFEST1,22.92,Golden Plains WF1 Pty Ltd as Trustee for the Golden Plains WF1 Unit Trust,Golden Plains Wind Farm East,Wind,240.0,9.55,Golden Plains Wind Farm East,-37.945091,143.752614,2026-02-14T17:04:02.673166
2026/02/15 03:05:00,GPWFEST2,33.02,Golden Plains WF1 Pty Ltd as Trustee for the Golden Plains WF1 Unit Trust,Golden Plains Wind Farm East,Wind,253.0,13.05,Golden Plains Wind Farm East,-37.945091,143.752614,2026-02-14T17:04:02.673166
2026/02/15 03:05:00,GPWFEST3,27.46,Golden Plains WF1 Pty Ltd as Trustee for the Golden Plains WF1 Unit Trust,Golden Plains Wind Farm East,Wind,240.0,11.44,Golden Plains Wind Farm East,-37.945091,143.752614,2026-02-14T17:04:02.673166
2026/02/15 03:05:00,GRANWF1,0.0,Granville Harbour Operations Pty Ltd as The Trustee for Granville Harbour Operations Trust,Granville Harbour Wind Farm,Wind,111.0,0.0,Granville Harbour Wind Farm,-41.8,145.06,2026-02-14T17:04:02.673166
2026/02/15 03:05:00,GSWF1A,121.17,Goyder Wind Farm 1 Pty Ltd as the Trustee for Goyder Wind Farm 1 Trust,Goyder South Wind Farm 1A,Wind,201.0,60.28,Goyder South Wind Farm 1A,-33.679758,138.937597,2026-02-14T17:04:02.673166
2026/02/15 03:05:00,GSWF1B1,89.04,Goyder Wind Farm 1B Pty Ltd as the Trustee for the Goyder Wind Farm 1B Trust,Goyder South Wind Farm 1B,Wind,196.0,45.43,Goyder South Wind Farm 1B,-33.679758,138.937597,2026-02-14T17:04:02.673166
2026/02/15 03:05:00,GULLRWF1,17.68,New Gullen Range Wind Farm Pty Ltd,Gullen Range Wind Farm,Wind,161.0,10.98,Gullen Range Wind Farm,-34.34,149.27,2026-02-14T17:04:02.673166
2026/02/15 03:05:00,GULLRWF2,67.81,New Gullen Range Wind Farm Pty Ltd,Gullen Range Wind Farm,Wind,107.0,63.37,Gullen Range Wind Farm,-34.34,149.27,2026-02-14T17:04:02.673166
2026/02/15 03:05:00,GUNNING1,29.19,Gunning Wind Energy Developments Pty Ltd,Gunning Wind Farm,Wind,47.0,62.11,Gunning Wind Farm,-34.813333,149.4,2026-02-14T17:04:02.673166
2026/02/15 03:05:00,HALLWF1,48.16,AGL SA Generation Pty Limited,Hallett 1 Wind Farm,Wind,95.0,50.69,Hallett 1 Wind Farm,-33.367778,138.728611,2026-02-14T17:04:02.673166
2026/02/15 03:05:00,HALLWF2,40.27,AGL SA Generation Pty Limited,Hallett 2 Wind Farm,Wind,71.0,56.72,Hallett 2 Wind Farm,-33.367778,138.728611,2026-02-14T17:04:02.673166
2026/02/15 03:05:00,HD1WF1,10.86,Hawkesdale Asset Pty Ltd as trustee for Hawkesdale Asset Trust,Hawkesdale Wind Farm,Wind,89.0,12.2,Hawkesdale Wind Farm,-38.147894,142.361381,2026-02-14T17:04:02.673166
2026/02/15 03:05:00,HDWF1,88.9,HWF1 Pty Ltd,Hornsdale Wind Farm,Wind,102.0,87.16,Hornsdale Wind Farm,-33.050556,138.543611,2026-02-14T17:04:02.673166
2026/02/15 03:05:00,HDWF2,99.5,HWF 2 Pty Ltd,Hornsdale Wind Farm 2,Wind,102.0,97.55,Hornsdale Wind Farm 2,-33.06,138.54,2026-02-14T17:04:02.673166
2026/02/15 03:05:00,HDWF3,99.2,HWF3 Pty Ltd,Hornsdale Wind Farm 3,Wind,109.0,91.01,Hornsdale Wind Farm 3,-33.06,138.54,2026-02-14T17:04:02.673166
2026/02/15 03:05:00,KABANWF1,1.51,Kaban Wind Farm Pty Ltd as trustee for Kaban Wind Farm Trust,Kaban Wind Farm,Wind,152.0,0.99,Kaban Wind Farm,-17.56,145.41,2026-02-14T17:04:02.673166
2026/02/15 03:05:00,KEPWF1,33.4,Kennedy Energy Park Pty Ltd,Kennedy Energy Park,Wind,43.0,77.67,Kennedy Energy Park,-20.88,144.42,2026-02-14T17:04:02.673166
2026/02/15 03:05:00,KIATAWF1,29.2,Kiata ProjectCo Pty Ltd Atf Kiata Project Trust,Kiata Wind Farm,Wind,31.0,94.19,Kiata Wind Farm,-36.4,141.75,2026-02-14T17:04:02.673166
2026/02/15 03:05:00,LGAPWF1,77.03,Lincoln Gap Wind Farm (Operations) Pty Ltd,Lincoln Gap Wind Farm,Wind,123.0,62.63,Lincoln Gap Wind Farm,-32.564279,137.557328,2026-02-14T17:04:02.673166
2026/02/15 03:05:00,LGAPWF1,77.03,Lincoln Gap Wind Farm (Operations) Pty Ltd,Lincoln Gap Wind Farm,Wind,123.0,62.63,Lincoln Gap Wind Farm,-32.564279,137.557328,2026-02-14T17:04:02.673166
2026/02/15 03:05:00,LGAPWF2,53.25,Lincoln Gap Wind Farm (Operations) Pty Ltd,Lincoln Gap Wind Farm,Wind,85.0,62.65,Lincoln Gap Wind Farm,-32.564279,137.557328,2026-02-14T17:04:02.673166
2026/02/15 03:05:00,LGAPWF2,53.25,Lincoln Gap Wind Farm (Operations) Pty Ltd,Lincoln Gap Wind Farm,Wind,85.0,62.65,Lincoln Gap Wind Farm,-32.564279,137.557328,2026-02-14T17:04:02.673166
2026/02/15 03:05:00,LKBONNY1,42.78,Lake Bonney Wind Power Pty Ltd,Lake Bonney Wind Farm Stage 1,Wind,81.0,52.81,Lake Bonney Wind Farm Stage 1,-37.76,140.4,2026-02-14T17:04:02.673166
2026/02/15 03:05:00,LKBONNY2,118.17,Lake Bonney Wind Power Pty Ltd,Lake Bonney Stage 2 Windfarm,Wind,159.0,74.32,Lake Bonney Stage 2 Windfarm,-37.76,140.4,2026-02-14T17:04:02.673166
2026/02/15 03:05:00,LKBONNY3,25.9,Lake Bonney Wind Power Pty Ltd,Lake Bonney Stage 3 Wind Farm,Wind,39.0,66.41,Lake Bonney Stage 3 Wind Farm,-37.737781,140.388137,2026-02-14T17:04:02.673166
2026/02/15 03:05:00,MACARTH1,21.0,AGL Hydro Partnership,Macarthur Wind Farm,Wind,420.0,5.0,Macarthur Wind Farm,-38.048957,142.192112,2026-02-14T17:04:02.673166
2026/02/15 03:05:00,MCINTYR1,362.43,MacIntyre UJV Operator Pty Ltd,MacIntyre Wind Farm,Wind,890.0,40.72,MacIntyre Wind Farm,-28.32,151.54,2026-02-14T17:04:02.673166
2026/02/15 03:05:00,MERCER01,8.3,Mt Mercer Windfarm Pty Ltd,Mt Mercer Wind Farm,Wind,131.0,6.34,Mt Mercer Wind Farm,-37.841111,143.871111,2026-02-14T17:04:02.673166
2026/02/15 03:05:00,MEWF1,0.0,Ergon Energy Queensland Pty Ltd ,Mount Emerald Wind Farm,Wind,178.0,0.0,Mount Emerald Wind Farm,-17.133007,145.380644,2026-02-14T17:04:02.673166
2026/02/15 03:05:00,MRTLSWF1,9.83,Mortlake South Wind Farm Pty Ltd,Mortlake South Wind Farm,Wind,153.0,6.42,Mortlake South Wind Farm,-38.127337,142.857801,2026-02-14T17:04:02.673166
2026/02/15 03:05:00,MTGELWF1,0.21,Mt. Gellibrand Wind Farm Pty Ltd,Mt Gellibrand Wind Farm,Wind,132.0,0.16,Mt Gellibrand Wind Farm,-38.23,143.77,2026-02-14T17:04:02.673166
2026/02/15 03:05:00,MTMILLAR,8.6,Mt Millar Wind Farm Pty Ltd,Mt Millar Wind Farm,Wind,70.0,12.29,Mt Millar Wind Farm,-33.624444,136.703611,2026-02-14T17:04:02.673166
2026/02/15 03:05:00,MUSSELR1,2.3,Hydro-Electric Corporation,Musselroe Wind Farm,Wind,168.0,1.37,Musselroe Wind Farm,-40.780225,148.010799,2026-02-14T17:04:02.673166
2026/02/15 03:05:00,MUWAWF1,170.58,Telstra Energy (Generation) Pty Ltd,Murra Warra Wind Farm,Wind,225.7,75.58,Murra Warra Wind Farm,-36.432404,142.317853,2026-02-14T17:04:02.673166
2026/02/15 03:05:00,MUWAWF2,127.9,Murra Warra II Project Co Pty Ltd ATF The Murra Warra II Project Trust,Murra Warra Wind Farm Stage 2,Wind,203.0,63.0,Murra Warra Wind Farm Stage 2,-36.43,142.32,2026-02-14T17:04:02.673166
2026/02/15 03:05:00,NBHWF1,93.2,AGL SA Generation Pty Limited,North Brown Hill Wind Farm,Wind,132.0,70.61,North Brown Hill Wind Farm,-33.367778,138.728611,2026-02-14T17:04:02.673166
2026/02/15 03:05:00,OAKLAND1,6.2,AGL Hydro Partnership,Oaklands Hill Wind Farm,Wind,63.0,9.84,Oaklands Hill Wind Farm,-37.683078,142.551678,2026-02-14T17:04:02.673166
2026/02/15 03:05:00,PAREPW1,161.55,Iberdrola Australia Energy Markets Pty Limited,Port Augusta Renewable Energy Park,Wind,201.0,80.37,Port Augusta Renewable Energy Park,-32.566944,137.856111,2026-02-14T17:04:02.673166
2026/02/15 03:05:00,RYANCWF1,9.51,Ryan Corner Development Pty Ltd,Ryan Corner Wind Farm,Wind,205.0,4.64,Ryan Corner Wind Farm,-38.271017,142.140647,2026-02-14T17:04:02.673166
2026/02/15 03:05:00,RYEPARK1,114.52,Rye Park Renewable Energy Pty Ltd as trustee for Rye Park Wind Farm Trust,Rye Park Renewable Energy,Wind,384.0,29.82,Rye Park Renewable Energy,-32.138333,148.972778,2026-02-14T17:04:02.673166
2026/02/15 03:05:00,SALTCRK1,2.2,Salt Creek Wind Farm Pty Ltd,Salt Creek Wind Farm,Wind,54.0,4.07,Salt Creek Wind Farm,-37.95,142.63,2026-02-14T17:04:02.673166
2026/02/15 03:05:00,SAPHWF1,230.83,The Trustee For The SWF1 Operations Trust,Sapphire Wind Farm,Wind,270.0,85.49,Sapphire Wind Farm,-29.7,151.41,2026-02-14T17:04:02.673166
2026/02/15 03:05:00,SNOWNTH1,56.1,Snowtown Wind Farm Stage 2 Pty Ltd,Snowtown Wind Farm Stage 2 North,Wind,144.0,38.96,Snowtown Wind Farm Stage 2 North,-33.83,138.118611,2026-02-14T17:04:02.673166
2026/02/15 03:05:00,SNOWSTH1,65.2,Snowtown Wind Farm Stage 2 Pty Ltd,Snowtown South Wind Farm,Wind,126.0,51.75,Snowtown South Wind Farm,-33.83,138.118611,2026-02-14T17:04:02.673166
2026/02/15 03:05:00,SNOWTWN1,70.7,Snowtown Wind Farm Pty Ltd,Snowtown Wind Farm Units 1 And 47,Wind,99.0,71.41,Snowtown Wind Farm Units 1 And 47,-33.83,138.118611,2026-02-14T17:04:02.673166
2026/02/15 03:05:00,STARHLWF,23.49,Starfish Hill Wind Farm Pty Ltd,Starfish Hill Wind Farm,Wind,35.0,67.11,Starfish Hill Wind Farm,-35.58,138.14,2026-02-14T17:04:02.673166
2026/02/15 03:05:00,STOCKYD1,79.79,Stockyard Hill Wind Farm Pty Ltd,Stockyard Hill Wind Farm,Wind,511.0,15.61,Stockyard Hill Wind Farm,-37.535833,143.251389,2026-02-14T17:04:02.673166
2026/02/15 03:05:00,STWF1,52.52,PARF Company 8 Pty Ltd as The Trustee for Silverton Project Trust,Silverton Wind Farm,Wind,198.0,26.53,Silverton Wind Farm,-37.683168,142.551678,2026-02-14T17:04:02.673166
2026/02/15 03:05:00,TARALGA1,8.74,Taralga Wind Farm Nominees No 2 Pty Ltd (ATF Taralga Wind Farm Operating Trust),Taralga Wind Farm,Wind,106.0,8.25,Taralga Wind Farm,-34.42352,149.826267,2026-02-14T17:04:02.673166
2026/02/15 03:05:00,WAMBOWF1,104.46,Stanwell Corporation Limited,Wambo Wind Farm 1,Wind,245.0,42.64,Wambo Wind Farm 1,-35.187301,149.524945,2026-02-14T17:04:02.673166
2026/02/15 03:05:00,WATERLWF,105.8,Waterloo Wind Farm Pty Ltd,Waterloo Wind Farm,Wind,130.0,81.38,Waterloo Wind Farm,-34.00094,138.911567,2026-02-14T17:04:02.673166
2026/02/15 03:05:00,WGWF1,48.9,Willogoleche Power Pty Ltd As The Trustee For The Willogoleche Operating Trust,Willogoleche Wind Farm,Wind,119.0,41.09,Willogoleche Wind Farm,-33.39,138.85,2026-02-14T17:04:02.673166
2026/02/15 03:05:00,WOODLWN1,3.0,Woodlawn Wind Pty Ltd,Woodlawn Wind Farm,Wind,48.0,6.25,Woodlawn Wind Farm,-35.08,149.62,2026-02-14T17:04:02.673166
2026/02/15 03:05:00,WPWF,36.87,AGL SA Generation Pty Limited,Wattle Point Wind Farm,Wind,91.0,40.52,Wattle Point Wind Farm,-35.111624,137.7219,2026-02-14T17:04:02.673166
2026/02/15 03:05:00,WRWF1,167.7,White Rock Wind Farm Pty Ltd,White Rock Wind Farm,Wind,172.0,97.5,White Rock Wind Farm,-29.79,151.54,2026-02-14T17:04:02.673166
2026/02/15 03:05:00,YENDWF1,3.88,Lal Lal Wind Farms Nom Co Pty Ltd,Yendon Wind Farm,Wind,142.0,2.73,Yendon Wind Farm,-37.629987,144.022717,2026-02-14T17:04:02.673166
