SETTLEMENTDATE,DUID,SCADAVALUE,Participant,Station Name,Fuel Source - Primary,MAX_CAP,utilisation_pct,Plant,Latitude,Longitude,timestamp_utc
2026/02/07 20:40:00,CAPTL_WF,32.05,Iberdrola Australia Holdings Pty Limited,Capital Wind Farm,Wind,140.0,22.89,Capital Wind Farm,-35.1,149.31,2026-02-07T10:38:20.261841
2026/02/07 20:40:00,CHALLHWF,8.6,Pacific Hydro Challicum Hills Pty Ltd,Challicum Hills Wind Farm,Wind,52.0,16.54,Challicum Hills Wind Farm,-37.38,143.11,2026-02-07T10:38:20.261841
2026/02/07 20:40:00,CULLRGWF,8.46,Cullerin Range Wind Farm Pty Ltd,Cullerin Range Wind Farm,Wind,30.0,28.2,Cullerin Range Wind Farm,-34.81,149.4,2026-02-07T10:38:20.261841
2026/02/07 20:40:00,DIAPURWF1,1.1,Y.E.S. Energy (SA) Pty Ltd,Diapur Wind Farm,Wind,7.0,15.71,Diapur Wind Farm,-36.3425,141.43,2026-02-07T10:38:20.261841
2026/02/07 20:40:00,MLWF1,3.6,Mortons Lane Windfarm Pty Limited,Mortons Lane Wind Farm,Wind,20.0,18.0,Mortons Lane Wind Farm,-37.84,142.45,2026-02-07T10:38:20.261841
2026/02/07 20:40:00,WAUBRAWF,8.43,Pyrenees Wind Energy Developments Pty Ltd,Waubra Wind Farm,Wind,192.0,4.39,Waubra Wind Farm,-37.394498,143.638982,2026-02-07T10:38:20.261841
2026/02/07 20:40:00,WOOLNTH1,19.37,Hydro-Electric Corporation,Woolnorth Studland Bay / Bluff Point Wind Farm,Wind,140.0,13.84,Woolnorth Studland Bay / Bluff Point Wind Farm,-40.69,144.72,2026-02-07T10:38:20.261841
2026/02/07 20:40:00,YAMBUKWF,5.5,Energy Pacific (Vic) Pty Ltd,Yambuk Wind Farm,Wind,30.0,18.33,Yambuk Wind Farm,-38.299083,142.027577,2026-02-07T10:38:20.261841
2026/02/07 20:40:00,YSWF1,1.0,Pacific Hydro Yaloak South Pty Ltd,Yaloak South Wind Farm,Wind,28.0,3.57,Yaloak South Wind Farm,-37.7163,144.242853,2026-02-07T10:38:20.261841
2026/02/07 20:40:00,ARWF1,6.5,Ararat Wind Farm Pty Ltd,Ararat Wind Farm,Wind,241.0,2.7,Ararat Wind Farm,-37.232778,143.031389,2026-02-07T10:38:20.261841
2026/02/07 20:40:00,BALDHWF1,79.61,Alinta Energy Retail Sales Pty Ltd,Bald Hills Wind Farm,Wind,106.0,75.1,Bald Hills Wind Farm,-38.79,145.93,2026-02-07T10:38:20.261841
2026/02/07 20:40:00,BANGOWF1,31.5,BWF Nominees Pty Ltd as The Trustee for BWF Trust,Bango 973 Wind Farm,Wind,155.0,20.32,Bango 973 Wind Farm,-34.551582,148.732808,2026-02-07T10:38:20.261841
2026/02/07 20:40:00,BANGOWF2,17.2,BWF Nominees Pty Ltd as The Trustee for BWF Trust,Bango 999 Wind Farm,Wind,82.0,20.98,Bango 999 Wind Farm,-34.551582,148.732808,2026-02-07T10:38:20.261841
2026/02/07 20:40:00,BLUFF1,9.9,AGL SA Generation Pty Limited,The Bluff Wind Farm,Wind,53.0,18.68,The Bluff Wind Farm,-33.367778,138.728611,2026-02-07T10:38:20.261841
2026/02/07 20:40:00,BOCORWF1,35.16,Boco Rock Wind Farm Pty Ltd,Boco Rock Wind Farm,Wind,111.0,31.68,Boco Rock Wind Farm,-36.578611,149.103333,2026-02-07T10:38:20.261841
2026/02/07 20:40:00,BRYB1WF1,111.4,Berrybank Development Pty Ltd,Berrybank Wind Farm,Wind,175.9,63.33,Berrybank Wind Farm,-37.94,143.52,2026-02-07T10:38:20.261841
2026/02/07 20:40:00,BRYB2WF2,68.66,Berrybank 2 Asset Pty Ltd as trustee for Berrybank 2 Asset Trust,Berrybank 2 Wind Farm,Wind,105.0,65.39,Berrybank 2 Wind Farm,-37.94,143.52,2026-02-07T10:38:20.261841
2026/02/07 20:40:00,BULGANA1,31.36,Bulgana Wind Farm Pty Ltd,Bulgana Green Power Hub,Wind,204.0,15.37,Bulgana Green Power Hub,-37.0975,142.973611,2026-02-07T10:38:20.261841
2026/02/07 20:40:00,CATHROCK,12.5,Cathedral Rocks Wind Farm Pty Ltd,Cathedral Rocks,Wind,66.0,18.94,Cathedral Rocks,-34.51,135.35,2026-02-07T10:38:20.261841
2026/02/07 20:40:00,CHYTWF1,10.53,Cherry Tree Wind Farm Pty Ltd as trustee for The Cherry Tree Project trust ,Cherry Tree Wind Farm,Wind,57.0,18.47,Cherry Tree Wind Farm,-37.1,145.26,2026-02-07T10:38:20.261841
2026/02/07 20:40:00,CLEMGPWF,1.51,Pacific Hydro Clements Gap Pty Ltd,Clements Gap Wind Farm,Wind,57.0,2.65,Clements Gap Wind Farm,-33.48,138.1,2026-02-07T10:38:20.261841
2026/02/07 20:40:00,CLRKCWF1,310.85,Stanwell Corporation Limited ,Clarke Creek Wind Farm,Wind,338.0,91.97,Clarke Creek Wind Farm,-22.85,149.45,2026-02-07T10:38:20.261841
2026/02/07 20:40:00,CLRKCWF2,97.15,Stanwell Corporation Limited ,Clarke Creek Wind Farm,Wind,101.0,96.19,Clarke Creek Wind Farm,-22.85,149.45,2026-02-07T10:38:20.261841
2026/02/07 20:40:00,CNUNDAWF,30.24,Canunda Power Pty Ltd,Canunda Wind Farm,Wind,46.0,65.74,Canunda Wind Farm,-37.73,140.39,2026-02-07T10:38:20.261841
2026/02/07 20:40:00,COLWF01,37.51,Collector Wind Farm Pty Ltd,Collector Wind Farm 1,Wind,219.0,17.13,Collector Wind Farm 1,-34.8719,149.3967,2026-02-07T10:38:20.261841
2026/02/07 20:40:00,COOPGWF1,377.15,PARF Company 10 Pty Limited as The Trustee for Coopers Gap Project Trust,Coopers Gap Wind Farm,Wind,440.0,85.72,Coopers Gap Wind Farm,-26.74,151.45,2026-02-07T10:38:20.261841
2026/02/07 20:40:00,CROOKWF2,1.03,Crookwell Development Pty Ltd ,Crookwell 2 Wind Farm,Wind,91.0,1.13,Crookwell 2 Wind Farm,-34.52,149.54,2026-02-07T10:38:20.261841
2026/02/07 20:40:00,CROOKWF3,0.0,Crookwell 3 Development Pty Ltd,Crookwell 3 Wind Farm,Wind,56.0,0.0,Crookwell 3 Wind Farm,-34.52,149.54,2026-02-07T10:38:20.261841
2026/02/07 20:40:00,CROWLWF1,22.22,Pacific Hydro Crowlands Pty Ltd ,Crowlands Wind Farm,Wind,79.0,28.13,Crowlands Wind Farm,-37.13,143.16,2026-02-07T10:38:20.261841
2026/02/07 20:40:00,CRURWF1,34.6,CRWF Nominees Pty Ltd As Trustee For The CRWF Trust,Crudine Ridge Wind Farm,Wind,138.0,25.07,Crudine Ridge Wind Farm,-32.97,149.64,2026-02-07T10:38:20.261841
2026/02/07 20:40:00,CTHLWF1,4.21,Wild Cattle Hill Pty Ltd,Cattle Hill Wind Farm,Wind,144.0,2.92,Cattle Hill Wind Farm,-42.15,146.69,2026-02-07T10:38:20.261841
2026/02/07 20:40:00,DULAWF1,129.2,Dulacca Energy Project Co Pty Ltd,Dulacca Wind Farm,Wind,173.0,74.68,Dulacca Wind Farm,-26.63,149.87,2026-02-07T10:38:20.261841
2026/02/07 20:40:00,DUNDWF1,47.55,Dundonnell Wind Farm Pty Ltd,Dundonnell Wind Farm,Wind,168.0,28.3,Dundonnell Wind Farm,-37.52,142.58,2026-02-07T10:38:20.261841
2026/02/07 20:40:00,DUNDWF2,11.34,Dundonnell Wind Farm Pty Ltd,Dundonnell Wind Farm,Wind,46.0,24.65,Dundonnell Wind Farm,-37.52,142.58,2026-02-07T10:38:20.261841
2026/02/07 20:40:00,DUNDWF3,41.32,Dundonnell Wind Farm Pty Ltd,Dundonnell Wind Farm,Wind,122.0,33.87,Dundonnell Wind Farm,-37.52,142.58,2026-02-07T10:38:20.261841
2026/02/07 20:40:00,ELAINWF1,17.23,Lal Lal Wind Farms Nom Co Pty Ltd,Elaine Wind Farm,Wind,82.0,21.01,Elaine Wind Farm,-37.36,144.0,2026-02-07T10:38:20.261841
2026/02/07 20:40:00,FLYCRKWF,70.05,Iberdrola Australia Energy Markets Pty Limited,Flyers Creek Wind Farm,Wind,140.0,50.04,Flyers Creek Wind Farm,-33.365556,148.981944,2026-02-07T10:38:20.261841
2026/02/07 20:40:00,GPWFEST1,140.02,Golden Plains WF1 Pty Ltd as Trustee for the Golden Plains WF1 Unit Trust,Golden Plains Wind Farm East,Wind,240.0,58.34,Golden Plains Wind Farm East,-37.945091,143.752614,2026-02-07T10:38:20.261841
2026/02/07 20:40:00,GPWFEST2,144.06,Golden Plains WF1 Pty Ltd as Trustee for the Golden Plains WF1 Unit Trust,Golden Plains Wind Farm East,Wind,253.0,56.94,Golden Plains Wind Farm East,-37.945091,143.752614,2026-02-07T10:38:20.261841
2026/02/07 20:40:00,GPWFEST3,136.18,Golden Plains WF1 Pty Ltd as Trustee for the Golden Plains WF1 Unit Trust,Golden Plains Wind Farm East,Wind,240.0,56.74,Golden Plains Wind Farm East,-37.945091,143.752614,2026-02-07T10:38:20.261841
2026/02/07 20:40:00,GRANWF1,13.86,Granville Harbour Operations Pty Ltd as The Trustee for Granville Harbour Operations Trust,Granville Harbour Wind Farm,Wind,111.0,12.49,Granville Harbour Wind Farm,-41.8,145.06,2026-02-07T10:38:20.261841
2026/02/07 20:40:00,GSWF1A,38.08,Goyder Wind Farm 1 Pty Ltd as the Trustee for Goyder Wind Farm 1 Trust,Goyder South Wind Farm 1A,Wind,201.0,18.95,Goyder South Wind Farm 1A,-33.679758,138.937597,2026-02-07T10:38:20.261841
2026/02/07 20:40:00,GSWF1B1,53.91,Goyder Wind Farm 1B Pty Ltd as the Trustee for the Goyder Wind Farm 1B Trust,Goyder South Wind Farm 1B,Wind,196.0,27.51,Goyder South Wind Farm 1B,-33.679758,138.937597,2026-02-07T10:38:20.261841
2026/02/07 20:40:00,GULLRWF1,22.95,New Gullen Range Wind Farm Pty Ltd,Gullen Range Wind Farm,Wind,161.0,14.25,Gullen Range Wind Farm,-34.34,149.27,2026-02-07T10:38:20.261841
2026/02/07 20:40:00,GULLRWF2,46.81,New Gullen Range Wind Farm Pty Ltd,Gullen Range Wind Farm,Wind,107.0,43.75,Gullen Range Wind Farm,-34.34,149.27,2026-02-07T10:38:20.261841
2026/02/07 20:40:00,GUNNING1,31.8,Gunning Wind Energy Developments Pty Ltd,Gunning Wind Farm,Wind,47.0,67.66,Gunning Wind Farm,-34.813333,149.4,2026-02-07T10:38:20.261841
2026/02/07 20:40:00,HALLWF1,35.33,AGL SA Generation Pty Limited,Hallett 1 Wind Farm,Wind,95.0,37.19,Hallett 1 Wind Farm,-33.367778,138.728611,2026-02-07T10:38:20.261841
2026/02/07 20:40:00,HALLWF2,12.13,AGL SA Generation Pty Limited,Hallett 2 Wind Farm,Wind,71.0,17.08,Hallett 2 Wind Farm,-33.367778,138.728611,2026-02-07T10:38:20.261841
2026/02/07 20:40:00,HD1WF1,10.37,Hawkesdale Asset Pty Ltd as trustee for Hawkesdale Asset Trust,Hawkesdale Wind Farm,Wind,89.0,11.65,Hawkesdale Wind Farm,-38.147894,142.361381,2026-02-07T10:38:20.261841
2026/02/07 20:40:00,HDWF1,34.1,HWF1 Pty Ltd,Hornsdale Wind Farm,Wind,102.0,33.43,Hornsdale Wind Farm,-33.050556,138.543611,2026-02-07T10:38:20.261841
2026/02/07 20:40:00,HDWF2,12.4,HWF 2 Pty Ltd,Hornsdale Wind Farm 2,Wind,102.0,12.16,Hornsdale Wind Farm 2,-33.06,138.54,2026-02-07T10:38:20.261841
2026/02/07 20:40:00,HDWF3,34.7,HWF3 Pty Ltd,Hornsdale Wind Farm 3,Wind,109.0,31.83,Hornsdale Wind Farm 3,-33.06,138.54,2026-02-07T10:38:20.261841
2026/02/07 20:40:00,KABANWF1,52.04,Kaban Wind Farm Pty Ltd as trustee for Kaban Wind Farm Trust,Kaban Wind Farm,Wind,152.0,34.24,Kaban Wind Farm,-17.56,145.41,2026-02-07T10:38:20.261841
2026/02/07 20:40:00,KEPWF1,40.0,Kennedy Energy Park Pty Ltd,Kennedy Energy Park,Wind,43.0,93.02,Kennedy Energy Park,-20.88,144.42,2026-02-07T10:38:20.261841
2026/02/07 20:40:00,KIATAWF1,2.0,Kiata ProjectCo Pty Ltd Atf Kiata Project Trust,Kiata Wind Farm,Wind,31.0,6.45,Kiata Wind Farm,-36.4,141.75,2026-02-07T10:38:20.261841
2026/02/07 20:40:00,LGAPWF1,33.95,Lincoln Gap Wind Farm (Operations) Pty Ltd,Lincoln Gap Wind Farm,Wind,123.0,27.6,Lincoln Gap Wind Farm,-32.564279,137.557328,2026-02-07T10:38:20.261841
2026/02/07 20:40:00,LGAPWF1,33.95,Lincoln Gap Wind Farm (Operations) Pty Ltd,Lincoln Gap Wind Farm,Wind,123.0,27.6,Lincoln Gap Wind Farm,-32.564279,137.557328,2026-02-07T10:38:20.261841
2026/02/07 20:40:00,LGAPWF2,25.69,Lincoln Gap Wind Farm (Operations) Pty Ltd,Lincoln Gap Wind Farm,Wind,85.0,30.22,Lincoln Gap Wind Farm,-32.564279,137.557328,2026-02-07T10:38:20.261841
2026/02/07 20:40:00,LGAPWF2,25.69,Lincoln Gap Wind Farm (Operations) Pty Ltd,Lincoln Gap Wind Farm,Wind,85.0,30.22,Lincoln Gap Wind Farm,-32.564279,137.557328,2026-02-07T10:38:20.261841
2026/02/07 20:40:00,LKBONNY1,26.52,Lake Bonney Wind Power Pty Ltd,Lake Bonney Wind Farm Stage 1,Wind,81.0,32.74,Lake Bonney Wind Farm Stage 1,-37.76,140.4,2026-02-07T10:38:20.261841
2026/02/07 20:40:00,LKBONNY2,87.59,Lake Bonney Wind Power Pty Ltd,Lake Bonney Stage 2 Windfarm,Wind,159.0,55.09,Lake Bonney Stage 2 Windfarm,-37.76,140.4,2026-02-07T10:38:20.261841
2026/02/07 20:40:00,LKBONNY3,15.8,Lake Bonney Wind Power Pty Ltd,Lake Bonney Stage 3 Wind Farm,Wind,39.0,40.51,Lake Bonney Stage 3 Wind Farm,-37.737781,140.388137,2026-02-07T10:38:20.261841
2026/02/07 20:40:00,MACARTH1,35.3,AGL Hydro Partnership,Macarthur Wind Farm,Wind,420.0,8.4,Macarthur Wind Farm,-38.048957,142.192112,2026-02-07T10:38:20.261841
2026/02/07 20:40:00,MCINTYR1,229.71,MacIntyre UJV Operator Pty Ltd,MacIntyre Wind Farm,Wind,890.0,25.81,MacIntyre Wind Farm,-28.32,151.54,2026-02-07T10:38:20.261841
2026/02/07 20:40:00,MERCER01,29.8,Mt Mercer Windfarm Pty Ltd,Mt Mercer Wind Farm,Wind,131.0,22.75,Mt Mercer Wind Farm,-37.841111,143.871111,2026-02-07T10:38:20.261841
2026/02/07 20:40:00,MEWF1,71.29,Ergon Energy Queensland Pty Ltd ,Mount Emerald Wind Farm,Wind,178.0,40.05,Mount Emerald Wind Farm,-17.133007,145.380644,2026-02-07T10:38:20.261841
2026/02/07 20:40:00,MRTLSWF1,37.5,Mortlake South Wind Farm Pty Ltd,Mortlake South Wind Farm,Wind,153.0,24.51,Mortlake South Wind Farm,-38.127337,142.857801,2026-02-07T10:38:20.261841
2026/02/07 20:40:00,MTGELWF1,80.94,Mt. Gellibrand Wind Farm Pty Ltd,Mt Gellibrand Wind Farm,Wind,132.0,61.32,Mt Gellibrand Wind Farm,-38.23,143.77,2026-02-07T10:38:20.261841
2026/02/07 20:40:00,MTMILLAR,0.0,Mt Millar Wind Farm Pty Ltd,Mt Millar Wind Farm,Wind,70.0,0.0,Mt Millar Wind Farm,-33.624444,136.703611,2026-02-07T10:38:20.261841
2026/02/07 20:40:00,MUSSELR1,29.7,Hydro-Electric Corporation,Musselroe Wind Farm,Wind,168.0,17.68,Musselroe Wind Farm,-40.780225,148.010799,2026-02-07T10:38:20.261841
2026/02/07 20:40:00,MUWAWF1,93.79,Telstra Energy (Generation) Pty Ltd,Murra Warra Wind Farm,Wind,225.7,41.56,Murra Warra Wind Farm,-36.432404,142.317853,2026-02-07T10:38:20.261841
2026/02/07 20:40:00,MUWAWF2,141.3,Murra Warra II Project Co Pty Ltd ATF The Murra Warra II Project Trust,Murra Warra Wind Farm Stage 2,Wind,203.0,69.61,Murra Warra Wind Farm Stage 2,-36.43,142.32,2026-02-07T10:38:20.261841
2026/02/07 20:40:00,NBHWF1,27.9,AGL SA Generation Pty Limited,North Brown Hill Wind Farm,Wind,132.0,21.14,North Brown Hill Wind Farm,-33.367778,138.728611,2026-02-07T10:38:20.261841
2026/02/07 20:40:00,OAKLAND1,20.2,AGL Hydro Partnership,Oaklands Hill Wind Farm,Wind,63.0,32.06,Oaklands Hill Wind Farm,-37.683078,142.551678,2026-02-07T10:38:20.261841
2026/02/07 20:40:00,PAREPW1,35.11,Iberdrola Australia Energy Markets Pty Limited,Port Augusta Renewable Energy Park,Wind,201.0,17.47,Port Augusta Renewable Energy Park,-32.566944,137.856111,2026-02-07T10:38:20.261841
2026/02/07 20:40:00,RYANCWF1,67.59,Ryan Corner Development Pty Ltd,Ryan Corner Wind Farm,Wind,205.0,32.97,Ryan Corner Wind Farm,-38.271017,142.140647,2026-02-07T10:38:20.261841
2026/02/07 20:40:00,RYEPARK1,25.28,Rye Park Renewable Energy Pty Ltd as trustee for Rye Park Wind Farm Trust,Rye Park Renewable Energy,Wind,384.0,6.58,Rye Park Renewable Energy,-32.138333,148.972778,2026-02-07T10:38:20.261841
2026/02/07 20:40:00,SALTCRK1,15.58,Salt Creek Wind Farm Pty Ltd,Salt Creek Wind Farm,Wind,54.0,28.85,Salt Creek Wind Farm,-37.95,142.63,2026-02-07T10:38:20.261841
2026/02/07 20:40:00,SAPHWF1,236.45,The Trustee For The SWF1 Operations Trust,Sapphire Wind Farm,Wind,270.0,87.57,Sapphire Wind Farm,-29.7,151.41,2026-02-07T10:38:20.261841
2026/02/07 20:40:00,SNOWNTH1,7.8,Snowtown Wind Farm Stage 2 Pty Ltd,Snowtown Wind Farm Stage 2 North,Wind,144.0,5.42,Snowtown Wind Farm Stage 2 North,-33.83,138.118611,2026-02-07T10:38:20.261841
2026/02/07 20:40:00,SNOWSTH1,5.1,Snowtown Wind Farm Stage 2 Pty Ltd,Snowtown South Wind Farm,Wind,126.0,4.05,Snowtown South Wind Farm,-33.83,138.118611,2026-02-07T10:38:20.261841
2026/02/07 20:40:00,SNOWTWN1,5.86,Snowtown Wind Farm Pty Ltd,Snowtown Wind Farm Units 1 And 47,Wind,99.0,5.92,Snowtown Wind Farm Units 1 And 47,-33.83,138.118611,2026-02-07T10:38:20.261841
2026/02/07 20:40:00,STARHLWF,9.1,Starfish Hill Wind Farm Pty Ltd,Starfish Hill Wind Farm,Wind,35.0,26.0,Starfish Hill Wind Farm,-35.58,138.14,2026-02-07T10:38:20.261841
2026/02/07 20:40:00,STOCKYD1,93.88,Stockyard Hill Wind Farm Pty Ltd,Stockyard Hill Wind Farm,Wind,511.0,18.37,Stockyard Hill Wind Farm,-37.535833,143.251389,2026-02-07T10:38:20.261841
2026/02/07 20:40:00,STWF1,49.35,PARF Company 8 Pty Ltd as The Trustee for Silverton Project Trust,Silverton Wind Farm,Wind,198.0,24.92,Silverton Wind Farm,-37.683168,142.551678,2026-02-07T10:38:20.261841
2026/02/07 20:40:00,TARALGA1,13.16,Taralga Wind Farm Nominees No 2 Pty Ltd (ATF Taralga Wind Farm Operating Trust),Taralga Wind Farm,Wind,106.0,12.42,Taralga Wind Farm,-34.42352,149.826267,2026-02-07T10:38:20.261841
2026/02/07 20:40:00,WAMBOWF1,118.68,Stanwell Corporation Limited,Wambo Wind Farm 1,Wind,245.0,48.44,Wambo Wind Farm 1,-35.187301,149.524945,2026-02-07T10:38:20.261841
2026/02/07 20:40:00,WATERLWF,4.0,Waterloo Wind Farm Pty Ltd,Waterloo Wind Farm,Wind,130.0,3.08,Waterloo Wind Farm,-34.00094,138.911567,2026-02-07T10:38:20.261841
2026/02/07 20:40:00,WGWF1,31.1,Willogoleche Power Pty Ltd As The Trustee For The Willogoleche Operating Trust,Willogoleche Wind Farm,Wind,119.0,26.13,Willogoleche Wind Farm,-33.39,138.85,2026-02-07T10:38:20.261841
2026/02/07 20:40:00,WOODLWN1,12.05,Woodlawn Wind Pty Ltd,Woodlawn Wind Farm,Wind,48.0,25.1,Woodlawn Wind Farm,-35.08,149.62,2026-02-07T10:38:20.261841
2026/02/07 20:40:00,WPWF,73.49,AGL SA Generation Pty Limited,Wattle Point Wind Farm,Wind,91.0,80.76,Wattle Point Wind Farm,-35.111624,137.7219,2026-02-07T10:38:20.261841
2026/02/07 20:40:00,WRWF1,136.81,White Rock Wind Farm Pty Ltd,White Rock Wind Farm,Wind,172.0,79.54,White Rock Wind Farm,-29.79,151.54,2026-02-07T10:38:20.261841
2026/02/07 20:40:00,YENDWF1,14.67,Lal Lal Wind Farms Nom Co Pty Ltd,Yendon Wind Farm,Wind,142.0,10.33,Yendon Wind Farm,-37.629987,144.022717,2026-02-07T10:38:20.261841
