SETTLEMENTDATE,DUID,SCADAVALUE,Participant,Station Name,Fuel Source - Primary,MAX_CAP,utilisation_pct,Plant,Latitude,Longitude,timestamp_utc
2026/02/01 21:40:00,CAPTL_WF,37.22,Iberdrola Australia Holdings Pty Limited,Capital Wind Farm,Wind,140.0,26.59,Capital Wind Farm,-35.1,149.31,2026-02-01T11:40:37.274890
2026/02/01 21:40:00,CHALLHWF,26.7,Pacific Hydro Challicum Hills Pty Ltd,Challicum Hills Wind Farm,Wind,52.0,51.35,Challicum Hills Wind Farm,-37.38,143.11,2026-02-01T11:40:37.274890
2026/02/01 21:40:00,CULLRGWF,10.7,Cullerin Range Wind Farm Pty Ltd,Cullerin Range Wind Farm,Wind,30.0,35.67,Cullerin Range Wind Farm,-34.81,149.4,2026-02-01T11:40:37.274890
2026/02/01 21:40:00,DIAPURWF1,6.8,Y.E.S. Energy (SA) Pty Ltd,Diapur Wind Farm,Wind,7.0,97.14,Diapur Wind Farm,-36.3425,141.43,2026-02-01T11:40:37.274890
2026/02/01 21:40:00,MLWF1,6.96,Mortons Lane Windfarm Pty Limited,Mortons Lane Wind Farm,Wind,20.0,34.8,Mortons Lane Wind Farm,-37.84,142.45,2026-02-01T11:40:37.274890
2026/02/01 21:40:00,WAUBRAWF,139.37,Pyrenees Wind Energy Developments Pty Ltd,Waubra Wind Farm,Wind,192.0,72.59,Waubra Wind Farm,-37.394498,143.638982,2026-02-01T11:40:37.274890
2026/02/01 21:40:00,WOOLNTH1,50.8,Hydro-Electric Corporation,Woolnorth Studland Bay / Bluff Point Wind Farm,Wind,140.0,36.29,Woolnorth Studland Bay / Bluff Point Wind Farm,-40.69,144.72,2026-02-01T11:40:37.274890
2026/02/01 21:40:00,YAMBUKWF,29.7,Energy Pacific (Vic) Pty Ltd,Yambuk Wind Farm,Wind,30.0,99.0,Yambuk Wind Farm,-38.299083,142.027577,2026-02-01T11:40:37.274890
2026/02/01 21:40:00,YSWF1,12.9,Pacific Hydro Yaloak South Pty Ltd,Yaloak South Wind Farm,Wind,28.0,46.07,Yaloak South Wind Farm,-37.7163,144.242853,2026-02-01T11:40:37.274890
2026/02/01 21:40:00,ARWF1,134.1,Ararat Wind Farm Pty Ltd,Ararat Wind Farm,Wind,241.0,55.64,Ararat Wind Farm,-37.232778,143.031389,2026-02-01T11:40:37.274890
2026/02/01 21:40:00,BALDHWF1,83.66,Alinta Energy Retail Sales Pty Ltd,Bald Hills Wind Farm,Wind,106.0,78.92,Bald Hills Wind Farm,-38.79,145.93,2026-02-01T11:40:37.274890
2026/02/01 21:40:00,BANGOWF1,134.3,BWF Nominees Pty Ltd as The Trustee for BWF Trust,Bango 973 Wind Farm,Wind,155.0,86.65,Bango 973 Wind Farm,-34.551582,148.732808,2026-02-01T11:40:37.274890
2026/02/01 21:40:00,BANGOWF2,64.0,BWF Nominees Pty Ltd as The Trustee for BWF Trust,Bango 999 Wind Farm,Wind,82.0,78.05,Bango 999 Wind Farm,-34.551582,148.732808,2026-02-01T11:40:37.274890
2026/02/01 21:40:00,BLUFF1,44.3,AGL SA Generation Pty Limited,The Bluff Wind Farm,Wind,53.0,83.58,The Bluff Wind Farm,-33.367778,138.728611,2026-02-01T11:40:37.274890
2026/02/01 21:40:00,BOCORWF1,102.81,Boco Rock Wind Farm Pty Ltd,Boco Rock Wind Farm,Wind,111.0,92.62,Boco Rock Wind Farm,-36.578611,149.103333,2026-02-01T11:40:37.274890
2026/02/01 21:40:00,BRYB1WF1,49.21,Berrybank Development Pty Ltd,Berrybank Wind Farm,Wind,175.9,27.98,Berrybank Wind Farm,-37.94,143.52,2026-02-01T11:40:37.274890
2026/02/01 21:40:00,BRYB2WF2,38.96,Berrybank 2 Asset Pty Ltd as trustee for Berrybank 2 Asset Trust,Berrybank 2 Wind Farm,Wind,105.0,37.1,Berrybank 2 Wind Farm,-37.94,143.52,2026-02-01T11:40:37.274890
2026/02/01 21:40:00,BULGANA1,0.0,Bulgana Wind Farm Pty Ltd,Bulgana Green Power Hub,Wind,204.0,0.0,Bulgana Green Power Hub,-37.0975,142.973611,2026-02-01T11:40:37.274890
2026/02/01 21:40:00,CATHROCK,20.1,Cathedral Rocks Wind Farm Pty Ltd,Cathedral Rocks,Wind,66.0,30.45,Cathedral Rocks,-34.51,135.35,2026-02-01T11:40:37.274890
2026/02/01 21:40:00,CHYTWF1,54.91,Cherry Tree Wind Farm Pty Ltd as trustee for The Cherry Tree Project trust ,Cherry Tree Wind Farm,Wind,57.0,96.33,Cherry Tree Wind Farm,-37.1,145.26,2026-02-01T11:40:37.274890
2026/02/01 21:40:00,CLEMGPWF,48.05,Pacific Hydro Clements Gap Pty Ltd,Clements Gap Wind Farm,Wind,57.0,84.3,Clements Gap Wind Farm,-33.48,138.1,2026-02-01T11:40:37.274890
2026/02/01 21:40:00,CLRKCWF1,276.71,Stanwell Corporation Limited ,Clarke Creek Wind Farm,Wind,338.0,81.87,Clarke Creek Wind Farm,-22.85,149.45,2026-02-01T11:40:37.274890
2026/02/01 21:40:00,CLRKCWF2,76.26,Stanwell Corporation Limited ,Clarke Creek Wind Farm,Wind,101.0,75.5,Clarke Creek Wind Farm,-22.85,149.45,2026-02-01T11:40:37.274890
2026/02/01 21:40:00,CNUNDAWF,9.11,Canunda Power Pty Ltd,Canunda Wind Farm,Wind,46.0,19.8,Canunda Wind Farm,-37.73,140.39,2026-02-01T11:40:37.274890
2026/02/01 21:40:00,COLWF01,40.94,Collector Wind Farm Pty Ltd,Collector Wind Farm 1,Wind,219.0,18.69,Collector Wind Farm 1,-34.8719,149.3967,2026-02-01T11:40:37.274890
2026/02/01 21:40:00,COOPGWF1,130.57,PARF Company 10 Pty Limited as The Trustee for Coopers Gap Project Trust,Coopers Gap Wind Farm,Wind,440.0,29.67,Coopers Gap Wind Farm,-26.74,151.45,2026-02-01T11:40:37.274890
2026/02/01 21:40:00,CROOKWF2,18.2,Crookwell Development Pty Ltd ,Crookwell 2 Wind Farm,Wind,91.0,20.0,Crookwell 2 Wind Farm,-34.52,149.54,2026-02-01T11:40:37.274890
2026/02/01 21:40:00,CROOKWF3,13.72,Crookwell 3 Development Pty Ltd,Crookwell 3 Wind Farm,Wind,56.0,24.5,Crookwell 3 Wind Farm,-34.52,149.54,2026-02-01T11:40:37.274890
2026/02/01 21:40:00,CROWLWF1,65.69,Pacific Hydro Crowlands Pty Ltd ,Crowlands Wind Farm,Wind,79.0,83.15,Crowlands Wind Farm,-37.13,143.16,2026-02-01T11:40:37.274890
2026/02/01 21:40:00,CRURWF1,3.0,CRWF Nominees Pty Ltd As Trustee For The CRWF Trust,Crudine Ridge Wind Farm,Wind,138.0,2.17,Crudine Ridge Wind Farm,-32.97,149.64,2026-02-01T11:40:37.274890
2026/02/01 21:40:00,CTHLWF1,70.39,Wild Cattle Hill Pty Ltd,Cattle Hill Wind Farm,Wind,144.0,48.88,Cattle Hill Wind Farm,-42.15,146.69,2026-02-01T11:40:37.274890
2026/02/01 21:40:00,DULAWF1,89.8,Dulacca Energy Project Co Pty Ltd,Dulacca Wind Farm,Wind,173.0,51.91,Dulacca Wind Farm,-26.63,149.87,2026-02-01T11:40:37.274890
2026/02/01 21:40:00,DUNDWF1,84.42,Dundonnell Wind Farm Pty Ltd,Dundonnell Wind Farm,Wind,168.0,50.25,Dundonnell Wind Farm,-37.52,142.58,2026-02-01T11:40:37.274890
2026/02/01 21:40:00,DUNDWF2,31.19,Dundonnell Wind Farm Pty Ltd,Dundonnell Wind Farm,Wind,46.0,67.8,Dundonnell Wind Farm,-37.52,142.58,2026-02-01T11:40:37.274890
2026/02/01 21:40:00,DUNDWF3,67.12,Dundonnell Wind Farm Pty Ltd,Dundonnell Wind Farm,Wind,122.0,55.02,Dundonnell Wind Farm,-37.52,142.58,2026-02-01T11:40:37.274890
2026/02/01 21:40:00,ELAINWF1,30.74,Lal Lal Wind Farms Nom Co Pty Ltd,Elaine Wind Farm,Wind,82.0,37.49,Elaine Wind Farm,-37.36,144.0,2026-02-01T11:40:37.274890
2026/02/01 21:40:00,FLYCRKWF,18.45,Iberdrola Australia Energy Markets Pty Limited,Flyers Creek Wind Farm,Wind,140.0,13.18,Flyers Creek Wind Farm,-33.365556,148.981944,2026-02-01T11:40:37.274890
2026/02/01 21:40:00,GPWFEST1,113.09,Golden Plains WF1 Pty Ltd as Trustee for the Golden Plains WF1 Unit Trust,Golden Plains Wind Farm East,Wind,240.0,47.12,Golden Plains Wind Farm East,-37.945091,143.752614,2026-02-01T11:40:37.274890
2026/02/01 21:40:00,GPWFEST2,90.19,Golden Plains WF1 Pty Ltd as Trustee for the Golden Plains WF1 Unit Trust,Golden Plains Wind Farm East,Wind,253.0,35.65,Golden Plains Wind Farm East,-37.945091,143.752614,2026-02-01T11:40:37.274890
2026/02/01 21:40:00,GPWFEST3,68.97,Golden Plains WF1 Pty Ltd as Trustee for the Golden Plains WF1 Unit Trust,Golden Plains Wind Farm East,Wind,240.0,28.74,Golden Plains Wind Farm East,-37.945091,143.752614,2026-02-01T11:40:37.274890
2026/02/01 21:40:00,GRANWF1,89.5,Granville Harbour Operations Pty Ltd as The Trustee for Granville Harbour Operations Trust,Granville Harbour Wind Farm,Wind,111.0,80.63,Granville Harbour Wind Farm,-41.8,145.06,2026-02-01T11:40:37.274890
2026/02/01 21:40:00,GSWF1A,128.94,Goyder Wind Farm 1 Pty Ltd as the Trustee for Goyder Wind Farm 1 Trust,Goyder South Wind Farm 1A,Wind,201.0,64.15,Goyder South Wind Farm 1A,-33.679758,138.937597,2026-02-01T11:40:37.274890
2026/02/01 21:40:00,GSWF1B1,128.81,Goyder Wind Farm 1B Pty Ltd as the Trustee for the Goyder Wind Farm 1B Trust,Goyder South Wind Farm 1B,Wind,196.0,65.72,Goyder South Wind Farm 1B,-33.679758,138.937597,2026-02-01T11:40:37.274890
2026/02/01 21:40:00,GULLRWF1,14.67,New Gullen Range Wind Farm Pty Ltd,Gullen Range Wind Farm,Wind,161.0,9.11,Gullen Range Wind Farm,-34.34,149.27,2026-02-01T11:40:37.274890
2026/02/01 21:40:00,GULLRWF2,0.0,New Gullen Range Wind Farm Pty Ltd,Gullen Range Wind Farm,Wind,107.0,0.0,Gullen Range Wind Farm,-34.34,149.27,2026-02-01T11:40:37.274890
2026/02/01 21:40:00,GUNNING1,10.41,Gunning Wind Energy Developments Pty Ltd,Gunning Wind Farm,Wind,47.0,22.15,Gunning Wind Farm,-34.813333,149.4,2026-02-01T11:40:37.274890
2026/02/01 21:40:00,HALLWF1,75.94,AGL SA Generation Pty Limited,Hallett 1 Wind Farm,Wind,95.0,79.94,Hallett 1 Wind Farm,-33.367778,138.728611,2026-02-01T11:40:37.274890
2026/02/01 21:40:00,HALLWF2,59.74,AGL SA Generation Pty Limited,Hallett 2 Wind Farm,Wind,71.0,84.14,Hallett 2 Wind Farm,-33.367778,138.728611,2026-02-01T11:40:37.274890
2026/02/01 21:40:00,HD1WF1,78.5,Hawkesdale Asset Pty Ltd as trustee for Hawkesdale Asset Trust,Hawkesdale Wind Farm,Wind,89.0,88.2,Hawkesdale Wind Farm,-38.147894,142.361381,2026-02-01T11:40:37.274890
2026/02/01 21:40:00,HDWF1,78.6,HWF1 Pty Ltd,Hornsdale Wind Farm,Wind,102.0,77.06,Hornsdale Wind Farm,-33.050556,138.543611,2026-02-01T11:40:37.274890
2026/02/01 21:40:00,HDWF2,86.9,HWF 2 Pty Ltd,Hornsdale Wind Farm 2,Wind,102.0,85.2,Hornsdale Wind Farm 2,-33.06,138.54,2026-02-01T11:40:37.274890
2026/02/01 21:40:00,HDWF3,92.7,HWF3 Pty Ltd,Hornsdale Wind Farm 3,Wind,109.0,85.05,Hornsdale Wind Farm 3,-33.06,138.54,2026-02-01T11:40:37.274890
2026/02/01 21:40:00,KABANWF1,0.0,Kaban Wind Farm Pty Ltd as trustee for Kaban Wind Farm Trust,Kaban Wind Farm,Wind,152.0,0.0,Kaban Wind Farm,-17.56,145.41,2026-02-01T11:40:37.274890
2026/02/01 21:40:00,KEPWF1,0.0,Kennedy Energy Park Pty Ltd,Kennedy Energy Park,Wind,43.0,0.0,Kennedy Energy Park,-20.88,144.42,2026-02-01T11:40:37.274890
2026/02/01 21:40:00,KIATAWF1,27.5,Kiata ProjectCo Pty Ltd Atf Kiata Project Trust,Kiata Wind Farm,Wind,31.0,88.71,Kiata Wind Farm,-36.4,141.75,2026-02-01T11:40:37.274890
2026/02/01 21:40:00,LGAPWF1,54.92,Lincoln Gap Wind Farm (Operations) Pty Ltd,Lincoln Gap Wind Farm,Wind,123.0,44.65,Lincoln Gap Wind Farm,-32.564279,137.557328,2026-02-01T11:40:37.274890
2026/02/01 21:40:00,LGAPWF1,54.92,Lincoln Gap Wind Farm (Operations) Pty Ltd,Lincoln Gap Wind Farm,Wind,123.0,44.65,Lincoln Gap Wind Farm,-32.564279,137.557328,2026-02-01T11:40:37.274890
2026/02/01 21:40:00,LGAPWF2,78.12,Lincoln Gap Wind Farm (Operations) Pty Ltd,Lincoln Gap Wind Farm,Wind,85.0,91.91,Lincoln Gap Wind Farm,-32.564279,137.557328,2026-02-01T11:40:37.274890
2026/02/01 21:40:00,LGAPWF2,78.12,Lincoln Gap Wind Farm (Operations) Pty Ltd,Lincoln Gap Wind Farm,Wind,85.0,91.91,Lincoln Gap Wind Farm,-32.564279,137.557328,2026-02-01T11:40:37.274890
2026/02/01 21:40:00,LKBONNY1,10.99,Lake Bonney Wind Power Pty Ltd,Lake Bonney Wind Farm Stage 1,Wind,81.0,13.57,Lake Bonney Wind Farm Stage 1,-37.76,140.4,2026-02-01T11:40:37.274890
2026/02/01 21:40:00,LKBONNY2,28.8,Lake Bonney Wind Power Pty Ltd,Lake Bonney Stage 2 Windfarm,Wind,159.0,18.11,Lake Bonney Stage 2 Windfarm,-37.76,140.4,2026-02-01T11:40:37.274890
2026/02/01 21:40:00,LKBONNY3,10.38,Lake Bonney Wind Power Pty Ltd,Lake Bonney Stage 3 Wind Farm,Wind,39.0,26.62,Lake Bonney Stage 3 Wind Farm,-37.737781,140.388137,2026-02-01T11:40:37.274890
2026/02/01 21:40:00,MACARTH1,108.2,AGL Hydro Partnership,Macarthur Wind Farm,Wind,420.0,25.76,Macarthur Wind Farm,-38.048957,142.192112,2026-02-01T11:40:37.274890
2026/02/01 21:40:00,MCINTYR1,111.58,MacIntyre UJV Operator Pty Ltd,MacIntyre Wind Farm,Wind,890.0,12.54,MacIntyre Wind Farm,-28.32,151.54,2026-02-01T11:40:37.274890
2026/02/01 21:40:00,MERCER01,51.9,Mt Mercer Windfarm Pty Ltd,Mt Mercer Wind Farm,Wind,131.0,39.62,Mt Mercer Wind Farm,-37.841111,143.871111,2026-02-01T11:40:37.274890
2026/02/01 21:40:00,MEWF1,0.0,Ergon Energy Queensland Pty Ltd ,Mount Emerald Wind Farm,Wind,178.0,0.0,Mount Emerald Wind Farm,-17.133007,145.380644,2026-02-01T11:40:37.274890
2026/02/01 21:40:00,MRTLSWF1,80.1,Mortlake South Wind Farm Pty Ltd,Mortlake South Wind Farm,Wind,153.0,52.35,Mortlake South Wind Farm,-38.127337,142.857801,2026-02-01T11:40:37.274890
2026/02/01 21:40:00,MTGELWF1,28.34,Mt. Gellibrand Wind Farm Pty Ltd,Mt Gellibrand Wind Farm,Wind,132.0,21.47,Mt Gellibrand Wind Farm,-38.23,143.77,2026-02-01T11:40:37.274890
2026/02/01 21:40:00,MTMILLAR,59.5,Mt Millar Wind Farm Pty Ltd,Mt Millar Wind Farm,Wind,70.0,85.0,Mt Millar Wind Farm,-33.624444,136.703611,2026-02-01T11:40:37.274890
2026/02/01 21:40:00,MUSSELR1,31.5,Hydro-Electric Corporation,Musselroe Wind Farm,Wind,168.0,18.75,Musselroe Wind Farm,-40.780225,148.010799,2026-02-01T11:40:37.274890
2026/02/01 21:40:00,MUWAWF1,52.29,Telstra Energy (Generation) Pty Ltd,Murra Warra Wind Farm,Wind,225.7,23.17,Murra Warra Wind Farm,-36.432404,142.317853,2026-02-01T11:40:37.274890
2026/02/01 21:40:00,MUWAWF2,47.5,Murra Warra II Project Co Pty Ltd ATF The Murra Warra II Project Trust,Murra Warra Wind Farm Stage 2,Wind,203.0,23.4,Murra Warra Wind Farm Stage 2,-36.43,142.32,2026-02-01T11:40:37.274890
2026/02/01 21:40:00,NBHWF1,108.2,AGL SA Generation Pty Limited,North Brown Hill Wind Farm,Wind,132.0,81.97,North Brown Hill Wind Farm,-33.367778,138.728611,2026-02-01T11:40:37.274890
2026/02/01 21:40:00,OAKLAND1,31.2,AGL Hydro Partnership,Oaklands Hill Wind Farm,Wind,63.0,49.52,Oaklands Hill Wind Farm,-37.683078,142.551678,2026-02-01T11:40:37.274890
2026/02/01 21:40:00,PAREPW1,149.26,Iberdrola Australia Energy Markets Pty Limited,Port Augusta Renewable Energy Park,Wind,201.0,74.26,Port Augusta Renewable Energy Park,-32.566944,137.856111,2026-02-01T11:40:37.274890
2026/02/01 21:40:00,RYANCWF1,169.04,Ryan Corner Development Pty Ltd,Ryan Corner Wind Farm,Wind,205.0,82.46,Ryan Corner Wind Farm,-38.271017,142.140647,2026-02-01T11:40:37.274890
2026/02/01 21:40:00,RYEPARK1,274.63,Rye Park Renewable Energy Pty Ltd as trustee for Rye Park Wind Farm Trust,Rye Park Renewable Energy,Wind,384.0,71.52,Rye Park Renewable Energy,-32.138333,148.972778,2026-02-01T11:40:37.274890
2026/02/01 21:40:00,SALTCRK1,19.95,Salt Creek Wind Farm Pty Ltd,Salt Creek Wind Farm,Wind,54.0,36.94,Salt Creek Wind Farm,-37.95,142.63,2026-02-01T11:40:37.274890
2026/02/01 21:40:00,SAPHWF1,24.5,The Trustee For The SWF1 Operations Trust,Sapphire Wind Farm,Wind,270.0,9.07,Sapphire Wind Farm,-29.7,151.41,2026-02-01T11:40:37.274890
2026/02/01 21:40:00,SNOWNTH1,140.9,Snowtown Wind Farm Stage 2 Pty Ltd,Snowtown Wind Farm Stage 2 North,Wind,144.0,97.85,Snowtown Wind Farm Stage 2 North,-33.83,138.118611,2026-02-01T11:40:37.274890
2026/02/01 21:40:00,SNOWSTH1,124.1,Snowtown Wind Farm Stage 2 Pty Ltd,Snowtown South Wind Farm,Wind,126.0,98.49,Snowtown South Wind Farm,-33.83,138.118611,2026-02-01T11:40:37.274890
2026/02/01 21:40:00,SNOWTWN1,90.22,Snowtown Wind Farm Pty Ltd,Snowtown Wind Farm Units 1 And 47,Wind,99.0,91.13,Snowtown Wind Farm Units 1 And 47,-33.83,138.118611,2026-02-01T11:40:37.274890
2026/02/01 21:40:00,STARHLWF,18.59,Starfish Hill Wind Farm Pty Ltd,Starfish Hill Wind Farm,Wind,35.0,53.11,Starfish Hill Wind Farm,-35.58,138.14,2026-02-01T11:40:37.274890
2026/02/01 21:40:00,STOCKYD1,465.88,Stockyard Hill Wind Farm Pty Ltd,Stockyard Hill Wind Farm,Wind,511.0,91.17,Stockyard Hill Wind Farm,-37.535833,143.251389,2026-02-01T11:40:37.274890
2026/02/01 21:40:00,STWF1,0.0,PARF Company 8 Pty Ltd as The Trustee for Silverton Project Trust,Silverton Wind Farm,Wind,198.0,0.0,Silverton Wind Farm,-37.683168,142.551678,2026-02-01T11:40:37.274890
2026/02/01 21:40:00,TARALGA1,6.27,Taralga Wind Farm Nominees No 2 Pty Ltd (ATF Taralga Wind Farm Operating Trust),Taralga Wind Farm,Wind,106.0,5.92,Taralga Wind Farm,-34.42352,149.826267,2026-02-01T11:40:37.274890
2026/02/01 21:40:00,WAMBOWF1,73.03,Stanwell Corporation Limited,Wambo Wind Farm 1,Wind,245.0,29.81,Wambo Wind Farm 1,-35.187301,149.524945,2026-02-01T11:40:37.274890
2026/02/01 21:40:00,WATERLWF,84.0,Waterloo Wind Farm Pty Ltd,Waterloo Wind Farm,Wind,130.0,64.62,Waterloo Wind Farm,-34.00094,138.911567,2026-02-01T11:40:37.274890
2026/02/01 21:40:00,WGWF1,110.2,Willogoleche Power Pty Ltd As The Trustee For The Willogoleche Operating Trust,Willogoleche Wind Farm,Wind,119.0,92.61,Willogoleche Wind Farm,-33.39,138.85,2026-02-01T11:40:37.274890
2026/02/01 21:40:00,WOODLWN1,23.87,Woodlawn Wind Pty Ltd,Woodlawn Wind Farm,Wind,48.0,49.73,Woodlawn Wind Farm,-35.08,149.62,2026-02-01T11:40:37.274890
2026/02/01 21:40:00,WPWF,71.34,AGL SA Generation Pty Limited,Wattle Point Wind Farm,Wind,91.0,78.4,Wattle Point Wind Farm,-35.111624,137.7219,2026-02-01T11:40:37.274890
2026/02/01 21:40:00,WRWF1,7.17,White Rock Wind Farm Pty Ltd,White Rock Wind Farm,Wind,172.0,4.17,White Rock Wind Farm,-29.79,151.54,2026-02-01T11:40:37.274890
2026/02/01 21:40:00,YENDWF1,47.1,Lal Lal Wind Farms Nom Co Pty Ltd,Yendon Wind Farm,Wind,142.0,33.17,Yendon Wind Farm,-37.629987,144.022717,2026-02-01T11:40:37.274890
