SETTLEMENTDATE,DUID,SCADAVALUE,Participant,Station Name,Fuel Source - Primary,MAX_CAP,utilisation_pct,Plant,Latitude,Longitude,timestamp_utc
2026/02/22 19:30:00,CAPTL_WF,32.31,Iberdrola Australia Holdings Pty Limited,Capital Wind Farm,Wind,140.0,23.08,Capital Wind Farm,-35.1,149.31,2026-02-22T09:27:40.154277
2026/02/22 19:30:00,CHALLHWF,23.0,Pacific Hydro Challicum Hills Pty Ltd,Challicum Hills Wind Farm,Wind,52.0,44.23,Challicum Hills Wind Farm,-37.38,143.11,2026-02-22T09:27:40.154277
2026/02/22 19:30:00,CULLRGWF,2.43,Cullerin Range Wind Farm Pty Ltd,Cullerin Range Wind Farm,Wind,30.0,8.1,Cullerin Range Wind Farm,-34.81,149.4,2026-02-22T09:27:40.154277
2026/02/22 19:30:00,DIAPURWF1,7.9,Y.E.S. Energy (SA) Pty Ltd,Diapur Wind Farm,Wind,7.0,112.86,Diapur Wind Farm,-36.3425,141.43,2026-02-22T09:27:40.154277
2026/02/22 19:30:00,MLWF1,1.12,Mortons Lane Windfarm Pty Limited,Mortons Lane Wind Farm,Wind,20.0,5.6,Mortons Lane Wind Farm,-37.84,142.45,2026-02-22T09:27:40.154277
2026/02/22 19:30:00,WAUBRAWF,155.76,Pyrenees Wind Energy Developments Pty Ltd,Waubra Wind Farm,Wind,192.0,81.12,Waubra Wind Farm,-37.394498,143.638982,2026-02-22T09:27:40.154277
2026/02/22 19:30:00,WOOLNTH1,68.75,Hydro-Electric Corporation,Woolnorth Studland Bay / Bluff Point Wind Farm,Wind,140.0,49.11,Woolnorth Studland Bay / Bluff Point Wind Farm,-40.69,144.72,2026-02-22T09:27:40.154277
2026/02/22 19:30:00,YAMBUKWF,12.0,Energy Pacific (Vic) Pty Ltd,Yambuk Wind Farm,Wind,30.0,40.0,Yambuk Wind Farm,-38.299083,142.027577,2026-02-22T09:27:40.154277
2026/02/22 19:30:00,YSWF1,25.1,Pacific Hydro Yaloak South Pty Ltd,Yaloak South Wind Farm,Wind,28.0,89.64,Yaloak South Wind Farm,-37.7163,144.242853,2026-02-22T09:27:40.154277
2026/02/22 19:30:00,ARWF1,186.1,Ararat Wind Farm Pty Ltd,Ararat Wind Farm,Wind,241.0,77.22,Ararat Wind Farm,-37.232778,143.031389,2026-02-22T09:27:40.154277
2026/02/22 19:30:00,BALDHWF1,100.01,Alinta Energy Retail Sales Pty Ltd,Bald Hills Wind Farm,Wind,106.0,94.35,Bald Hills Wind Farm,-38.79,145.93,2026-02-22T09:27:40.154277
2026/02/22 19:30:00,BANGOWF1,24.1,BWF Nominees Pty Ltd as The Trustee for BWF Trust,Bango 973 Wind Farm,Wind,155.0,15.55,Bango 973 Wind Farm,-34.551582,148.732808,2026-02-22T09:27:40.154277
2026/02/22 19:30:00,BANGOWF2,20.7,BWF Nominees Pty Ltd as The Trustee for BWF Trust,Bango 999 Wind Farm,Wind,82.0,25.24,Bango 999 Wind Farm,-34.551582,148.732808,2026-02-22T09:27:40.154277
2026/02/22 19:30:00,BLUFF1,17.1,AGL SA Generation Pty Limited,The Bluff Wind Farm,Wind,53.0,32.26,The Bluff Wind Farm,-33.367778,138.728611,2026-02-22T09:27:40.154277
2026/02/22 19:30:00,BOCORWF1,91.18,Boco Rock Wind Farm Pty Ltd,Boco Rock Wind Farm,Wind,111.0,82.14,Boco Rock Wind Farm,-36.578611,149.103333,2026-02-22T09:27:40.154277
2026/02/22 19:30:00,BRYB1WF1,60.05,Berrybank Development Pty Ltd,Berrybank Wind Farm,Wind,175.9,34.14,Berrybank Wind Farm,-37.94,143.52,2026-02-22T09:27:40.154277
2026/02/22 19:30:00,BRYB2WF2,38.59,Berrybank 2 Asset Pty Ltd as trustee for Berrybank 2 Asset Trust,Berrybank 2 Wind Farm,Wind,105.0,36.75,Berrybank 2 Wind Farm,-37.94,143.52,2026-02-22T09:27:40.154277
2026/02/22 19:30:00,BULGANA1,133.31,Bulgana Wind Farm Pty Ltd,Bulgana Green Power Hub,Wind,204.0,65.35,Bulgana Green Power Hub,-37.0975,142.973611,2026-02-22T09:27:40.154277
2026/02/22 19:30:00,CATHROCK,19.7,Cathedral Rocks Wind Farm Pty Ltd,Cathedral Rocks,Wind,66.0,29.85,Cathedral Rocks,-34.51,135.35,2026-02-22T09:27:40.154277
2026/02/22 19:30:00,CHYTWF1,34.84,Cherry Tree Wind Farm Pty Ltd as trustee for The Cherry Tree Project trust ,Cherry Tree Wind Farm,Wind,57.0,61.12,Cherry Tree Wind Farm,-37.1,145.26,2026-02-22T09:27:40.154277
2026/02/22 19:30:00,CLEMGPWF,45.96,Pacific Hydro Clements Gap Pty Ltd,Clements Gap Wind Farm,Wind,57.0,80.63,Clements Gap Wind Farm,-33.48,138.1,2026-02-22T09:27:40.154277
2026/02/22 19:30:00,CLRKCWF1,281.07,Stanwell Corporation Limited ,Clarke Creek Wind Farm,Wind,338.0,83.16,Clarke Creek Wind Farm,-22.85,149.45,2026-02-22T09:27:40.154277
2026/02/22 19:30:00,CLRKCWF2,79.43,Stanwell Corporation Limited ,Clarke Creek Wind Farm,Wind,101.0,78.64,Clarke Creek Wind Farm,-22.85,149.45,2026-02-22T09:27:40.154277
2026/02/22 19:30:00,CNUNDAWF,5.31,Canunda Power Pty Ltd,Canunda Wind Farm,Wind,46.0,11.54,Canunda Wind Farm,-37.73,140.39,2026-02-22T09:27:40.154277
2026/02/22 19:30:00,COLWF01,11.63,Collector Wind Farm Pty Ltd,Collector Wind Farm 1,Wind,219.0,5.31,Collector Wind Farm 1,-34.8719,149.3967,2026-02-22T09:27:40.154277
2026/02/22 19:30:00,COOPGWF1,226.47,PARF Company 10 Pty Limited as The Trustee for Coopers Gap Project Trust,Coopers Gap Wind Farm,Wind,440.0,51.47,Coopers Gap Wind Farm,-26.74,151.45,2026-02-22T09:27:40.154277
2026/02/22 19:30:00,CROOKWF2,33.26,Crookwell Development Pty Ltd ,Crookwell 2 Wind Farm,Wind,91.0,36.55,Crookwell 2 Wind Farm,-34.52,149.54,2026-02-22T09:27:40.154277
2026/02/22 19:30:00,CROOKWF3,21.79,Crookwell 3 Development Pty Ltd,Crookwell 3 Wind Farm,Wind,56.0,38.91,Crookwell 3 Wind Farm,-34.52,149.54,2026-02-22T09:27:40.154277
2026/02/22 19:30:00,CROWLWF1,65.35,Pacific Hydro Crowlands Pty Ltd ,Crowlands Wind Farm,Wind,79.0,82.72,Crowlands Wind Farm,-37.13,143.16,2026-02-22T09:27:40.154277
2026/02/22 19:30:00,CRURWF1,0.0,CRWF Nominees Pty Ltd As Trustee For The CRWF Trust,Crudine Ridge Wind Farm,Wind,138.0,0.0,Crudine Ridge Wind Farm,-32.97,149.64,2026-02-22T09:27:40.154277
2026/02/22 19:30:00,CTHLWF1,117.69,Wild Cattle Hill Pty Ltd,Cattle Hill Wind Farm,Wind,144.0,81.73,Cattle Hill Wind Farm,-42.15,146.69,2026-02-22T09:27:40.154277
2026/02/22 19:30:00,DULAWF1,84.0,Dulacca Energy Project Co Pty Ltd,Dulacca Wind Farm,Wind,173.0,48.55,Dulacca Wind Farm,-26.63,149.87,2026-02-22T09:27:40.154277
2026/02/22 19:30:00,DUNDWF1,28.36,Dundonnell Wind Farm Pty Ltd,Dundonnell Wind Farm,Wind,168.0,16.88,Dundonnell Wind Farm,-37.52,142.58,2026-02-22T09:27:40.154277
2026/02/22 19:30:00,DUNDWF2,6.22,Dundonnell Wind Farm Pty Ltd,Dundonnell Wind Farm,Wind,46.0,13.52,Dundonnell Wind Farm,-37.52,142.58,2026-02-22T09:27:40.154277
2026/02/22 19:30:00,DUNDWF3,23.82,Dundonnell Wind Farm Pty Ltd,Dundonnell Wind Farm,Wind,122.0,19.52,Dundonnell Wind Farm,-37.52,142.58,2026-02-22T09:27:40.154277
2026/02/22 19:30:00,ELAINWF1,50.29,Lal Lal Wind Farms Nom Co Pty Ltd,Elaine Wind Farm,Wind,82.0,61.33,Elaine Wind Farm,-37.36,144.0,2026-02-22T09:27:40.154277
2026/02/22 19:30:00,FLYCRKWF,2.48,Iberdrola Australia Energy Markets Pty Limited,Flyers Creek Wind Farm,Wind,140.0,1.77,Flyers Creek Wind Farm,-33.365556,148.981944,2026-02-22T09:27:40.154277
2026/02/22 19:30:00,GPWFEST1,94.15,Golden Plains WF1 Pty Ltd as Trustee for the Golden Plains WF1 Unit Trust,Golden Plains Wind Farm East,Wind,240.0,39.23,Golden Plains Wind Farm East,-37.945091,143.752614,2026-02-22T09:27:40.154277
2026/02/22 19:30:00,GPWFEST2,84.13,Golden Plains WF1 Pty Ltd as Trustee for the Golden Plains WF1 Unit Trust,Golden Plains Wind Farm East,Wind,253.0,33.25,Golden Plains Wind Farm East,-37.945091,143.752614,2026-02-22T09:27:40.154277
2026/02/22 19:30:00,GPWFEST3,71.78,Golden Plains WF1 Pty Ltd as Trustee for the Golden Plains WF1 Unit Trust,Golden Plains Wind Farm East,Wind,240.0,29.91,Golden Plains Wind Farm East,-37.945091,143.752614,2026-02-22T09:27:40.154277
2026/02/22 19:30:00,GRANWF1,1.95,Granville Harbour Operations Pty Ltd as The Trustee for Granville Harbour Operations Trust,Granville Harbour Wind Farm,Wind,111.0,1.76,Granville Harbour Wind Farm,-41.8,145.06,2026-02-22T09:27:40.154277
2026/02/22 19:30:00,GSWF1A,68.82,Goyder Wind Farm 1 Pty Ltd as the Trustee for Goyder Wind Farm 1 Trust,Goyder South Wind Farm 1A,Wind,201.0,34.24,Goyder South Wind Farm 1A,-33.679758,138.937597,2026-02-22T09:27:40.154277
2026/02/22 19:30:00,GSWF1B1,37.23,Goyder Wind Farm 1B Pty Ltd as the Trustee for the Goyder Wind Farm 1B Trust,Goyder South Wind Farm 1B,Wind,196.0,18.99,Goyder South Wind Farm 1B,-33.679758,138.937597,2026-02-22T09:27:40.154277
2026/02/22 19:30:00,GULLRWF1,53.24,New Gullen Range Wind Farm Pty Ltd,Gullen Range Wind Farm,Wind,161.0,33.07,Gullen Range Wind Farm,-34.34,149.27,2026-02-22T09:27:40.154277
2026/02/22 19:30:00,GULLRWF2,44.38,New Gullen Range Wind Farm Pty Ltd,Gullen Range Wind Farm,Wind,107.0,41.48,Gullen Range Wind Farm,-34.34,149.27,2026-02-22T09:27:40.154277
2026/02/22 19:30:00,GUNNING1,22.59,Gunning Wind Energy Developments Pty Ltd,Gunning Wind Farm,Wind,47.0,48.06,Gunning Wind Farm,-34.813333,149.4,2026-02-22T09:27:40.154277
2026/02/22 19:30:00,HALLWF1,26.72,AGL SA Generation Pty Limited,Hallett 1 Wind Farm,Wind,95.0,28.13,Hallett 1 Wind Farm,-33.367778,138.728611,2026-02-22T09:27:40.154277
2026/02/22 19:30:00,HALLWF2,17.55,AGL SA Generation Pty Limited,Hallett 2 Wind Farm,Wind,71.0,24.72,Hallett 2 Wind Farm,-33.367778,138.728611,2026-02-22T09:27:40.154277
2026/02/22 19:30:00,HD1WF1,16.79,Hawkesdale Asset Pty Ltd as trustee for Hawkesdale Asset Trust,Hawkesdale Wind Farm,Wind,89.0,18.87,Hawkesdale Wind Farm,-38.147894,142.361381,2026-02-22T09:27:40.154277
2026/02/22 19:30:00,HDWF1,37.4,HWF1 Pty Ltd,Hornsdale Wind Farm,Wind,102.0,36.67,Hornsdale Wind Farm,-33.050556,138.543611,2026-02-22T09:27:40.154277
2026/02/22 19:30:00,HDWF2,33.2,HWF 2 Pty Ltd,Hornsdale Wind Farm 2,Wind,102.0,32.55,Hornsdale Wind Farm 2,-33.06,138.54,2026-02-22T09:27:40.154277
2026/02/22 19:30:00,HDWF3,31.7,HWF3 Pty Ltd,Hornsdale Wind Farm 3,Wind,109.0,29.08,Hornsdale Wind Farm 3,-33.06,138.54,2026-02-22T09:27:40.154277
2026/02/22 19:30:00,KABANWF1,0.0,Kaban Wind Farm Pty Ltd as trustee for Kaban Wind Farm Trust,Kaban Wind Farm,Wind,152.0,0.0,Kaban Wind Farm,-17.56,145.41,2026-02-22T09:27:40.154277
2026/02/22 19:30:00,KEPWF1,0.0,Kennedy Energy Park Pty Ltd,Kennedy Energy Park,Wind,43.0,0.0,Kennedy Energy Park,-20.88,144.42,2026-02-22T09:27:40.154277
2026/02/22 19:30:00,KIATAWF1,24.4,Kiata ProjectCo Pty Ltd Atf Kiata Project Trust,Kiata Wind Farm,Wind,31.0,78.71,Kiata Wind Farm,-36.4,141.75,2026-02-22T09:27:40.154277
2026/02/22 19:30:00,LGAPWF1,21.35,Lincoln Gap Wind Farm (Operations) Pty Ltd,Lincoln Gap Wind Farm,Wind,123.0,17.36,Lincoln Gap Wind Farm,-32.564279,137.557328,2026-02-22T09:27:40.154277
2026/02/22 19:30:00,LGAPWF1,21.35,Lincoln Gap Wind Farm (Operations) Pty Ltd,Lincoln Gap Wind Farm,Wind,123.0,17.36,Lincoln Gap Wind Farm,-32.564279,137.557328,2026-02-22T09:27:40.154277
2026/02/22 19:30:00,LGAPWF2,74.62,Lincoln Gap Wind Farm (Operations) Pty Ltd,Lincoln Gap Wind Farm,Wind,85.0,87.79,Lincoln Gap Wind Farm,-32.564279,137.557328,2026-02-22T09:27:40.154277
2026/02/22 19:30:00,LGAPWF2,74.62,Lincoln Gap Wind Farm (Operations) Pty Ltd,Lincoln Gap Wind Farm,Wind,85.0,87.79,Lincoln Gap Wind Farm,-32.564279,137.557328,2026-02-22T09:27:40.154277
2026/02/22 19:30:00,LKBONNY1,11.7,Lake Bonney Wind Power Pty Ltd,Lake Bonney Wind Farm Stage 1,Wind,81.0,14.44,Lake Bonney Wind Farm Stage 1,-37.76,140.4,2026-02-22T09:27:40.154277
2026/02/22 19:30:00,LKBONNY2,22.01,Lake Bonney Wind Power Pty Ltd,Lake Bonney Stage 2 Windfarm,Wind,159.0,13.84,Lake Bonney Stage 2 Windfarm,-37.76,140.4,2026-02-22T09:27:40.154277
2026/02/22 19:30:00,LKBONNY3,4.86,Lake Bonney Wind Power Pty Ltd,Lake Bonney Stage 3 Wind Farm,Wind,39.0,12.46,Lake Bonney Stage 3 Wind Farm,-37.737781,140.388137,2026-02-22T09:27:40.154277
2026/02/22 19:30:00,MACARTH1,33.8,AGL Hydro Partnership,Macarthur Wind Farm,Wind,420.0,8.05,Macarthur Wind Farm,-38.048957,142.192112,2026-02-22T09:27:40.154277
2026/02/22 19:30:00,MCINTYR1,189.02,MacIntyre UJV Operator Pty Ltd,MacIntyre Wind Farm,Wind,890.0,21.24,MacIntyre Wind Farm,-28.32,151.54,2026-02-22T09:27:40.154277
2026/02/22 19:30:00,MERCER01,47.8,Mt Mercer Windfarm Pty Ltd,Mt Mercer Wind Farm,Wind,131.0,36.49,Mt Mercer Wind Farm,-37.841111,143.871111,2026-02-22T09:27:40.154277
2026/02/22 19:30:00,MEWF1,0.0,Ergon Energy Queensland Pty Ltd ,Mount Emerald Wind Farm,Wind,178.0,0.0,Mount Emerald Wind Farm,-17.133007,145.380644,2026-02-22T09:27:40.154277
2026/02/22 19:30:00,MRTLSWF1,38.15,Mortlake South Wind Farm Pty Ltd,Mortlake South Wind Farm,Wind,153.0,24.93,Mortlake South Wind Farm,-38.127337,142.857801,2026-02-22T09:27:40.154277
2026/02/22 19:30:00,MTGELWF1,99.8,Mt. Gellibrand Wind Farm Pty Ltd,Mt Gellibrand Wind Farm,Wind,132.0,75.61,Mt Gellibrand Wind Farm,-38.23,143.77,2026-02-22T09:27:40.154277
2026/02/22 19:30:00,MTMILLAR,52.8,Mt Millar Wind Farm Pty Ltd,Mt Millar Wind Farm,Wind,70.0,75.43,Mt Millar Wind Farm,-33.624444,136.703611,2026-02-22T09:27:40.154277
2026/02/22 19:30:00,MUSSELR1,138.7,Hydro-Electric Corporation,Musselroe Wind Farm,Wind,168.0,82.56,Musselroe Wind Farm,-40.780225,148.010799,2026-02-22T09:27:40.154277
2026/02/22 19:30:00,MUWAWF1,91.91,Telstra Energy (Generation) Pty Ltd,Murra Warra Wind Farm,Wind,225.7,40.72,Murra Warra Wind Farm,-36.432404,142.317853,2026-02-22T09:27:40.154277
2026/02/22 19:30:00,MUWAWF2,63.4,Murra Warra II Project Co Pty Ltd ATF The Murra Warra II Project Trust,Murra Warra Wind Farm Stage 2,Wind,203.0,31.23,Murra Warra Wind Farm Stage 2,-36.43,142.32,2026-02-22T09:27:40.154277
2026/02/22 19:30:00,NBHWF1,32.6,AGL SA Generation Pty Limited,North Brown Hill Wind Farm,Wind,132.0,24.7,North Brown Hill Wind Farm,-33.367778,138.728611,2026-02-22T09:27:40.154277
2026/02/22 19:30:00,OAKLAND1,13.0,AGL Hydro Partnership,Oaklands Hill Wind Farm,Wind,63.0,20.63,Oaklands Hill Wind Farm,-37.683078,142.551678,2026-02-22T09:27:40.154277
2026/02/22 19:30:00,PAREPW1,200.51,Iberdrola Australia Energy Markets Pty Limited,Port Augusta Renewable Energy Park,Wind,201.0,99.76,Port Augusta Renewable Energy Park,-32.566944,137.856111,2026-02-22T09:27:40.154277
2026/02/22 19:30:00,RYANCWF1,66.49,Ryan Corner Development Pty Ltd,Ryan Corner Wind Farm,Wind,205.0,32.43,Ryan Corner Wind Farm,-38.271017,142.140647,2026-02-22T09:27:40.154277
2026/02/22 19:30:00,RYEPARK1,136.53,Rye Park Renewable Energy Pty Ltd as trustee for Rye Park Wind Farm Trust,Rye Park Renewable Energy,Wind,384.0,35.55,Rye Park Renewable Energy,-32.138333,148.972778,2026-02-22T09:27:40.154277
2026/02/22 19:30:00,SALTCRK1,5.84,Salt Creek Wind Farm Pty Ltd,Salt Creek Wind Farm,Wind,54.0,10.81,Salt Creek Wind Farm,-37.95,142.63,2026-02-22T09:27:40.154277
2026/02/22 19:30:00,SAPHWF1,223.66,The Trustee For The SWF1 Operations Trust,Sapphire Wind Farm,Wind,270.0,82.84,Sapphire Wind Farm,-29.7,151.41,2026-02-22T09:27:40.154277
2026/02/22 19:30:00,SNOWNTH1,123.8,Snowtown Wind Farm Stage 2 Pty Ltd,Snowtown Wind Farm Stage 2 North,Wind,144.0,85.97,Snowtown Wind Farm Stage 2 North,-33.83,138.118611,2026-02-22T09:27:40.154277
2026/02/22 19:30:00,SNOWSTH1,89.2,Snowtown Wind Farm Stage 2 Pty Ltd,Snowtown South Wind Farm,Wind,126.0,70.79,Snowtown South Wind Farm,-33.83,138.118611,2026-02-22T09:27:40.154277
2026/02/22 19:30:00,SNOWTWN1,91.62,Snowtown Wind Farm Pty Ltd,Snowtown Wind Farm Units 1 And 47,Wind,99.0,92.55,Snowtown Wind Farm Units 1 And 47,-33.83,138.118611,2026-02-22T09:27:40.154277
2026/02/22 19:30:00,STARHLWF,21.09,Starfish Hill Wind Farm Pty Ltd,Starfish Hill Wind Farm,Wind,35.0,60.26,Starfish Hill Wind Farm,-35.58,138.14,2026-02-22T09:27:40.154277
2026/02/22 19:30:00,STOCKYD1,399.74,Stockyard Hill Wind Farm Pty Ltd,Stockyard Hill Wind Farm,Wind,511.0,78.23,Stockyard Hill Wind Farm,-37.535833,143.251389,2026-02-22T09:27:40.154277
2026/02/22 19:30:00,STWF1,87.55,PARF Company 8 Pty Ltd as The Trustee for Silverton Project Trust,Silverton Wind Farm,Wind,198.0,44.22,Silverton Wind Farm,-37.683168,142.551678,2026-02-22T09:27:40.154277
2026/02/22 19:30:00,TARALGA1,25.25,Taralga Wind Farm Nominees No 2 Pty Ltd (ATF Taralga Wind Farm Operating Trust),Taralga Wind Farm,Wind,106.0,23.82,Taralga Wind Farm,-34.42352,149.826267,2026-02-22T09:27:40.154277
2026/02/22 19:30:00,WAMBOWF1,110.4,Stanwell Corporation Limited,Wambo Wind Farm 1,Wind,245.0,45.06,Wambo Wind Farm 1,-35.187301,149.524945,2026-02-22T09:27:40.154277
2026/02/22 19:30:00,WATERLWF,13.3,Waterloo Wind Farm Pty Ltd,Waterloo Wind Farm,Wind,130.0,10.23,Waterloo Wind Farm,-34.00094,138.911567,2026-02-22T09:27:40.154277
2026/02/22 19:30:00,WGWF1,46.3,Willogoleche Power Pty Ltd As The Trustee For The Willogoleche Operating Trust,Willogoleche Wind Farm,Wind,119.0,38.91,Willogoleche Wind Farm,-33.39,138.85,2026-02-22T09:27:40.154277
2026/02/22 19:30:00,WOODLWN1,11.93,Woodlawn Wind Pty Ltd,Woodlawn Wind Farm,Wind,48.0,24.85,Woodlawn Wind Farm,-35.08,149.62,2026-02-22T09:27:40.154277
2026/02/22 19:30:00,WPWF,78.81,AGL SA Generation Pty Limited,Wattle Point Wind Farm,Wind,91.0,86.6,Wattle Point Wind Farm,-35.111624,137.7219,2026-02-22T09:27:40.154277
2026/02/22 19:30:00,WRWF1,74.33,White Rock Wind Farm Pty Ltd,White Rock Wind Farm,Wind,172.0,43.22,White Rock Wind Farm,-29.79,151.54,2026-02-22T09:27:40.154277
2026/02/22 19:30:00,YENDWF1,24.8,Lal Lal Wind Farms Nom Co Pty Ltd,Yendon Wind Farm,Wind,142.0,17.46,Yendon Wind Farm,-37.629987,144.022717,2026-02-22T09:27:40.154277
