SETTLEMENTDATE,DUID,SCADAVALUE,Participant,Station Name,Fuel Source - Primary,MAX_CAP,utilisation_pct,Plant,Latitude,Longitude,timestamp_utc
2026/02/08 21:45:00,CAPTL_WF,0.0,Iberdrola Australia Holdings Pty Limited,Capital Wind Farm,Wind,140.0,0.0,Capital Wind Farm,-35.1,149.31,2026-02-08T11:42:04.525903
2026/02/08 21:45:00,CHALLHWF,15.1,Pacific Hydro Challicum Hills Pty Ltd,Challicum Hills Wind Farm,Wind,52.0,29.04,Challicum Hills Wind Farm,-37.38,143.11,2026-02-08T11:42:04.525903
2026/02/08 21:45:00,CULLRGWF,2.21,Cullerin Range Wind Farm Pty Ltd,Cullerin Range Wind Farm,Wind,30.0,7.37,Cullerin Range Wind Farm,-34.81,149.4,2026-02-08T11:42:04.525903
2026/02/08 21:45:00,DIAPURWF1,6.1,Y.E.S. Energy (SA) Pty Ltd,Diapur Wind Farm,Wind,7.0,87.14,Diapur Wind Farm,-36.3425,141.43,2026-02-08T11:42:04.525903
2026/02/08 21:45:00,MLWF1,4.56,Mortons Lane Windfarm Pty Limited,Mortons Lane Wind Farm,Wind,20.0,22.8,Mortons Lane Wind Farm,-37.84,142.45,2026-02-08T11:42:04.525903
2026/02/08 21:45:00,WAUBRAWF,39.33,Pyrenees Wind Energy Developments Pty Ltd,Waubra Wind Farm,Wind,192.0,20.48,Waubra Wind Farm,-37.394498,143.638982,2026-02-08T11:42:04.525903
2026/02/08 21:45:00,WOOLNTH1,-0.86,Hydro-Electric Corporation,Woolnorth Studland Bay / Bluff Point Wind Farm,Wind,140.0,-0.61,Woolnorth Studland Bay / Bluff Point Wind Farm,-40.69,144.72,2026-02-08T11:42:04.525903
2026/02/08 21:45:00,YAMBUKWF,4.5,Energy Pacific (Vic) Pty Ltd,Yambuk Wind Farm,Wind,30.0,15.0,Yambuk Wind Farm,-38.299083,142.027577,2026-02-08T11:42:04.525903
2026/02/08 21:45:00,YSWF1,5.2,Pacific Hydro Yaloak South Pty Ltd,Yaloak South Wind Farm,Wind,28.0,18.57,Yaloak South Wind Farm,-37.7163,144.242853,2026-02-08T11:42:04.525903
2026/02/08 21:45:00,ARWF1,105.6,Ararat Wind Farm Pty Ltd,Ararat Wind Farm,Wind,241.0,43.82,Ararat Wind Farm,-37.232778,143.031389,2026-02-08T11:42:04.525903
2026/02/08 21:45:00,BALDHWF1,0.59,Alinta Energy Retail Sales Pty Ltd,Bald Hills Wind Farm,Wind,106.0,0.56,Bald Hills Wind Farm,-38.79,145.93,2026-02-08T11:42:04.525903
2026/02/08 21:45:00,BANGOWF1,0.9,BWF Nominees Pty Ltd as The Trustee for BWF Trust,Bango 973 Wind Farm,Wind,155.0,0.58,Bango 973 Wind Farm,-34.551582,148.732808,2026-02-08T11:42:04.525903
2026/02/08 21:45:00,BANGOWF2,1.0,BWF Nominees Pty Ltd as The Trustee for BWF Trust,Bango 999 Wind Farm,Wind,82.0,1.22,Bango 999 Wind Farm,-34.551582,148.732808,2026-02-08T11:42:04.525903
2026/02/08 21:45:00,BLUFF1,15.2,AGL SA Generation Pty Limited,The Bluff Wind Farm,Wind,53.0,28.68,The Bluff Wind Farm,-33.367778,138.728611,2026-02-08T11:42:04.525903
2026/02/08 21:45:00,BOCORWF1,2.68,Boco Rock Wind Farm Pty Ltd,Boco Rock Wind Farm,Wind,111.0,2.41,Boco Rock Wind Farm,-36.578611,149.103333,2026-02-08T11:42:04.525903
2026/02/08 21:45:00,BRYB1WF1,26.95,Berrybank Development Pty Ltd,Berrybank Wind Farm,Wind,175.9,15.32,Berrybank Wind Farm,-37.94,143.52,2026-02-08T11:42:04.525903
2026/02/08 21:45:00,BRYB2WF2,11.34,Berrybank 2 Asset Pty Ltd as trustee for Berrybank 2 Asset Trust,Berrybank 2 Wind Farm,Wind,105.0,10.8,Berrybank 2 Wind Farm,-37.94,143.52,2026-02-08T11:42:04.525903
2026/02/08 21:45:00,BULGANA1,120.33,Bulgana Wind Farm Pty Ltd,Bulgana Green Power Hub,Wind,204.0,58.99,Bulgana Green Power Hub,-37.0975,142.973611,2026-02-08T11:42:04.525903
2026/02/08 21:45:00,CATHROCK,23.0,Cathedral Rocks Wind Farm Pty Ltd,Cathedral Rocks,Wind,66.0,34.85,Cathedral Rocks,-34.51,135.35,2026-02-08T11:42:04.525903
2026/02/08 21:45:00,CHYTWF1,12.34,Cherry Tree Wind Farm Pty Ltd as trustee for The Cherry Tree Project trust ,Cherry Tree Wind Farm,Wind,57.0,21.65,Cherry Tree Wind Farm,-37.1,145.26,2026-02-08T11:42:04.525903
2026/02/08 21:45:00,CLEMGPWF,30.54,Pacific Hydro Clements Gap Pty Ltd,Clements Gap Wind Farm,Wind,57.0,53.58,Clements Gap Wind Farm,-33.48,138.1,2026-02-08T11:42:04.525903
2026/02/08 21:45:00,CLRKCWF1,285.62,Stanwell Corporation Limited ,Clarke Creek Wind Farm,Wind,338.0,84.5,Clarke Creek Wind Farm,-22.85,149.45,2026-02-08T11:42:04.525903
2026/02/08 21:45:00,CLRKCWF2,77.68,Stanwell Corporation Limited ,Clarke Creek Wind Farm,Wind,101.0,76.91,Clarke Creek Wind Farm,-22.85,149.45,2026-02-08T11:42:04.525903
2026/02/08 21:45:00,CNUNDAWF,8.01,Canunda Power Pty Ltd,Canunda Wind Farm,Wind,46.0,17.41,Canunda Wind Farm,-37.73,140.39,2026-02-08T11:42:04.525903
2026/02/08 21:45:00,COLWF01,3.07,Collector Wind Farm Pty Ltd,Collector Wind Farm 1,Wind,219.0,1.4,Collector Wind Farm 1,-34.8719,149.3967,2026-02-08T11:42:04.525903
2026/02/08 21:45:00,COOPGWF1,346.24,PARF Company 10 Pty Limited as The Trustee for Coopers Gap Project Trust,Coopers Gap Wind Farm,Wind,440.0,78.69,Coopers Gap Wind Farm,-26.74,151.45,2026-02-08T11:42:04.525903
2026/02/08 21:45:00,CROOKWF2,11.54,Crookwell Development Pty Ltd ,Crookwell 2 Wind Farm,Wind,91.0,12.68,Crookwell 2 Wind Farm,-34.52,149.54,2026-02-08T11:42:04.525903
2026/02/08 21:45:00,CROOKWF3,5.47,Crookwell 3 Development Pty Ltd,Crookwell 3 Wind Farm,Wind,56.0,9.77,Crookwell 3 Wind Farm,-34.52,149.54,2026-02-08T11:42:04.525903
2026/02/08 21:45:00,CROWLWF1,21.76,Pacific Hydro Crowlands Pty Ltd ,Crowlands Wind Farm,Wind,79.0,27.54,Crowlands Wind Farm,-37.13,143.16,2026-02-08T11:42:04.525903
2026/02/08 21:45:00,CRURWF1,30.3,CRWF Nominees Pty Ltd As Trustee For The CRWF Trust,Crudine Ridge Wind Farm,Wind,138.0,21.96,Crudine Ridge Wind Farm,-32.97,149.64,2026-02-08T11:42:04.525903
2026/02/08 21:45:00,CTHLWF1,0.0,Wild Cattle Hill Pty Ltd,Cattle Hill Wind Farm,Wind,144.0,0.0,Cattle Hill Wind Farm,-42.15,146.69,2026-02-08T11:42:04.525903
2026/02/08 21:45:00,DULAWF1,136.0,Dulacca Energy Project Co Pty Ltd,Dulacca Wind Farm,Wind,173.0,78.61,Dulacca Wind Farm,-26.63,149.87,2026-02-08T11:42:04.525903
2026/02/08 21:45:00,DUNDWF1,49.48,Dundonnell Wind Farm Pty Ltd,Dundonnell Wind Farm,Wind,168.0,29.45,Dundonnell Wind Farm,-37.52,142.58,2026-02-08T11:42:04.525903
2026/02/08 21:45:00,DUNDWF2,11.79,Dundonnell Wind Farm Pty Ltd,Dundonnell Wind Farm,Wind,46.0,25.63,Dundonnell Wind Farm,-37.52,142.58,2026-02-08T11:42:04.525903
2026/02/08 21:45:00,DUNDWF3,23.08,Dundonnell Wind Farm Pty Ltd,Dundonnell Wind Farm,Wind,122.0,18.92,Dundonnell Wind Farm,-37.52,142.58,2026-02-08T11:42:04.525903
2026/02/08 21:45:00,ELAINWF1,10.9,Lal Lal Wind Farms Nom Co Pty Ltd,Elaine Wind Farm,Wind,82.0,13.29,Elaine Wind Farm,-37.36,144.0,2026-02-08T11:42:04.525903
2026/02/08 21:45:00,FLYCRKWF,34.86,Iberdrola Australia Energy Markets Pty Limited,Flyers Creek Wind Farm,Wind,140.0,24.9,Flyers Creek Wind Farm,-33.365556,148.981944,2026-02-08T11:42:04.525903
2026/02/08 21:45:00,GPWFEST1,43.12,Golden Plains WF1 Pty Ltd as Trustee for the Golden Plains WF1 Unit Trust,Golden Plains Wind Farm East,Wind,240.0,17.97,Golden Plains Wind Farm East,-37.945091,143.752614,2026-02-08T11:42:04.525903
2026/02/08 21:45:00,GPWFEST2,37.09,Golden Plains WF1 Pty Ltd as Trustee for the Golden Plains WF1 Unit Trust,Golden Plains Wind Farm East,Wind,253.0,14.66,Golden Plains Wind Farm East,-37.945091,143.752614,2026-02-08T11:42:04.525903
2026/02/08 21:45:00,GPWFEST3,33.9,Golden Plains WF1 Pty Ltd as Trustee for the Golden Plains WF1 Unit Trust,Golden Plains Wind Farm East,Wind,240.0,14.12,Golden Plains Wind Farm East,-37.945091,143.752614,2026-02-08T11:42:04.525903
2026/02/08 21:45:00,GRANWF1,0.0,Granville Harbour Operations Pty Ltd as The Trustee for Granville Harbour Operations Trust,Granville Harbour Wind Farm,Wind,111.0,0.0,Granville Harbour Wind Farm,-41.8,145.06,2026-02-08T11:42:04.525903
2026/02/08 21:45:00,GSWF1A,14.16,Goyder Wind Farm 1 Pty Ltd as the Trustee for Goyder Wind Farm 1 Trust,Goyder South Wind Farm 1A,Wind,201.0,7.04,Goyder South Wind Farm 1A,-33.679758,138.937597,2026-02-08T11:42:04.525903
2026/02/08 21:45:00,GSWF1B1,17.02,Goyder Wind Farm 1B Pty Ltd as the Trustee for the Goyder Wind Farm 1B Trust,Goyder South Wind Farm 1B,Wind,196.0,8.68,Goyder South Wind Farm 1B,-33.679758,138.937597,2026-02-08T11:42:04.525903
2026/02/08 21:45:00,GULLRWF1,7.53,New Gullen Range Wind Farm Pty Ltd,Gullen Range Wind Farm,Wind,161.0,4.68,Gullen Range Wind Farm,-34.34,149.27,2026-02-08T11:42:04.525903
2026/02/08 21:45:00,GULLRWF2,15.52,New Gullen Range Wind Farm Pty Ltd,Gullen Range Wind Farm,Wind,107.0,14.5,Gullen Range Wind Farm,-34.34,149.27,2026-02-08T11:42:04.525903
2026/02/08 21:45:00,GUNNING1,3.34,Gunning Wind Energy Developments Pty Ltd,Gunning Wind Farm,Wind,47.0,7.11,Gunning Wind Farm,-34.813333,149.4,2026-02-08T11:42:04.525903
2026/02/08 21:45:00,HALLWF1,13.18,AGL SA Generation Pty Limited,Hallett 1 Wind Farm,Wind,95.0,13.87,Hallett 1 Wind Farm,-33.367778,138.728611,2026-02-08T11:42:04.525903
2026/02/08 21:45:00,HALLWF2,7.45,AGL SA Generation Pty Limited,Hallett 2 Wind Farm,Wind,71.0,10.49,Hallett 2 Wind Farm,-33.367778,138.728611,2026-02-08T11:42:04.525903
2026/02/08 21:45:00,HD1WF1,26.6,Hawkesdale Asset Pty Ltd as trustee for Hawkesdale Asset Trust,Hawkesdale Wind Farm,Wind,89.0,29.89,Hawkesdale Wind Farm,-38.147894,142.361381,2026-02-08T11:42:04.525903
2026/02/08 21:45:00,HDWF1,10.7,HWF1 Pty Ltd,Hornsdale Wind Farm,Wind,102.0,10.49,Hornsdale Wind Farm,-33.050556,138.543611,2026-02-08T11:42:04.525903
2026/02/08 21:45:00,HDWF2,5.7,HWF 2 Pty Ltd,Hornsdale Wind Farm 2,Wind,102.0,5.59,Hornsdale Wind Farm 2,-33.06,138.54,2026-02-08T11:42:04.525903
2026/02/08 21:45:00,HDWF3,8.9,HWF3 Pty Ltd,Hornsdale Wind Farm 3,Wind,109.0,8.17,Hornsdale Wind Farm 3,-33.06,138.54,2026-02-08T11:42:04.525903
2026/02/08 21:45:00,KABANWF1,73.44,Kaban Wind Farm Pty Ltd as trustee for Kaban Wind Farm Trust,Kaban Wind Farm,Wind,152.0,48.32,Kaban Wind Farm,-17.56,145.41,2026-02-08T11:42:04.525903
2026/02/08 21:45:00,KEPWF1,20.2,Kennedy Energy Park Pty Ltd,Kennedy Energy Park,Wind,43.0,46.98,Kennedy Energy Park,-20.88,144.42,2026-02-08T11:42:04.525903
2026/02/08 21:45:00,KIATAWF1,27.7,Kiata ProjectCo Pty Ltd Atf Kiata Project Trust,Kiata Wind Farm,Wind,31.0,89.35,Kiata Wind Farm,-36.4,141.75,2026-02-08T11:42:04.525903
2026/02/08 21:45:00,LGAPWF1,69.07,Lincoln Gap Wind Farm (Operations) Pty Ltd,Lincoln Gap Wind Farm,Wind,123.0,56.15,Lincoln Gap Wind Farm,-32.564279,137.557328,2026-02-08T11:42:04.525903
2026/02/08 21:45:00,LGAPWF1,69.07,Lincoln Gap Wind Farm (Operations) Pty Ltd,Lincoln Gap Wind Farm,Wind,123.0,56.15,Lincoln Gap Wind Farm,-32.564279,137.557328,2026-02-08T11:42:04.525903
2026/02/08 21:45:00,LGAPWF2,74.92,Lincoln Gap Wind Farm (Operations) Pty Ltd,Lincoln Gap Wind Farm,Wind,85.0,88.14,Lincoln Gap Wind Farm,-32.564279,137.557328,2026-02-08T11:42:04.525903
2026/02/08 21:45:00,LGAPWF2,74.92,Lincoln Gap Wind Farm (Operations) Pty Ltd,Lincoln Gap Wind Farm,Wind,85.0,88.14,Lincoln Gap Wind Farm,-32.564279,137.557328,2026-02-08T11:42:04.525903
2026/02/08 21:45:00,LKBONNY1,10.18,Lake Bonney Wind Power Pty Ltd,Lake Bonney Wind Farm Stage 1,Wind,81.0,12.57,Lake Bonney Wind Farm Stage 1,-37.76,140.4,2026-02-08T11:42:04.525903
2026/02/08 21:45:00,LKBONNY2,24.52,Lake Bonney Wind Power Pty Ltd,Lake Bonney Stage 2 Windfarm,Wind,159.0,15.42,Lake Bonney Stage 2 Windfarm,-37.76,140.4,2026-02-08T11:42:04.525903
2026/02/08 21:45:00,LKBONNY3,6.2,Lake Bonney Wind Power Pty Ltd,Lake Bonney Stage 3 Wind Farm,Wind,39.0,15.9,Lake Bonney Stage 3 Wind Farm,-37.737781,140.388137,2026-02-08T11:42:04.525903
2026/02/08 21:45:00,MACARTH1,41.2,AGL Hydro Partnership,Macarthur Wind Farm,Wind,420.0,9.81,Macarthur Wind Farm,-38.048957,142.192112,2026-02-08T11:42:04.525903
2026/02/08 21:45:00,MCINTYR1,239.14,MacIntyre UJV Operator Pty Ltd,MacIntyre Wind Farm,Wind,890.0,26.87,MacIntyre Wind Farm,-28.32,151.54,2026-02-08T11:42:04.525903
2026/02/08 21:45:00,MERCER01,14.2,Mt Mercer Windfarm Pty Ltd,Mt Mercer Wind Farm,Wind,131.0,10.84,Mt Mercer Wind Farm,-37.841111,143.871111,2026-02-08T11:42:04.525903
2026/02/08 21:45:00,MEWF1,136.6,Ergon Energy Queensland Pty Ltd ,Mount Emerald Wind Farm,Wind,178.0,76.74,Mount Emerald Wind Farm,-17.133007,145.380644,2026-02-08T11:42:04.525903
2026/02/08 21:45:00,MRTLSWF1,75.41,Mortlake South Wind Farm Pty Ltd,Mortlake South Wind Farm,Wind,153.0,49.29,Mortlake South Wind Farm,-38.127337,142.857801,2026-02-08T11:42:04.525903
2026/02/08 21:45:00,MTGELWF1,8.92,Mt. Gellibrand Wind Farm Pty Ltd,Mt Gellibrand Wind Farm,Wind,132.0,6.76,Mt Gellibrand Wind Farm,-38.23,143.77,2026-02-08T11:42:04.525903
2026/02/08 21:45:00,MTMILLAR,7.2,Mt Millar Wind Farm Pty Ltd,Mt Millar Wind Farm,Wind,70.0,10.29,Mt Millar Wind Farm,-33.624444,136.703611,2026-02-08T11:42:04.525903
2026/02/08 21:45:00,MUSSELR1,2.3,Hydro-Electric Corporation,Musselroe Wind Farm,Wind,168.0,1.37,Musselroe Wind Farm,-40.780225,148.010799,2026-02-08T11:42:04.525903
2026/02/08 21:45:00,MUWAWF1,68.81,Telstra Energy (Generation) Pty Ltd,Murra Warra Wind Farm,Wind,225.7,30.49,Murra Warra Wind Farm,-36.432404,142.317853,2026-02-08T11:42:04.525903
2026/02/08 21:45:00,MUWAWF2,84.4,Murra Warra II Project Co Pty Ltd ATF The Murra Warra II Project Trust,Murra Warra Wind Farm Stage 2,Wind,203.0,41.58,Murra Warra Wind Farm Stage 2,-36.43,142.32,2026-02-08T11:42:04.525903
2026/02/08 21:45:00,NBHWF1,13.9,AGL SA Generation Pty Limited,North Brown Hill Wind Farm,Wind,132.0,10.53,North Brown Hill Wind Farm,-33.367778,138.728611,2026-02-08T11:42:04.525903
2026/02/08 21:45:00,OAKLAND1,28.4,AGL Hydro Partnership,Oaklands Hill Wind Farm,Wind,63.0,45.08,Oaklands Hill Wind Farm,-37.683078,142.551678,2026-02-08T11:42:04.525903
2026/02/08 21:45:00,PAREPW1,137.74,Iberdrola Australia Energy Markets Pty Limited,Port Augusta Renewable Energy Park,Wind,201.0,68.53,Port Augusta Renewable Energy Park,-32.566944,137.856111,2026-02-08T11:42:04.525903
2026/02/08 21:45:00,RYANCWF1,33.33,Ryan Corner Development Pty Ltd,Ryan Corner Wind Farm,Wind,205.0,16.26,Ryan Corner Wind Farm,-38.271017,142.140647,2026-02-08T11:42:04.525903
2026/02/08 21:45:00,RYEPARK1,8.47,Rye Park Renewable Energy Pty Ltd as trustee for Rye Park Wind Farm Trust,Rye Park Renewable Energy,Wind,384.0,2.21,Rye Park Renewable Energy,-32.138333,148.972778,2026-02-08T11:42:04.525903
2026/02/08 21:45:00,SALTCRK1,8.79,Salt Creek Wind Farm Pty Ltd,Salt Creek Wind Farm,Wind,54.0,16.28,Salt Creek Wind Farm,-37.95,142.63,2026-02-08T11:42:04.525903
2026/02/08 21:45:00,SAPHWF1,225.85,The Trustee For The SWF1 Operations Trust,Sapphire Wind Farm,Wind,270.0,83.65,Sapphire Wind Farm,-29.7,151.41,2026-02-08T11:42:04.525903
2026/02/08 21:45:00,SNOWNTH1,83.0,Snowtown Wind Farm Stage 2 Pty Ltd,Snowtown Wind Farm Stage 2 North,Wind,144.0,57.64,Snowtown Wind Farm Stage 2 North,-33.83,138.118611,2026-02-08T11:42:04.525903
2026/02/08 21:45:00,SNOWSTH1,53.8,Snowtown Wind Farm Stage 2 Pty Ltd,Snowtown South Wind Farm,Wind,126.0,42.7,Snowtown South Wind Farm,-33.83,138.118611,2026-02-08T11:42:04.525903
2026/02/08 21:45:00,SNOWTWN1,54.15,Snowtown Wind Farm Pty Ltd,Snowtown Wind Farm Units 1 And 47,Wind,99.0,54.7,Snowtown Wind Farm Units 1 And 47,-33.83,138.118611,2026-02-08T11:42:04.525903
2026/02/08 21:45:00,STARHLWF,24.19,Starfish Hill Wind Farm Pty Ltd,Starfish Hill Wind Farm,Wind,35.0,69.11,Starfish Hill Wind Farm,-35.58,138.14,2026-02-08T11:42:04.525903
2026/02/08 21:45:00,STOCKYD1,159.76,Stockyard Hill Wind Farm Pty Ltd,Stockyard Hill Wind Farm,Wind,511.0,31.26,Stockyard Hill Wind Farm,-37.535833,143.251389,2026-02-08T11:42:04.525903
2026/02/08 21:45:00,STWF1,1.38,PARF Company 8 Pty Ltd as The Trustee for Silverton Project Trust,Silverton Wind Farm,Wind,198.0,0.7,Silverton Wind Farm,-37.683168,142.551678,2026-02-08T11:42:04.525903
2026/02/08 21:45:00,TARALGA1,3.38,Taralga Wind Farm Nominees No 2 Pty Ltd (ATF Taralga Wind Farm Operating Trust),Taralga Wind Farm,Wind,106.0,3.19,Taralga Wind Farm,-34.42352,149.826267,2026-02-08T11:42:04.525903
2026/02/08 21:45:00,WAMBOWF1,119.75,Stanwell Corporation Limited,Wambo Wind Farm 1,Wind,245.0,48.88,Wambo Wind Farm 1,-35.187301,149.524945,2026-02-08T11:42:04.525903
2026/02/08 21:45:00,WATERLWF,2.6,Waterloo Wind Farm Pty Ltd,Waterloo Wind Farm,Wind,130.0,2.0,Waterloo Wind Farm,-34.00094,138.911567,2026-02-08T11:42:04.525903
2026/02/08 21:45:00,WGWF1,19.8,Willogoleche Power Pty Ltd As The Trustee For The Willogoleche Operating Trust,Willogoleche Wind Farm,Wind,119.0,16.64,Willogoleche Wind Farm,-33.39,138.85,2026-02-08T11:42:04.525903
2026/02/08 21:45:00,WOODLWN1,0.0,Woodlawn Wind Pty Ltd,Woodlawn Wind Farm,Wind,48.0,0.0,Woodlawn Wind Farm,-35.08,149.62,2026-02-08T11:42:04.525903
2026/02/08 21:45:00,WPWF,79.34,AGL SA Generation Pty Limited,Wattle Point Wind Farm,Wind,91.0,87.19,Wattle Point Wind Farm,-35.111624,137.7219,2026-02-08T11:42:04.525903
2026/02/08 21:45:00,WRWF1,103.89,White Rock Wind Farm Pty Ltd,White Rock Wind Farm,Wind,172.0,60.4,White Rock Wind Farm,-29.79,151.54,2026-02-08T11:42:04.525903
2026/02/08 21:45:00,YENDWF1,11.26,Lal Lal Wind Farms Nom Co Pty Ltd,Yendon Wind Farm,Wind,142.0,7.93,Yendon Wind Farm,-37.629987,144.022717,2026-02-08T11:42:04.525903
