SETTLEMENTDATE,DUID,SCADAVALUE,Participant,Station Name,Fuel Source - Primary,MAX_CAP,utilisation_pct,Plant,Latitude,Longitude,timestamp_utc
2026/04/30 02:55:00,CAPTL_WF,0.0,Iberdrola Australia Holdings Pty Limited,Capital Wind Farm,Wind,140.0,0.0,Capital Wind Farm,-35.1,149.31,2026-04-29T17:07:26.126638
2026/04/30 02:55:00,CHALLHWF,28.3,Pacific Hydro Challicum Hills Pty Ltd,Challicum Hills Wind Farm,Wind,52.0,54.42,Challicum Hills Wind Farm,-37.38,143.11,2026-04-29T17:07:26.126638
2026/04/30 02:55:00,CULLRGWF,13.13,Cullerin Range Wind Farm Pty Ltd,Cullerin Range Wind Farm,Wind,30.0,43.77,Cullerin Range Wind Farm,-34.81,149.4,2026-04-29T17:07:26.126638
2026/04/30 02:55:00,DIAPURWF1,6.0,Y.E.S. Energy (SA) Pty Ltd,Diapur Wind Farm,Wind,7.0,85.71,Diapur Wind Farm,-36.3425,141.43,2026-04-29T17:07:26.126638
2026/04/30 02:55:00,MLWF1,19.72,Mortons Lane Windfarm Pty Limited,Mortons Lane Wind Farm,Wind,20.0,98.6,Mortons Lane Wind Farm,-37.84,142.45,2026-04-29T17:07:26.126638
2026/04/30 02:55:00,WAUBRAWF,50.66,Pyrenees Wind Energy Developments Pty Ltd,Waubra Wind Farm,Wind,192.0,26.39,Waubra Wind Farm,-37.394498,143.638982,2026-04-29T17:07:26.126638
2026/04/30 02:55:00,WOOLNTH1,79.06,Hydro-Electric Corporation,Woolnorth Studland Bay / Bluff Point Wind Farm,Wind,140.0,56.47,Woolnorth Studland Bay / Bluff Point Wind Farm,-40.69,144.72,2026-04-29T17:07:26.126638
2026/04/30 02:55:00,YAMBUKWF,15.2,Energy Pacific (Vic) Pty Ltd,Yambuk Wind Farm,Wind,30.0,50.67,Yambuk Wind Farm,-38.299083,142.027577,2026-04-29T17:07:26.126638
2026/04/30 02:55:00,YSWF1,12.6,Pacific Hydro Yaloak South Pty Ltd,Yaloak South Wind Farm,Wind,28.0,45.0,Yaloak South Wind Farm,-37.7163,144.242853,2026-04-29T17:07:26.126638
2026/04/30 02:55:00,ARWF1,44.6,Ararat Wind Farm Pty Ltd,Ararat Wind Farm,Wind,241.0,18.51,Ararat Wind Farm,-37.232778,143.031389,2026-04-29T17:07:26.126638
2026/04/30 02:55:00,BALDHWF1,12.34,Alinta Energy Retail Sales Pty Ltd,Bald Hills Wind Farm,Wind,106.0,11.64,Bald Hills Wind Farm,-38.79,145.93,2026-04-29T17:07:26.126638
2026/04/30 02:55:00,BANGOWF1,36.1,BWF Nominees Pty Ltd as The Trustee for BWF Trust,Bango 973 Wind Farm,Wind,155.0,23.29,Bango 973 Wind Farm,-34.551582,148.732808,2026-04-29T17:07:26.126638
2026/04/30 02:55:00,BANGOWF2,25.5,BWF Nominees Pty Ltd as The Trustee for BWF Trust,Bango 999 Wind Farm,Wind,82.0,31.1,Bango 999 Wind Farm,-34.551582,148.732808,2026-04-29T17:07:26.126638
2026/04/30 02:55:00,BLUFF1,2.4,AGL SA Generation Pty Limited,The Bluff Wind Farm,Wind,53.0,4.53,The Bluff Wind Farm,-33.367778,138.728611,2026-04-29T17:07:26.126638
2026/04/30 02:55:00,BOCORWF1,23.92,Boco Rock Wind Farm Pty Ltd,Boco Rock Wind Farm,Wind,111.0,21.55,Boco Rock Wind Farm,-36.578611,149.103333,2026-04-29T17:07:26.126638
2026/04/30 02:55:00,BRYB1WF1,144.4,Berrybank Development Pty Ltd,Berrybank Wind Farm,Wind,175.9,82.09,Berrybank Wind Farm,-37.94,143.52,2026-04-29T17:07:26.126638
2026/04/30 02:55:00,BRYB2WF2,82.55,Berrybank 2 Asset Pty Ltd as trustee for Berrybank 2 Asset Trust,Berrybank 2 Wind Farm,Wind,105.0,78.62,Berrybank 2 Wind Farm,-37.94,143.52,2026-04-29T17:07:26.126638
2026/04/30 02:55:00,BULGANA1,93.33,Bulgana Wind Farm Pty Ltd,Bulgana Green Power Hub,Wind,204.0,45.75,Bulgana Green Power Hub,-37.0975,142.973611,2026-04-29T17:07:26.126638
2026/04/30 02:55:00,CATHROCK,35.6,Cathedral Rocks Wind Farm Pty Ltd,Cathedral Rocks,Wind,66.0,53.94,Cathedral Rocks,-34.51,135.35,2026-04-29T17:07:26.126638
2026/04/30 02:55:00,CHYTWF1,6.03,Cherry Tree Wind Farm Pty Ltd as trustee for The Cherry Tree Project trust ,Cherry Tree Wind Farm,Wind,57.0,10.58,Cherry Tree Wind Farm,-37.1,145.26,2026-04-29T17:07:26.126638
2026/04/30 02:55:00,CLEMGPWF,26.29,Pacific Hydro Clements Gap Pty Ltd,Clements Gap Wind Farm,Wind,57.0,46.12,Clements Gap Wind Farm,-33.48,138.1,2026-04-29T17:07:26.126638
2026/04/30 02:55:00,CLRKCWF1,300.5,Stanwell Corporation Limited ,Clarke Creek Wind Farm,Wind,338.0,88.91,Clarke Creek Wind Farm,-22.85,149.45,2026-04-29T17:07:26.126638
2026/04/30 02:55:00,CLRKCWF2,91.64,Stanwell Corporation Limited ,Clarke Creek Wind Farm,Wind,101.0,90.73,Clarke Creek Wind Farm,-22.85,149.45,2026-04-29T17:07:26.126638
2026/04/30 02:55:00,CNUNDAWF,15.32,Canunda Power Pty Ltd,Canunda Wind Farm,Wind,46.0,33.3,Canunda Wind Farm,-37.73,140.39,2026-04-29T17:07:26.126638
2026/04/30 02:55:00,COLWF01,45.32,Collector Wind Farm Pty Ltd,Collector Wind Farm 1,Wind,219.0,20.69,Collector Wind Farm 1,-34.8719,149.3967,2026-04-29T17:07:26.126638
2026/04/30 02:55:00,COOPGWF1,273.94,PARF Company 10 Pty Limited as The Trustee for Coopers Gap Project Trust,Coopers Gap Wind Farm,Wind,440.0,62.26,Coopers Gap Wind Farm,-26.74,151.45,2026-04-29T17:07:26.126638
2026/04/30 02:55:00,CROOKWF2,21.33,Crookwell Development Pty Ltd ,Crookwell 2 Wind Farm,Wind,91.0,23.44,Crookwell 2 Wind Farm,-34.52,149.54,2026-04-29T17:07:26.126638
2026/04/30 02:55:00,CROOKWF3,13.71,Crookwell 3 Development Pty Ltd,Crookwell 3 Wind Farm,Wind,56.0,24.48,Crookwell 3 Wind Farm,-34.52,149.54,2026-04-29T17:07:26.126638
2026/04/30 02:55:00,CROWLWF1,72.21,Pacific Hydro Crowlands Pty Ltd ,Crowlands Wind Farm,Wind,79.0,91.41,Crowlands Wind Farm,-37.13,143.16,2026-04-29T17:07:26.126638
2026/04/30 02:55:00,CRURWF1,52.7,CRWF Nominees Pty Ltd As Trustee For The CRWF Trust,Crudine Ridge Wind Farm,Wind,138.0,38.19,Crudine Ridge Wind Farm,-32.97,149.64,2026-04-29T17:07:26.126638
2026/04/30 02:55:00,CTHLWF1,119.74,Wild Cattle Hill Pty Ltd,Cattle Hill Wind Farm,Wind,144.0,83.15,Cattle Hill Wind Farm,-42.15,146.69,2026-04-29T17:07:26.126638
2026/04/30 02:55:00,DULAWF1,142.8,Dulacca Energy Project Co Pty Ltd,Dulacca Wind Farm,Wind,173.0,82.54,Dulacca Wind Farm,-26.63,149.87,2026-04-29T17:07:26.126638
2026/04/30 02:55:00,DUNDWF1,68.39,Dundonnell Wind Farm Pty Ltd,Dundonnell Wind Farm,Wind,168.0,40.71,Dundonnell Wind Farm,-37.52,142.58,2026-04-29T17:07:26.126638
2026/04/30 02:55:00,DUNDWF2,17.77,Dundonnell Wind Farm Pty Ltd,Dundonnell Wind Farm,Wind,46.0,38.63,Dundonnell Wind Farm,-37.52,142.58,2026-04-29T17:07:26.126638
2026/04/30 02:55:00,DUNDWF3,41.23,Dundonnell Wind Farm Pty Ltd,Dundonnell Wind Farm,Wind,122.0,33.8,Dundonnell Wind Farm,-37.52,142.58,2026-04-29T17:07:26.126638
2026/04/30 02:55:00,ELAINWF1,44.84,Lal Lal Wind Farms Nom Co Pty Ltd,Elaine Wind Farm,Wind,82.0,54.68,Elaine Wind Farm,-37.36,144.0,2026-04-29T17:07:26.126638
2026/04/30 02:55:00,FLYCRKWF,108.66,Iberdrola Australia Energy Markets Pty Limited,Flyers Creek Wind Farm,Wind,140.0,77.61,Flyers Creek Wind Farm,-33.365556,148.981944,2026-04-29T17:07:26.126638
2026/04/30 02:55:00,GPWFEST1,132.97,Golden Plains WF1 Pty Ltd as Trustee for the Golden Plains WF1 Unit Trust,Golden Plains Wind Farm East,Wind,240.0,55.4,Golden Plains Wind Farm East,-37.945091,143.752614,2026-04-29T17:07:26.126638
2026/04/30 02:55:00,GPWFEST2,194.23,Golden Plains WF1 Pty Ltd as Trustee for the Golden Plains WF1 Unit Trust,Golden Plains Wind Farm East,Wind,253.0,76.77,Golden Plains Wind Farm East,-37.945091,143.752614,2026-04-29T17:07:26.126638
2026/04/30 02:55:00,GPWFEST3,204.52,Golden Plains WF1 Pty Ltd as Trustee for the Golden Plains WF1 Unit Trust,Golden Plains Wind Farm East,Wind,240.0,85.22,Golden Plains Wind Farm East,-37.945091,143.752614,2026-04-29T17:07:26.126638
2026/04/30 02:55:00,GRANWF1,104.84,Granville Harbour Operations Pty Ltd as The Trustee for Granville Harbour Operations Trust,Granville Harbour Wind Farm,Wind,111.0,94.45,Granville Harbour Wind Farm,-41.8,145.06,2026-04-29T17:07:26.126638
2026/04/30 02:55:00,GSWF1A,183.31,Goyder Wind Farm 1 Pty Ltd as the Trustee for Goyder Wind Farm 1 Trust,Goyder South Wind Farm 1A,Wind,201.0,91.2,Goyder South Wind Farm 1A,-33.679758,138.937597,2026-04-29T17:07:26.126638
2026/04/30 02:55:00,GSWF1B1,190.35,Goyder Wind Farm 1B Pty Ltd as the Trustee for the Goyder Wind Farm 1B Trust,Goyder South Wind Farm 1B,Wind,196.0,97.12,Goyder South Wind Farm 1B,-33.679758,138.937597,2026-04-29T17:07:26.126638
2026/04/30 02:55:00,GULLRWF1,44.15,New Gullen Range Wind Farm Pty Ltd,Gullen Range Wind Farm,Wind,161.0,27.42,Gullen Range Wind Farm,-34.34,149.27,2026-04-29T17:07:26.126638
2026/04/30 02:55:00,GULLRWF2,59.05,New Gullen Range Wind Farm Pty Ltd,Gullen Range Wind Farm,Wind,107.0,55.19,Gullen Range Wind Farm,-34.34,149.27,2026-04-29T17:07:26.126638
2026/04/30 02:55:00,GUNNING1,25.29,Gunning Wind Energy Developments Pty Ltd,Gunning Wind Farm,Wind,47.0,53.81,Gunning Wind Farm,-34.813333,149.4,2026-04-29T17:07:26.126638
2026/04/30 02:55:00,HALLWF1,32.33,AGL SA Generation Pty Limited,Hallett 1 Wind Farm,Wind,95.0,34.03,Hallett 1 Wind Farm,-33.367778,138.728611,2026-04-29T17:07:26.126638
2026/04/30 02:55:00,HALLWF2,28.91,AGL SA Generation Pty Limited,Hallett 2 Wind Farm,Wind,71.0,40.72,Hallett 2 Wind Farm,-33.367778,138.728611,2026-04-29T17:07:26.126638
2026/04/30 02:55:00,HD1WF1,86.15,Hawkesdale Asset Pty Ltd as trustee for Hawkesdale Asset Trust,Hawkesdale Wind Farm,Wind,89.0,96.8,Hawkesdale Wind Farm,-38.147894,142.361381,2026-04-29T17:07:26.126638
2026/04/30 02:55:00,HDWF1,22.8,HWF1 Pty Ltd,Hornsdale Wind Farm,Wind,102.0,22.35,Hornsdale Wind Farm,-33.050556,138.543611,2026-04-29T17:07:26.126638
2026/04/30 02:55:00,HDWF2,16.9,HWF 2 Pty Ltd,Hornsdale Wind Farm 2,Wind,102.0,16.57,Hornsdale Wind Farm 2,-33.06,138.54,2026-04-29T17:07:26.126638
2026/04/30 02:55:00,HDWF3,15.0,HWF3 Pty Ltd,Hornsdale Wind Farm 3,Wind,109.0,13.76,Hornsdale Wind Farm 3,-33.06,138.54,2026-04-29T17:07:26.126638
2026/04/30 02:55:00,KABANWF1,106.1,Kaban Wind Farm Pty Ltd as trustee for Kaban Wind Farm Trust,Kaban Wind Farm,Wind,152.0,69.8,Kaban Wind Farm,-17.56,145.41,2026-04-29T17:07:26.126638
2026/04/30 02:55:00,KEPWF1,30.2,Kennedy Energy Park Pty Ltd,Kennedy Energy Park,Wind,43.0,70.23,Kennedy Energy Park,-20.88,144.42,2026-04-29T17:07:26.126638
2026/04/30 02:55:00,KIATAWF1,30.9,Kiata ProjectCo Pty Ltd Atf Kiata Project Trust,Kiata Wind Farm,Wind,31.0,99.68,Kiata Wind Farm,-36.4,141.75,2026-04-29T17:07:26.126638
2026/04/30 02:55:00,LGAPWF1,73.24,Lincoln Gap Wind Farm (Operations) Pty Ltd,Lincoln Gap Wind Farm,Wind,123.0,59.54,Lincoln Gap Wind Farm,-32.564279,137.557328,2026-04-29T17:07:26.126638
2026/04/30 02:55:00,LGAPWF1,73.24,Lincoln Gap Wind Farm (Operations) Pty Ltd,Lincoln Gap Wind Farm,Wind,123.0,59.54,Lincoln Gap Wind Farm,-32.564279,137.557328,2026-04-29T17:07:26.126638
2026/04/30 02:55:00,LGAPWF2,67.3,Lincoln Gap Wind Farm (Operations) Pty Ltd,Lincoln Gap Wind Farm,Wind,85.0,79.18,Lincoln Gap Wind Farm,-32.564279,137.557328,2026-04-29T17:07:26.126638
2026/04/30 02:55:00,LGAPWF2,67.3,Lincoln Gap Wind Farm (Operations) Pty Ltd,Lincoln Gap Wind Farm,Wind,85.0,79.18,Lincoln Gap Wind Farm,-32.564279,137.557328,2026-04-29T17:07:26.126638
2026/04/30 02:55:00,LKBONNY1,22.77,Lake Bonney Wind Power Pty Ltd,Lake Bonney Wind Farm Stage 1,Wind,81.0,28.11,Lake Bonney Wind Farm Stage 1,-37.76,140.4,2026-04-29T17:07:26.126638
2026/04/30 02:55:00,LKBONNY2,46.84,Lake Bonney Wind Power Pty Ltd,Lake Bonney Stage 2 Windfarm,Wind,159.0,29.46,Lake Bonney Stage 2 Windfarm,-37.76,140.4,2026-04-29T17:07:26.126638
2026/04/30 02:55:00,LKBONNY3,10.16,Lake Bonney Wind Power Pty Ltd,Lake Bonney Stage 3 Wind Farm,Wind,39.0,26.05,Lake Bonney Stage 3 Wind Farm,-37.737781,140.388137,2026-04-29T17:07:26.126638
2026/04/30 02:55:00,MACARTH1,198.8,AGL Hydro Partnership,Macarthur Wind Farm,Wind,420.0,47.33,Macarthur Wind Farm,-38.048957,142.192112,2026-04-29T17:07:26.126638
2026/04/30 02:55:00,MCINTYR1,301.01,MacIntyre UJV Operator Pty Ltd,MacIntyre Wind Farm,Wind,890.0,33.82,MacIntyre Wind Farm,-28.32,151.54,2026-04-29T17:07:26.126638
2026/04/30 02:55:00,MERCER01,48.6,Mt Mercer Windfarm Pty Ltd,Mt Mercer Wind Farm,Wind,131.0,37.1,Mt Mercer Wind Farm,-37.841111,143.871111,2026-04-29T17:07:26.126638
2026/04/30 02:55:00,MEWF1,143.59,Ergon Energy Queensland Pty Ltd ,Mount Emerald Wind Farm,Wind,178.0,80.67,Mount Emerald Wind Farm,-17.133007,145.380644,2026-04-29T17:07:26.126638
2026/04/30 02:55:00,MRTLSWF1,47.04,Mortlake South Wind Farm Pty Ltd,Mortlake South Wind Farm,Wind,153.0,30.75,Mortlake South Wind Farm,-38.127337,142.857801,2026-04-29T17:07:26.126638
2026/04/30 02:55:00,MTGELWF1,5.69,Mt. Gellibrand Wind Farm Pty Ltd,Mt Gellibrand Wind Farm,Wind,132.0,4.31,Mt Gellibrand Wind Farm,-38.23,143.77,2026-04-29T17:07:26.126638
2026/04/30 02:55:00,MTMILLAR,50.4,Mt Millar Wind Farm Pty Ltd,Mt Millar Wind Farm,Wind,70.0,72.0,Mt Millar Wind Farm,-33.624444,136.703611,2026-04-29T17:07:26.126638
2026/04/30 02:55:00,MUSSELR1,0.0,Hydro-Electric Corporation,Musselroe Wind Farm,Wind,168.0,0.0,Musselroe Wind Farm,-40.780225,148.010799,2026-04-29T17:07:26.126638
2026/04/30 02:55:00,MUWAWF1,106.39,Telstra Energy (Generation) Pty Ltd,Murra Warra Wind Farm,Wind,225.7,47.14,Murra Warra Wind Farm,-36.432404,142.317853,2026-04-29T17:07:26.126638
2026/04/30 02:55:00,MUWAWF2,140.9,Murra Warra II Project Co Pty Ltd ATF The Murra Warra II Project Trust,Murra Warra Wind Farm Stage 2,Wind,203.0,69.41,Murra Warra Wind Farm Stage 2,-36.43,142.32,2026-04-29T17:07:26.126638
2026/04/30 02:55:00,NBHWF1,31.5,AGL SA Generation Pty Limited,North Brown Hill Wind Farm,Wind,132.0,23.86,North Brown Hill Wind Farm,-33.367778,138.728611,2026-04-29T17:07:26.126638
2026/04/30 02:55:00,OAKLAND1,0.0,AGL Hydro Partnership,Oaklands Hill Wind Farm,Wind,63.0,0.0,Oaklands Hill Wind Farm,-37.683078,142.551678,2026-04-29T17:07:26.126638
2026/04/30 02:55:00,PAREPW1,91.56,Iberdrola Australia Energy Markets Pty Limited,Port Augusta Renewable Energy Park,Wind,201.0,45.55,Port Augusta Renewable Energy Park,-32.566944,137.856111,2026-04-29T17:07:26.126638
2026/04/30 02:55:00,RYANCWF1,118.24,Ryan Corner Development Pty Ltd,Ryan Corner Wind Farm,Wind,205.0,57.68,Ryan Corner Wind Farm,-38.271017,142.140647,2026-04-29T17:07:26.126638
2026/04/30 02:55:00,RYEPARK1,136.82,Rye Park Renewable Energy Pty Ltd as trustee for Rye Park Wind Farm Trust,Rye Park Renewable Energy,Wind,384.0,35.63,Rye Park Renewable Energy,-32.138333,148.972778,2026-04-29T17:07:26.126638
2026/04/30 02:55:00,SALTCRK1,25.06,Salt Creek Wind Farm Pty Ltd,Salt Creek Wind Farm,Wind,54.0,46.41,Salt Creek Wind Farm,-37.95,142.63,2026-04-29T17:07:26.126638
2026/04/30 02:55:00,SAPHWF1,113.53,The Trustee For The SWF1 Operations Trust,Sapphire Wind Farm,Wind,270.0,42.05,Sapphire Wind Farm,-29.7,151.41,2026-04-29T17:07:26.126638
2026/04/30 02:55:00,SNOWNTH1,69.3,Snowtown Wind Farm Stage 2 Pty Ltd,Snowtown Wind Farm Stage 2 North,Wind,144.0,48.12,Snowtown Wind Farm Stage 2 North,-33.83,138.118611,2026-04-29T17:07:26.126638
2026/04/30 02:55:00,SNOWSTH1,92.5,Snowtown Wind Farm Stage 2 Pty Ltd,Snowtown South Wind Farm,Wind,126.0,73.41,Snowtown South Wind Farm,-33.83,138.118611,2026-04-29T17:07:26.126638
2026/04/30 02:55:00,SNOWTWN1,57.36,Snowtown Wind Farm Pty Ltd,Snowtown Wind Farm Units 1 And 47,Wind,99.0,57.94,Snowtown Wind Farm Units 1 And 47,-33.83,138.118611,2026-04-29T17:07:26.126638
2026/04/30 02:55:00,STARHLWF,14.2,Starfish Hill Wind Farm Pty Ltd,Starfish Hill Wind Farm,Wind,35.0,40.57,Starfish Hill Wind Farm,-35.58,138.14,2026-04-29T17:07:26.126638
2026/04/30 02:55:00,STOCKYD1,462.71,Stockyard Hill Wind Farm Pty Ltd,Stockyard Hill Wind Farm,Wind,511.0,90.55,Stockyard Hill Wind Farm,-37.535833,143.251389,2026-04-29T17:07:26.126638
2026/04/30 02:55:00,STWF1,60.98,PARF Company 8 Pty Ltd as The Trustee for Silverton Project Trust,Silverton Wind Farm,Wind,198.0,30.8,Silverton Wind Farm,-37.683168,142.551678,2026-04-29T17:07:26.126638
2026/04/30 02:55:00,TARALGA1,6.68,Taralga Wind Farm Nominees No 2 Pty Ltd (ATF Taralga Wind Farm Operating Trust),Taralga Wind Farm,Wind,106.0,6.3,Taralga Wind Farm,-34.42352,149.826267,2026-04-29T17:07:26.126638
2026/04/30 02:55:00,WAMBOWF1,140.16,Stanwell Corporation Limited,Wambo Wind Farm 1,Wind,245.0,57.21,Wambo Wind Farm 1,-35.187301,149.524945,2026-04-29T17:07:26.126638
2026/04/30 02:55:00,WATERLWF,57.5,Waterloo Wind Farm Pty Ltd,Waterloo Wind Farm,Wind,130.0,44.23,Waterloo Wind Farm,-34.00094,138.911567,2026-04-29T17:07:26.126638
2026/04/30 02:55:00,WGWF1,22.2,Willogoleche Power Pty Ltd As The Trustee For The Willogoleche Operating Trust,Willogoleche Wind Farm,Wind,119.0,18.66,Willogoleche Wind Farm,-33.39,138.85,2026-04-29T17:07:26.126638
2026/04/30 02:55:00,WOODLWN1,0.0,Woodlawn Wind Pty Ltd,Woodlawn Wind Farm,Wind,48.0,0.0,Woodlawn Wind Farm,-35.08,149.62,2026-04-29T17:07:26.126638
2026/04/30 02:55:00,WPWF,33.79,AGL SA Generation Pty Limited,Wattle Point Wind Farm,Wind,91.0,37.13,Wattle Point Wind Farm,-35.111624,137.7219,2026-04-29T17:07:26.126638
2026/04/30 02:55:00,WRWF1,140.94,White Rock Wind Farm Pty Ltd,White Rock Wind Farm,Wind,172.0,81.94,White Rock Wind Farm,-29.79,151.54,2026-04-29T17:07:26.126638
2026/04/30 02:55:00,YENDWF1,58.51,Lal Lal Wind Farms Nom Co Pty Ltd,Yendon Wind Farm,Wind,142.0,41.2,Yendon Wind Farm,-37.629987,144.022717,2026-04-29T17:07:26.126638
