SETTLEMENTDATE,DUID,SCADAVALUE,Participant,Station Name,Fuel Source - Primary,MAX_CAP,utilisation_pct,Plant,Latitude,Longitude,timestamp_utc
2026/03/30 07:30:00,CAPTL_WF,0.0,Iberdrola Australia Holdings Pty Limited,Capital Wind Farm,Wind,140.0,0.0,Capital Wind Farm,-35.1,149.31,2026-03-29T21:30:14.242454
2026/03/30 07:30:00,CHALLHWF,3.2,Pacific Hydro Challicum Hills Pty Ltd,Challicum Hills Wind Farm,Wind,52.0,6.15,Challicum Hills Wind Farm,-37.38,143.11,2026-03-29T21:30:14.242454
2026/03/30 07:30:00,CULLRGWF,3.99,Cullerin Range Wind Farm Pty Ltd,Cullerin Range Wind Farm,Wind,30.0,13.3,Cullerin Range Wind Farm,-34.81,149.4,2026-03-29T21:30:14.242454
2026/03/30 07:30:00,DIAPURWF1,6.1,Y.E.S. Energy (SA) Pty Ltd,Diapur Wind Farm,Wind,7.0,87.14,Diapur Wind Farm,-36.3425,141.43,2026-03-29T21:30:14.242454
2026/03/30 07:30:00,MLWF1,4.84,Mortons Lane Windfarm Pty Limited,Mortons Lane Wind Farm,Wind,20.0,24.2,Mortons Lane Wind Farm,-37.84,142.45,2026-03-29T21:30:14.242454
2026/03/30 07:30:00,WAUBRAWF,21.08,Pyrenees Wind Energy Developments Pty Ltd,Waubra Wind Farm,Wind,192.0,10.98,Waubra Wind Farm,-37.394498,143.638982,2026-03-29T21:30:14.242454
2026/03/30 07:30:00,WOOLNTH1,-0.45,Hydro-Electric Corporation,Woolnorth Studland Bay / Bluff Point Wind Farm,Wind,140.0,-0.32,Woolnorth Studland Bay / Bluff Point Wind Farm,-40.69,144.72,2026-03-29T21:30:14.242454
2026/03/30 07:30:00,YAMBUKWF,11.2,Energy Pacific (Vic) Pty Ltd,Yambuk Wind Farm,Wind,30.0,37.33,Yambuk Wind Farm,-38.299083,142.027577,2026-03-29T21:30:14.242454
2026/03/30 07:30:00,YSWF1,4.0,Pacific Hydro Yaloak South Pty Ltd,Yaloak South Wind Farm,Wind,28.0,14.29,Yaloak South Wind Farm,-37.7163,144.242853,2026-03-29T21:30:14.242454
2026/03/30 07:30:00,ARWF1,9.3,Ararat Wind Farm Pty Ltd,Ararat Wind Farm,Wind,241.0,3.86,Ararat Wind Farm,-37.232778,143.031389,2026-03-29T21:30:14.242454
2026/03/30 07:30:00,BALDHWF1,6.88,Alinta Energy Retail Sales Pty Ltd,Bald Hills Wind Farm,Wind,106.0,6.49,Bald Hills Wind Farm,-38.79,145.93,2026-03-29T21:30:14.242454
2026/03/30 07:30:00,BANGOWF1,22.3,BWF Nominees Pty Ltd as The Trustee for BWF Trust,Bango 973 Wind Farm,Wind,155.0,14.39,Bango 973 Wind Farm,-34.551582,148.732808,2026-03-29T21:30:14.242454
2026/03/30 07:30:00,BANGOWF2,10.9,BWF Nominees Pty Ltd as The Trustee for BWF Trust,Bango 999 Wind Farm,Wind,82.0,13.29,Bango 999 Wind Farm,-34.551582,148.732808,2026-03-29T21:30:14.242454
2026/03/30 07:30:00,BLUFF1,6.4,AGL SA Generation Pty Limited,The Bluff Wind Farm,Wind,53.0,12.08,The Bluff Wind Farm,-33.367778,138.728611,2026-03-29T21:30:14.242454
2026/03/30 07:30:00,BOCORWF1,17.01,Boco Rock Wind Farm Pty Ltd,Boco Rock Wind Farm,Wind,111.0,15.32,Boco Rock Wind Farm,-36.578611,149.103333,2026-03-29T21:30:14.242454
2026/03/30 07:30:00,BRYB1WF1,17.5,Berrybank Development Pty Ltd,Berrybank Wind Farm,Wind,175.9,9.95,Berrybank Wind Farm,-37.94,143.52,2026-03-29T21:30:14.242454
2026/03/30 07:30:00,BRYB2WF2,11.08,Berrybank 2 Asset Pty Ltd as trustee for Berrybank 2 Asset Trust,Berrybank 2 Wind Farm,Wind,105.0,10.55,Berrybank 2 Wind Farm,-37.94,143.52,2026-03-29T21:30:14.242454
2026/03/30 07:30:00,BULGANA1,10.33,Bulgana Wind Farm Pty Ltd,Bulgana Green Power Hub,Wind,204.0,5.06,Bulgana Green Power Hub,-37.0975,142.973611,2026-03-29T21:30:14.242454
2026/03/30 07:30:00,CATHROCK,39.2,Cathedral Rocks Wind Farm Pty Ltd,Cathedral Rocks,Wind,66.0,59.39,Cathedral Rocks,-34.51,135.35,2026-03-29T21:30:14.242454
2026/03/30 07:30:00,CHYTWF1,0.0,Cherry Tree Wind Farm Pty Ltd as trustee for The Cherry Tree Project trust ,Cherry Tree Wind Farm,Wind,57.0,0.0,Cherry Tree Wind Farm,-37.1,145.26,2026-03-29T21:30:14.242454
2026/03/30 07:30:00,CLEMGPWF,13.61,Pacific Hydro Clements Gap Pty Ltd,Clements Gap Wind Farm,Wind,57.0,23.88,Clements Gap Wind Farm,-33.48,138.1,2026-03-29T21:30:14.242454
2026/03/30 07:30:00,CLRKCWF1,228.5,Stanwell Corporation Limited ,Clarke Creek Wind Farm,Wind,338.0,67.6,Clarke Creek Wind Farm,-22.85,149.45,2026-03-29T21:30:14.242454
2026/03/30 07:30:00,CLRKCWF2,66.77,Stanwell Corporation Limited ,Clarke Creek Wind Farm,Wind,101.0,66.11,Clarke Creek Wind Farm,-22.85,149.45,2026-03-29T21:30:14.242454
2026/03/30 07:30:00,CNUNDAWF,11.51,Canunda Power Pty Ltd,Canunda Wind Farm,Wind,46.0,25.02,Canunda Wind Farm,-37.73,140.39,2026-03-29T21:30:14.242454
2026/03/30 07:30:00,COLWF01,5.57,Collector Wind Farm Pty Ltd,Collector Wind Farm 1,Wind,219.0,2.54,Collector Wind Farm 1,-34.8719,149.3967,2026-03-29T21:30:14.242454
2026/03/30 07:30:00,COOPGWF1,320.14,PARF Company 10 Pty Limited as The Trustee for Coopers Gap Project Trust,Coopers Gap Wind Farm,Wind,440.0,72.76,Coopers Gap Wind Farm,-26.74,151.45,2026-03-29T21:30:14.242454
2026/03/30 07:30:00,CROOKWF2,13.37,Crookwell Development Pty Ltd ,Crookwell 2 Wind Farm,Wind,91.0,14.69,Crookwell 2 Wind Farm,-34.52,149.54,2026-03-29T21:30:14.242454
2026/03/30 07:30:00,CROOKWF3,7.54,Crookwell 3 Development Pty Ltd,Crookwell 3 Wind Farm,Wind,56.0,13.46,Crookwell 3 Wind Farm,-34.52,149.54,2026-03-29T21:30:14.242454
2026/03/30 07:30:00,CROWLWF1,12.52,Pacific Hydro Crowlands Pty Ltd ,Crowlands Wind Farm,Wind,79.0,15.85,Crowlands Wind Farm,-37.13,143.16,2026-03-29T21:30:14.242454
2026/03/30 07:30:00,CRURWF1,13.1,CRWF Nominees Pty Ltd As Trustee For The CRWF Trust,Crudine Ridge Wind Farm,Wind,138.0,9.49,Crudine Ridge Wind Farm,-32.97,149.64,2026-03-29T21:30:14.242454
2026/03/30 07:30:00,CTHLWF1,6.97,Wild Cattle Hill Pty Ltd,Cattle Hill Wind Farm,Wind,144.0,4.84,Cattle Hill Wind Farm,-42.15,146.69,2026-03-29T21:30:14.242454
2026/03/30 07:30:00,DULAWF1,66.7,Dulacca Energy Project Co Pty Ltd,Dulacca Wind Farm,Wind,173.0,38.55,Dulacca Wind Farm,-26.63,149.87,2026-03-29T21:30:14.242454
2026/03/30 07:30:00,DUNDWF1,60.12,Dundonnell Wind Farm Pty Ltd,Dundonnell Wind Farm,Wind,168.0,35.79,Dundonnell Wind Farm,-37.52,142.58,2026-03-29T21:30:14.242454
2026/03/30 07:30:00,DUNDWF2,10.05,Dundonnell Wind Farm Pty Ltd,Dundonnell Wind Farm,Wind,46.0,21.85,Dundonnell Wind Farm,-37.52,142.58,2026-03-29T21:30:14.242454
2026/03/30 07:30:00,DUNDWF3,39.72,Dundonnell Wind Farm Pty Ltd,Dundonnell Wind Farm,Wind,122.0,32.56,Dundonnell Wind Farm,-37.52,142.58,2026-03-29T21:30:14.242454
2026/03/30 07:30:00,ELAINWF1,15.61,Lal Lal Wind Farms Nom Co Pty Ltd,Elaine Wind Farm,Wind,82.0,19.04,Elaine Wind Farm,-37.36,144.0,2026-03-29T21:30:14.242454
2026/03/30 07:30:00,FLYCRKWF,22.46,Iberdrola Australia Energy Markets Pty Limited,Flyers Creek Wind Farm,Wind,140.0,16.04,Flyers Creek Wind Farm,-33.365556,148.981944,2026-03-29T21:30:14.242454
2026/03/30 07:30:00,GPWFEST1,3.64,Golden Plains WF1 Pty Ltd as Trustee for the Golden Plains WF1 Unit Trust,Golden Plains Wind Farm East,Wind,240.0,1.52,Golden Plains Wind Farm East,-37.945091,143.752614,2026-03-29T21:30:14.242454
2026/03/30 07:30:00,GPWFEST2,3.75,Golden Plains WF1 Pty Ltd as Trustee for the Golden Plains WF1 Unit Trust,Golden Plains Wind Farm East,Wind,253.0,1.48,Golden Plains Wind Farm East,-37.945091,143.752614,2026-03-29T21:30:14.242454
2026/03/30 07:30:00,GPWFEST3,12.82,Golden Plains WF1 Pty Ltd as Trustee for the Golden Plains WF1 Unit Trust,Golden Plains Wind Farm East,Wind,240.0,5.34,Golden Plains Wind Farm East,-37.945091,143.752614,2026-03-29T21:30:14.242454
2026/03/30 07:30:00,GRANWF1,6.21,Granville Harbour Operations Pty Ltd as The Trustee for Granville Harbour Operations Trust,Granville Harbour Wind Farm,Wind,111.0,5.59,Granville Harbour Wind Farm,-41.8,145.06,2026-03-29T21:30:14.242454
2026/03/30 07:30:00,GSWF1A,16.65,Goyder Wind Farm 1 Pty Ltd as the Trustee for Goyder Wind Farm 1 Trust,Goyder South Wind Farm 1A,Wind,201.0,8.28,Goyder South Wind Farm 1A,-33.679758,138.937597,2026-03-29T21:30:14.242454
2026/03/30 07:30:00,GSWF1B1,17.87,Goyder Wind Farm 1B Pty Ltd as the Trustee for the Goyder Wind Farm 1B Trust,Goyder South Wind Farm 1B,Wind,196.0,9.12,Goyder South Wind Farm 1B,-33.679758,138.937597,2026-03-29T21:30:14.242454
2026/03/30 07:30:00,GULLRWF1,31.45,New Gullen Range Wind Farm Pty Ltd,Gullen Range Wind Farm,Wind,161.0,19.53,Gullen Range Wind Farm,-34.34,149.27,2026-03-29T21:30:14.242454
2026/03/30 07:30:00,GULLRWF2,24.53,New Gullen Range Wind Farm Pty Ltd,Gullen Range Wind Farm,Wind,107.0,22.93,Gullen Range Wind Farm,-34.34,149.27,2026-03-29T21:30:14.242454
2026/03/30 07:30:00,GUNNING1,11.67,Gunning Wind Energy Developments Pty Ltd,Gunning Wind Farm,Wind,47.0,24.83,Gunning Wind Farm,-34.813333,149.4,2026-03-29T21:30:14.242454
2026/03/30 07:30:00,HALLWF1,2.29,AGL SA Generation Pty Limited,Hallett 1 Wind Farm,Wind,95.0,2.41,Hallett 1 Wind Farm,-33.367778,138.728611,2026-03-29T21:30:14.242454
2026/03/30 07:30:00,HALLWF2,4.48,AGL SA Generation Pty Limited,Hallett 2 Wind Farm,Wind,71.0,6.31,Hallett 2 Wind Farm,-33.367778,138.728611,2026-03-29T21:30:14.242454
2026/03/30 07:30:00,HD1WF1,83.77,Hawkesdale Asset Pty Ltd as trustee for Hawkesdale Asset Trust,Hawkesdale Wind Farm,Wind,89.0,94.12,Hawkesdale Wind Farm,-38.147894,142.361381,2026-03-29T21:30:14.242454
2026/03/30 07:30:00,HDWF1,20.8,HWF1 Pty Ltd,Hornsdale Wind Farm,Wind,102.0,20.39,Hornsdale Wind Farm,-33.050556,138.543611,2026-03-29T21:30:14.242454
2026/03/30 07:30:00,HDWF2,15.7,HWF 2 Pty Ltd,Hornsdale Wind Farm 2,Wind,102.0,15.39,Hornsdale Wind Farm 2,-33.06,138.54,2026-03-29T21:30:14.242454
2026/03/30 07:30:00,HDWF3,16.5,HWF3 Pty Ltd,Hornsdale Wind Farm 3,Wind,109.0,15.14,Hornsdale Wind Farm 3,-33.06,138.54,2026-03-29T21:30:14.242454
2026/03/30 07:30:00,KABANWF1,91.11,Kaban Wind Farm Pty Ltd as trustee for Kaban Wind Farm Trust,Kaban Wind Farm,Wind,152.0,59.94,Kaban Wind Farm,-17.56,145.41,2026-03-29T21:30:14.242454
2026/03/30 07:30:00,KEPWF1,27.2,Kennedy Energy Park Pty Ltd,Kennedy Energy Park,Wind,43.0,63.26,Kennedy Energy Park,-20.88,144.42,2026-03-29T21:30:14.242454
2026/03/30 07:30:00,KIATAWF1,4.5,Kiata ProjectCo Pty Ltd Atf Kiata Project Trust,Kiata Wind Farm,Wind,31.0,14.52,Kiata Wind Farm,-36.4,141.75,2026-03-29T21:30:14.242454
2026/03/30 07:30:00,LGAPWF1,30.07,Lincoln Gap Wind Farm (Operations) Pty Ltd,Lincoln Gap Wind Farm,Wind,123.0,24.45,Lincoln Gap Wind Farm,-32.564279,137.557328,2026-03-29T21:30:14.242454
2026/03/30 07:30:00,LGAPWF1,30.07,Lincoln Gap Wind Farm (Operations) Pty Ltd,Lincoln Gap Wind Farm,Wind,123.0,24.45,Lincoln Gap Wind Farm,-32.564279,137.557328,2026-03-29T21:30:14.242454
2026/03/30 07:30:00,LGAPWF2,36.14,Lincoln Gap Wind Farm (Operations) Pty Ltd,Lincoln Gap Wind Farm,Wind,85.0,42.52,Lincoln Gap Wind Farm,-32.564279,137.557328,2026-03-29T21:30:14.242454
2026/03/30 07:30:00,LGAPWF2,36.14,Lincoln Gap Wind Farm (Operations) Pty Ltd,Lincoln Gap Wind Farm,Wind,85.0,42.52,Lincoln Gap Wind Farm,-32.564279,137.557328,2026-03-29T21:30:14.242454
2026/03/30 07:30:00,LKBONNY1,22.51,Lake Bonney Wind Power Pty Ltd,Lake Bonney Wind Farm Stage 1,Wind,81.0,27.79,Lake Bonney Wind Farm Stage 1,-37.76,140.4,2026-03-29T21:30:14.242454
2026/03/30 07:30:00,LKBONNY2,43.15,Lake Bonney Wind Power Pty Ltd,Lake Bonney Stage 2 Windfarm,Wind,159.0,27.14,Lake Bonney Stage 2 Windfarm,-37.76,140.4,2026-03-29T21:30:14.242454
2026/03/30 07:30:00,LKBONNY3,10.1,Lake Bonney Wind Power Pty Ltd,Lake Bonney Stage 3 Wind Farm,Wind,39.0,25.9,Lake Bonney Stage 3 Wind Farm,-37.737781,140.388137,2026-03-29T21:30:14.242454
2026/03/30 07:30:00,MACARTH1,169.2,AGL Hydro Partnership,Macarthur Wind Farm,Wind,420.0,40.29,Macarthur Wind Farm,-38.048957,142.192112,2026-03-29T21:30:14.242454
2026/03/30 07:30:00,MCINTYR1,285.57,MacIntyre UJV Operator Pty Ltd,MacIntyre Wind Farm,Wind,890.0,32.09,MacIntyre Wind Farm,-28.32,151.54,2026-03-29T21:30:14.242454
2026/03/30 07:30:00,MERCER01,50.2,Mt Mercer Windfarm Pty Ltd,Mt Mercer Wind Farm,Wind,131.0,38.32,Mt Mercer Wind Farm,-37.841111,143.871111,2026-03-29T21:30:14.242454
2026/03/30 07:30:00,MEWF1,103.12,Ergon Energy Queensland Pty Ltd ,Mount Emerald Wind Farm,Wind,178.0,57.93,Mount Emerald Wind Farm,-17.133007,145.380644,2026-03-29T21:30:14.242454
2026/03/30 07:30:00,MRTLSWF1,24.76,Mortlake South Wind Farm Pty Ltd,Mortlake South Wind Farm,Wind,153.0,16.18,Mortlake South Wind Farm,-38.127337,142.857801,2026-03-29T21:30:14.242454
2026/03/30 07:30:00,MTGELWF1,3.59,Mt. Gellibrand Wind Farm Pty Ltd,Mt Gellibrand Wind Farm,Wind,132.0,2.72,Mt Gellibrand Wind Farm,-38.23,143.77,2026-03-29T21:30:14.242454
2026/03/30 07:30:00,MTMILLAR,63.3,Mt Millar Wind Farm Pty Ltd,Mt Millar Wind Farm,Wind,70.0,90.43,Mt Millar Wind Farm,-33.624444,136.703611,2026-03-29T21:30:14.242454
2026/03/30 07:30:00,MUSSELR1,0.0,Hydro-Electric Corporation,Musselroe Wind Farm,Wind,168.0,0.0,Musselroe Wind Farm,-40.780225,148.010799,2026-03-29T21:30:14.242454
2026/03/30 07:30:00,MUWAWF1,25.76,Telstra Energy (Generation) Pty Ltd,Murra Warra Wind Farm,Wind,225.7,11.41,Murra Warra Wind Farm,-36.432404,142.317853,2026-03-29T21:30:14.242454
2026/03/30 07:30:00,MUWAWF2,48.0,Murra Warra II Project Co Pty Ltd ATF The Murra Warra II Project Trust,Murra Warra Wind Farm Stage 2,Wind,203.0,23.65,Murra Warra Wind Farm Stage 2,-36.43,142.32,2026-03-29T21:30:14.242454
2026/03/30 07:30:00,NBHWF1,10.4,AGL SA Generation Pty Limited,North Brown Hill Wind Farm,Wind,132.0,7.88,North Brown Hill Wind Farm,-33.367778,138.728611,2026-03-29T21:30:14.242454
2026/03/30 07:30:00,OAKLAND1,7.0,AGL Hydro Partnership,Oaklands Hill Wind Farm,Wind,63.0,11.11,Oaklands Hill Wind Farm,-37.683078,142.551678,2026-03-29T21:30:14.242454
2026/03/30 07:30:00,PAREPW1,35.27,Iberdrola Australia Energy Markets Pty Limited,Port Augusta Renewable Energy Park,Wind,201.0,17.55,Port Augusta Renewable Energy Park,-32.566944,137.856111,2026-03-29T21:30:14.242454
2026/03/30 07:30:00,RYANCWF1,101.39,Ryan Corner Development Pty Ltd,Ryan Corner Wind Farm,Wind,205.0,49.46,Ryan Corner Wind Farm,-38.271017,142.140647,2026-03-29T21:30:14.242454
2026/03/30 07:30:00,RYEPARK1,59.63,Rye Park Renewable Energy Pty Ltd as trustee for Rye Park Wind Farm Trust,Rye Park Renewable Energy,Wind,384.0,15.53,Rye Park Renewable Energy,-32.138333,148.972778,2026-03-29T21:30:14.242454
2026/03/30 07:30:00,SALTCRK1,19.15,Salt Creek Wind Farm Pty Ltd,Salt Creek Wind Farm,Wind,54.0,35.46,Salt Creek Wind Farm,-37.95,142.63,2026-03-29T21:30:14.242454
2026/03/30 07:30:00,SAPHWF1,44.93,The Trustee For The SWF1 Operations Trust,Sapphire Wind Farm,Wind,270.0,16.64,Sapphire Wind Farm,-29.7,151.41,2026-03-29T21:30:14.242454
2026/03/30 07:30:00,SNOWNTH1,27.7,Snowtown Wind Farm Stage 2 Pty Ltd,Snowtown Wind Farm Stage 2 North,Wind,144.0,19.24,Snowtown Wind Farm Stage 2 North,-33.83,138.118611,2026-03-29T21:30:14.242454
2026/03/30 07:30:00,SNOWSTH1,7.8,Snowtown Wind Farm Stage 2 Pty Ltd,Snowtown South Wind Farm,Wind,126.0,6.19,Snowtown South Wind Farm,-33.83,138.118611,2026-03-29T21:30:14.242454
2026/03/30 07:30:00,SNOWTWN1,20.93,Snowtown Wind Farm Pty Ltd,Snowtown Wind Farm Units 1 And 47,Wind,99.0,21.14,Snowtown Wind Farm Units 1 And 47,-33.83,138.118611,2026-03-29T21:30:14.242454
2026/03/30 07:30:00,STARHLWF,5.1,Starfish Hill Wind Farm Pty Ltd,Starfish Hill Wind Farm,Wind,35.0,14.57,Starfish Hill Wind Farm,-35.58,138.14,2026-03-29T21:30:14.242454
2026/03/30 07:30:00,STOCKYD1,53.12,Stockyard Hill Wind Farm Pty Ltd,Stockyard Hill Wind Farm,Wind,511.0,10.4,Stockyard Hill Wind Farm,-37.535833,143.251389,2026-03-29T21:30:14.242454
2026/03/30 07:30:00,STWF1,32.46,PARF Company 8 Pty Ltd as The Trustee for Silverton Project Trust,Silverton Wind Farm,Wind,198.0,16.39,Silverton Wind Farm,-37.683168,142.551678,2026-03-29T21:30:14.242454
2026/03/30 07:30:00,TARALGA1,9.07,Taralga Wind Farm Nominees No 2 Pty Ltd (ATF Taralga Wind Farm Operating Trust),Taralga Wind Farm,Wind,106.0,8.56,Taralga Wind Farm,-34.42352,149.826267,2026-03-29T21:30:14.242454
2026/03/30 07:30:00,WAMBOWF1,112.0,Stanwell Corporation Limited,Wambo Wind Farm 1,Wind,245.0,45.71,Wambo Wind Farm 1,-35.187301,149.524945,2026-03-29T21:30:14.242454
2026/03/30 07:30:00,WATERLWF,13.1,Waterloo Wind Farm Pty Ltd,Waterloo Wind Farm,Wind,130.0,10.08,Waterloo Wind Farm,-34.00094,138.911567,2026-03-29T21:30:14.242454
2026/03/30 07:30:00,WGWF1,16.3,Willogoleche Power Pty Ltd As The Trustee For The Willogoleche Operating Trust,Willogoleche Wind Farm,Wind,119.0,13.7,Willogoleche Wind Farm,-33.39,138.85,2026-03-29T21:30:14.242454
2026/03/30 07:30:00,WOODLWN1,0.0,Woodlawn Wind Pty Ltd,Woodlawn Wind Farm,Wind,48.0,0.0,Woodlawn Wind Farm,-35.08,149.62,2026-03-29T21:30:14.242454
2026/03/30 07:30:00,WPWF,14.85,AGL SA Generation Pty Limited,Wattle Point Wind Farm,Wind,91.0,16.32,Wattle Point Wind Farm,-35.111624,137.7219,2026-03-29T21:30:14.242454
2026/03/30 07:30:00,WRWF1,0.73,White Rock Wind Farm Pty Ltd,White Rock Wind Farm,Wind,172.0,0.42,White Rock Wind Farm,-29.79,151.54,2026-03-29T21:30:14.242454
2026/03/30 07:30:00,YENDWF1,23.01,Lal Lal Wind Farms Nom Co Pty Ltd,Yendon Wind Farm,Wind,142.0,16.2,Yendon Wind Farm,-37.629987,144.022717,2026-03-29T21:30:14.242454
