SETTLEMENTDATE,DUID,SCADAVALUE,Participant,Station Name,Fuel Source - Primary,MAX_CAP,utilisation_pct,Plant,Latitude,Longitude,timestamp_utc
2026/01/31 14:20:00,CAPTL_WF,19.0,Iberdrola Australia Holdings Pty Limited,Capital Wind Farm,Wind,140.0,13.57,Capital Wind Farm,-35.1,149.31,2026-01-31T04:19:27.145248
2026/01/31 14:20:00,CHALLHWF,4.3,Pacific Hydro Challicum Hills Pty Ltd,Challicum Hills Wind Farm,Wind,52.0,8.27,Challicum Hills Wind Farm,-37.38,143.11,2026-01-31T04:19:27.145248
2026/01/31 14:20:00,CULLRGWF,4.87,Cullerin Range Wind Farm Pty Ltd,Cullerin Range Wind Farm,Wind,30.0,16.23,Cullerin Range Wind Farm,-34.81,149.4,2026-01-31T04:19:27.145248
2026/01/31 14:20:00,DIAPURWF1,5.5,Y.E.S. Energy (SA) Pty Ltd,Diapur Wind Farm,Wind,7.0,78.57,Diapur Wind Farm,-36.3425,141.43,2026-01-31T04:19:27.145248
2026/01/31 14:20:00,MLWF1,10.84,Mortons Lane Windfarm Pty Limited,Mortons Lane Wind Farm,Wind,20.0,54.2,Mortons Lane Wind Farm,-37.84,142.45,2026-01-31T04:19:27.145248
2026/01/31 14:20:00,WAUBRAWF,100.92,Pyrenees Wind Energy Developments Pty Ltd,Waubra Wind Farm,Wind,192.0,52.56,Waubra Wind Farm,-37.394498,143.638982,2026-01-31T04:19:27.145248
2026/01/31 14:20:00,WOOLNTH1,33.63,Hydro-Electric Corporation,Woolnorth Studland Bay / Bluff Point Wind Farm,Wind,140.0,24.02,Woolnorth Studland Bay / Bluff Point Wind Farm,-40.69,144.72,2026-01-31T04:19:27.145248
2026/01/31 14:20:00,YAMBUKWF,3.2,Energy Pacific (Vic) Pty Ltd,Yambuk Wind Farm,Wind,30.0,10.67,Yambuk Wind Farm,-38.299083,142.027577,2026-01-31T04:19:27.145248
2026/01/31 14:20:00,YSWF1,1.2,Pacific Hydro Yaloak South Pty Ltd,Yaloak South Wind Farm,Wind,28.0,4.29,Yaloak South Wind Farm,-37.7163,144.242853,2026-01-31T04:19:27.145248
2026/01/31 14:20:00,ARWF1,113.1,Ararat Wind Farm Pty Ltd,Ararat Wind Farm,Wind,241.0,46.93,Ararat Wind Farm,-37.232778,143.031389,2026-01-31T04:19:27.145248
2026/01/31 14:20:00,BALDHWF1,11.35,Alinta Energy Retail Sales Pty Ltd,Bald Hills Wind Farm,Wind,106.0,10.71,Bald Hills Wind Farm,-38.79,145.93,2026-01-31T04:19:27.145248
2026/01/31 14:20:00,BANGOWF1,27.5,BWF Nominees Pty Ltd as The Trustee for BWF Trust,Bango 973 Wind Farm,Wind,155.0,17.74,Bango 973 Wind Farm,-34.551582,148.732808,2026-01-31T04:19:27.145248
2026/01/31 14:20:00,BANGOWF2,24.2,BWF Nominees Pty Ltd as The Trustee for BWF Trust,Bango 999 Wind Farm,Wind,82.0,29.51,Bango 999 Wind Farm,-34.551582,148.732808,2026-01-31T04:19:27.145248
2026/01/31 14:20:00,BLUFF1,11.9,AGL SA Generation Pty Limited,The Bluff Wind Farm,Wind,53.0,22.45,The Bluff Wind Farm,-33.367778,138.728611,2026-01-31T04:19:27.145248
2026/01/31 14:20:00,BOCORWF1,66.96,Boco Rock Wind Farm Pty Ltd,Boco Rock Wind Farm,Wind,111.0,60.32,Boco Rock Wind Farm,-36.578611,149.103333,2026-01-31T04:19:27.145248
2026/01/31 14:20:00,BRYB1WF1,56.73,Berrybank Development Pty Ltd,Berrybank Wind Farm,Wind,175.9,32.25,Berrybank Wind Farm,-37.94,143.52,2026-01-31T04:19:27.145248
2026/01/31 14:20:00,BRYB2WF2,39.62,Berrybank 2 Asset Pty Ltd as trustee for Berrybank 2 Asset Trust,Berrybank 2 Wind Farm,Wind,105.0,37.73,Berrybank 2 Wind Farm,-37.94,143.52,2026-01-31T04:19:27.145248
2026/01/31 14:20:00,BULGANA1,0.0,Bulgana Wind Farm Pty Ltd,Bulgana Green Power Hub,Wind,204.0,0.0,Bulgana Green Power Hub,-37.0975,142.973611,2026-01-31T04:19:27.145248
2026/01/31 14:20:00,CATHROCK,39.0,Cathedral Rocks Wind Farm Pty Ltd,Cathedral Rocks,Wind,66.0,59.09,Cathedral Rocks,-34.51,135.35,2026-01-31T04:19:27.145248
2026/01/31 14:20:00,CHYTWF1,2.81,Cherry Tree Wind Farm Pty Ltd as trustee for The Cherry Tree Project trust ,Cherry Tree Wind Farm,Wind,57.0,4.93,Cherry Tree Wind Farm,-37.1,145.26,2026-01-31T04:19:27.145248
2026/01/31 14:20:00,CLEMGPWF,52.37,Pacific Hydro Clements Gap Pty Ltd,Clements Gap Wind Farm,Wind,57.0,91.88,Clements Gap Wind Farm,-33.48,138.1,2026-01-31T04:19:27.145248
2026/01/31 14:20:00,CLRKCWF1,0.0,Stanwell Corporation Limited ,Clarke Creek Wind Farm,Wind,338.0,0.0,Clarke Creek Wind Farm,-22.85,149.45,2026-01-31T04:19:27.145248
2026/01/31 14:20:00,CLRKCWF2,1.07,Stanwell Corporation Limited ,Clarke Creek Wind Farm,Wind,101.0,1.06,Clarke Creek Wind Farm,-22.85,149.45,2026-01-31T04:19:27.145248
2026/01/31 14:20:00,CNUNDAWF,22.03,Canunda Power Pty Ltd,Canunda Wind Farm,Wind,46.0,47.89,Canunda Wind Farm,-37.73,140.39,2026-01-31T04:19:27.145248
2026/01/31 14:20:00,COLWF01,36.6,Collector Wind Farm Pty Ltd,Collector Wind Farm 1,Wind,219.0,16.71,Collector Wind Farm 1,-34.8719,149.3967,2026-01-31T04:19:27.145248
2026/01/31 14:20:00,COOPGWF1,16.55,PARF Company 10 Pty Limited as The Trustee for Coopers Gap Project Trust,Coopers Gap Wind Farm,Wind,440.0,3.76,Coopers Gap Wind Farm,-26.74,151.45,2026-01-31T04:19:27.145248
2026/01/31 14:20:00,CROOKWF2,28.16,Crookwell Development Pty Ltd ,Crookwell 2 Wind Farm,Wind,91.0,30.95,Crookwell 2 Wind Farm,-34.52,149.54,2026-01-31T04:19:27.145248
2026/01/31 14:20:00,CROOKWF3,22.47,Crookwell 3 Development Pty Ltd,Crookwell 3 Wind Farm,Wind,56.0,40.12,Crookwell 3 Wind Farm,-34.52,149.54,2026-01-31T04:19:27.145248
2026/01/31 14:20:00,CROWLWF1,40.85,Pacific Hydro Crowlands Pty Ltd ,Crowlands Wind Farm,Wind,79.0,51.71,Crowlands Wind Farm,-37.13,143.16,2026-01-31T04:19:27.145248
2026/01/31 14:20:00,CRURWF1,27.4,CRWF Nominees Pty Ltd As Trustee For The CRWF Trust,Crudine Ridge Wind Farm,Wind,138.0,19.86,Crudine Ridge Wind Farm,-32.97,149.64,2026-01-31T04:19:27.145248
2026/01/31 14:20:00,CTHLWF1,27.74,Wild Cattle Hill Pty Ltd,Cattle Hill Wind Farm,Wind,144.0,19.26,Cattle Hill Wind Farm,-42.15,146.69,2026-01-31T04:19:27.145248
2026/01/31 14:20:00,DULAWF1,31.9,Dulacca Energy Project Co Pty Ltd,Dulacca Wind Farm,Wind,173.0,18.44,Dulacca Wind Farm,-26.63,149.87,2026-01-31T04:19:27.145248
2026/01/31 14:20:00,DUNDWF1,69.32,Dundonnell Wind Farm Pty Ltd,Dundonnell Wind Farm,Wind,168.0,41.26,Dundonnell Wind Farm,-37.52,142.58,2026-01-31T04:19:27.145248
2026/01/31 14:20:00,DUNDWF2,14.57,Dundonnell Wind Farm Pty Ltd,Dundonnell Wind Farm,Wind,46.0,31.67,Dundonnell Wind Farm,-37.52,142.58,2026-01-31T04:19:27.145248
2026/01/31 14:20:00,DUNDWF3,66.13,Dundonnell Wind Farm Pty Ltd,Dundonnell Wind Farm,Wind,122.0,54.2,Dundonnell Wind Farm,-37.52,142.58,2026-01-31T04:19:27.145248
2026/01/31 14:20:00,ELAINWF1,16.03,Lal Lal Wind Farms Nom Co Pty Ltd,Elaine Wind Farm,Wind,82.0,19.55,Elaine Wind Farm,-37.36,144.0,2026-01-31T04:19:27.145248
2026/01/31 14:20:00,FLYCRKWF,17.17,Iberdrola Australia Energy Markets Pty Limited,Flyers Creek Wind Farm,Wind,140.0,12.26,Flyers Creek Wind Farm,-33.365556,148.981944,2026-01-31T04:19:27.145248
2026/01/31 14:20:00,GPWFEST1,75.31,Golden Plains WF1 Pty Ltd as Trustee for the Golden Plains WF1 Unit Trust,Golden Plains Wind Farm East,Wind,240.0,31.38,Golden Plains Wind Farm East,-37.945091,143.752614,2026-01-31T04:19:27.145248
2026/01/31 14:20:00,GPWFEST2,50.13,Golden Plains WF1 Pty Ltd as Trustee for the Golden Plains WF1 Unit Trust,Golden Plains Wind Farm East,Wind,253.0,19.81,Golden Plains Wind Farm East,-37.945091,143.752614,2026-01-31T04:19:27.145248
2026/01/31 14:20:00,GPWFEST3,36.26,Golden Plains WF1 Pty Ltd as Trustee for the Golden Plains WF1 Unit Trust,Golden Plains Wind Farm East,Wind,240.0,15.11,Golden Plains Wind Farm East,-37.945091,143.752614,2026-01-31T04:19:27.145248
2026/01/31 14:20:00,GRANWF1,11.57,Granville Harbour Operations Pty Ltd as The Trustee for Granville Harbour Operations Trust,Granville Harbour Wind Farm,Wind,111.0,10.42,Granville Harbour Wind Farm,-41.8,145.06,2026-01-31T04:19:27.145248
2026/01/31 14:20:00,GSWF1A,128.17,Goyder Wind Farm 1 Pty Ltd as the Trustee for Goyder Wind Farm 1 Trust,Goyder South Wind Farm 1A,Wind,201.0,63.77,Goyder South Wind Farm 1A,-33.679758,138.937597,2026-01-31T04:19:27.145248
2026/01/31 14:20:00,GSWF1B1,95.82,Goyder Wind Farm 1B Pty Ltd as the Trustee for the Goyder Wind Farm 1B Trust,Goyder South Wind Farm 1B,Wind,196.0,48.89,Goyder South Wind Farm 1B,-33.679758,138.937597,2026-01-31T04:19:27.145248
2026/01/31 14:20:00,GULLRWF1,33.63,New Gullen Range Wind Farm Pty Ltd,Gullen Range Wind Farm,Wind,161.0,20.89,Gullen Range Wind Farm,-34.34,149.27,2026-01-31T04:19:27.145248
2026/01/31 14:20:00,GULLRWF2,52.08,New Gullen Range Wind Farm Pty Ltd,Gullen Range Wind Farm,Wind,107.0,48.67,Gullen Range Wind Farm,-34.34,149.27,2026-01-31T04:19:27.145248
2026/01/31 14:20:00,GUNNING1,18.21,Gunning Wind Energy Developments Pty Ltd,Gunning Wind Farm,Wind,47.0,38.74,Gunning Wind Farm,-34.813333,149.4,2026-01-31T04:19:27.145248
2026/01/31 14:20:00,HALLWF1,58.28,AGL SA Generation Pty Limited,Hallett 1 Wind Farm,Wind,95.0,61.35,Hallett 1 Wind Farm,-33.367778,138.728611,2026-01-31T04:19:27.145248
2026/01/31 14:20:00,HALLWF2,46.99,AGL SA Generation Pty Limited,Hallett 2 Wind Farm,Wind,71.0,66.18,Hallett 2 Wind Farm,-33.367778,138.728611,2026-01-31T04:19:27.145248
2026/01/31 14:20:00,HD1WF1,28.26,Hawkesdale Asset Pty Ltd as trustee for Hawkesdale Asset Trust,Hawkesdale Wind Farm,Wind,89.0,31.75,Hawkesdale Wind Farm,-38.147894,142.361381,2026-01-31T04:19:27.145248
2026/01/31 14:20:00,HDWF1,85.6,HWF1 Pty Ltd,Hornsdale Wind Farm,Wind,102.0,83.92,Hornsdale Wind Farm,-33.050556,138.543611,2026-01-31T04:19:27.145248
2026/01/31 14:20:00,HDWF2,85.3,HWF 2 Pty Ltd,Hornsdale Wind Farm 2,Wind,102.0,83.63,Hornsdale Wind Farm 2,-33.06,138.54,2026-01-31T04:19:27.145248
2026/01/31 14:20:00,HDWF3,90.3,HWF3 Pty Ltd,Hornsdale Wind Farm 3,Wind,109.0,82.84,Hornsdale Wind Farm 3,-33.06,138.54,2026-01-31T04:19:27.145248
2026/01/31 14:20:00,KABANWF1,0.14,Kaban Wind Farm Pty Ltd as trustee for Kaban Wind Farm Trust,Kaban Wind Farm,Wind,152.0,0.09,Kaban Wind Farm,-17.56,145.41,2026-01-31T04:19:27.145248
2026/01/31 14:20:00,KEPWF1,0.0,Kennedy Energy Park Pty Ltd,Kennedy Energy Park,Wind,43.0,0.0,Kennedy Energy Park,-20.88,144.42,2026-01-31T04:19:27.145248
2026/01/31 14:20:00,KIATAWF1,25.9,Kiata ProjectCo Pty Ltd Atf Kiata Project Trust,Kiata Wind Farm,Wind,31.0,83.55,Kiata Wind Farm,-36.4,141.75,2026-01-31T04:19:27.145248
2026/01/31 14:20:00,LGAPWF1,67.41,Lincoln Gap Wind Farm (Operations) Pty Ltd,Lincoln Gap Wind Farm,Wind,123.0,54.8,Lincoln Gap Wind Farm,-32.564279,137.557328,2026-01-31T04:19:27.145248
2026/01/31 14:20:00,LGAPWF1,67.41,Lincoln Gap Wind Farm (Operations) Pty Ltd,Lincoln Gap Wind Farm,Wind,123.0,54.8,Lincoln Gap Wind Farm,-32.564279,137.557328,2026-01-31T04:19:27.145248
2026/01/31 14:20:00,LGAPWF2,78.36,Lincoln Gap Wind Farm (Operations) Pty Ltd,Lincoln Gap Wind Farm,Wind,85.0,92.19,Lincoln Gap Wind Farm,-32.564279,137.557328,2026-01-31T04:19:27.145248
2026/01/31 14:20:00,LGAPWF2,78.36,Lincoln Gap Wind Farm (Operations) Pty Ltd,Lincoln Gap Wind Farm,Wind,85.0,92.19,Lincoln Gap Wind Farm,-32.564279,137.557328,2026-01-31T04:19:27.145248
2026/01/31 14:20:00,LKBONNY1,42.87,Lake Bonney Wind Power Pty Ltd,Lake Bonney Wind Farm Stage 1,Wind,81.0,52.93,Lake Bonney Wind Farm Stage 1,-37.76,140.4,2026-01-31T04:19:27.145248
2026/01/31 14:20:00,LKBONNY2,58.45,Lake Bonney Wind Power Pty Ltd,Lake Bonney Stage 2 Windfarm,Wind,159.0,36.76,Lake Bonney Stage 2 Windfarm,-37.76,140.4,2026-01-31T04:19:27.145248
2026/01/31 14:20:00,LKBONNY3,10.66,Lake Bonney Wind Power Pty Ltd,Lake Bonney Stage 3 Wind Farm,Wind,39.0,27.33,Lake Bonney Stage 3 Wind Farm,-37.737781,140.388137,2026-01-31T04:19:27.145248
2026/01/31 14:20:00,MACARTH1,74.6,AGL Hydro Partnership,Macarthur Wind Farm,Wind,420.0,17.76,Macarthur Wind Farm,-38.048957,142.192112,2026-01-31T04:19:27.145248
2026/01/31 14:20:00,MCINTYR1,10.3,MacIntyre UJV Operator Pty Ltd,MacIntyre Wind Farm,Wind,890.0,1.16,MacIntyre Wind Farm,-28.32,151.54,2026-01-31T04:19:27.145248
2026/01/31 14:20:00,MERCER01,36.3,Mt Mercer Windfarm Pty Ltd,Mt Mercer Wind Farm,Wind,131.0,27.71,Mt Mercer Wind Farm,-37.841111,143.871111,2026-01-31T04:19:27.145248
2026/01/31 14:20:00,MEWF1,0.31,Ergon Energy Queensland Pty Ltd ,Mount Emerald Wind Farm,Wind,178.0,0.17,Mount Emerald Wind Farm,-17.133007,145.380644,2026-01-31T04:19:27.145248
2026/01/31 14:20:00,MRTLSWF1,61.79,Mortlake South Wind Farm Pty Ltd,Mortlake South Wind Farm,Wind,153.0,40.39,Mortlake South Wind Farm,-38.127337,142.857801,2026-01-31T04:19:27.145248
2026/01/31 14:20:00,MTGELWF1,82.7,Mt. Gellibrand Wind Farm Pty Ltd,Mt Gellibrand Wind Farm,Wind,132.0,62.65,Mt Gellibrand Wind Farm,-38.23,143.77,2026-01-31T04:19:27.145248
2026/01/31 14:20:00,MTMILLAR,44.1,Mt Millar Wind Farm Pty Ltd,Mt Millar Wind Farm,Wind,70.0,63.0,Mt Millar Wind Farm,-33.624444,136.703611,2026-01-31T04:19:27.145248
2026/01/31 14:20:00,MUSSELR1,25.1,Hydro-Electric Corporation,Musselroe Wind Farm,Wind,168.0,14.94,Musselroe Wind Farm,-40.780225,148.010799,2026-01-31T04:19:27.145248
2026/01/31 14:20:00,MUWAWF1,52.37,Telstra Energy (Generation) Pty Ltd,Murra Warra Wind Farm,Wind,225.7,23.2,Murra Warra Wind Farm,-36.432404,142.317853,2026-01-31T04:19:27.145248
2026/01/31 14:20:00,MUWAWF2,46.9,Murra Warra II Project Co Pty Ltd ATF The Murra Warra II Project Trust,Murra Warra Wind Farm Stage 2,Wind,203.0,23.1,Murra Warra Wind Farm Stage 2,-36.43,142.32,2026-01-31T04:19:27.145248
2026/01/31 14:20:00,NBHWF1,70.7,AGL SA Generation Pty Limited,North Brown Hill Wind Farm,Wind,132.0,53.56,North Brown Hill Wind Farm,-33.367778,138.728611,2026-01-31T04:19:27.145248
2026/01/31 14:20:00,OAKLAND1,23.6,AGL Hydro Partnership,Oaklands Hill Wind Farm,Wind,63.0,37.46,Oaklands Hill Wind Farm,-37.683078,142.551678,2026-01-31T04:19:27.145248
2026/01/31 14:20:00,PAREPW1,185.02,Iberdrola Australia Energy Markets Pty Limited,Port Augusta Renewable Energy Park,Wind,201.0,92.05,Port Augusta Renewable Energy Park,-32.566944,137.856111,2026-01-31T04:19:27.145248
2026/01/31 14:20:00,RYANCWF1,31.56,Ryan Corner Development Pty Ltd,Ryan Corner Wind Farm,Wind,205.0,15.4,Ryan Corner Wind Farm,-38.271017,142.140647,2026-01-31T04:19:27.145248
2026/01/31 14:20:00,RYEPARK1,105.6,Rye Park Renewable Energy Pty Ltd as trustee for Rye Park Wind Farm Trust,Rye Park Renewable Energy,Wind,384.0,27.5,Rye Park Renewable Energy,-32.138333,148.972778,2026-01-31T04:19:27.145248
2026/01/31 14:20:00,SALTCRK1,22.25,Salt Creek Wind Farm Pty Ltd,Salt Creek Wind Farm,Wind,54.0,41.2,Salt Creek Wind Farm,-37.95,142.63,2026-01-31T04:19:27.145248
2026/01/31 14:20:00,SAPHWF1,5.17,The Trustee For The SWF1 Operations Trust,Sapphire Wind Farm,Wind,270.0,1.91,Sapphire Wind Farm,-29.7,151.41,2026-01-31T04:19:27.145248
2026/01/31 14:20:00,SNOWNTH1,137.2,Snowtown Wind Farm Stage 2 Pty Ltd,Snowtown Wind Farm Stage 2 North,Wind,144.0,95.28,Snowtown Wind Farm Stage 2 North,-33.83,138.118611,2026-01-31T04:19:27.145248
2026/01/31 14:20:00,SNOWSTH1,117.1,Snowtown Wind Farm Stage 2 Pty Ltd,Snowtown South Wind Farm,Wind,126.0,92.94,Snowtown South Wind Farm,-33.83,138.118611,2026-01-31T04:19:27.145248
2026/01/31 14:20:00,SNOWTWN1,26.58,Snowtown Wind Farm Pty Ltd,Snowtown Wind Farm Units 1 And 47,Wind,99.0,26.85,Snowtown Wind Farm Units 1 And 47,-33.83,138.118611,2026-01-31T04:19:27.145248
2026/01/31 14:20:00,STARHLWF,24.79,Starfish Hill Wind Farm Pty Ltd,Starfish Hill Wind Farm,Wind,35.0,70.83,Starfish Hill Wind Farm,-35.58,138.14,2026-01-31T04:19:27.145248
2026/01/31 14:20:00,STOCKYD1,141.36,Stockyard Hill Wind Farm Pty Ltd,Stockyard Hill Wind Farm,Wind,511.0,27.66,Stockyard Hill Wind Farm,-37.535833,143.251389,2026-01-31T04:19:27.145248
2026/01/31 14:20:00,STWF1,0.0,PARF Company 8 Pty Ltd as The Trustee for Silverton Project Trust,Silverton Wind Farm,Wind,198.0,0.0,Silverton Wind Farm,-37.683168,142.551678,2026-01-31T04:19:27.145248
2026/01/31 14:20:00,TARALGA1,7.42,Taralga Wind Farm Nominees No 2 Pty Ltd (ATF Taralga Wind Farm Operating Trust),Taralga Wind Farm,Wind,106.0,7.0,Taralga Wind Farm,-34.42352,149.826267,2026-01-31T04:19:27.145248
2026/01/31 14:20:00,WAMBOWF1,7.64,Stanwell Corporation Limited,Wambo Wind Farm 1,Wind,245.0,3.12,Wambo Wind Farm 1,-35.187301,149.524945,2026-01-31T04:19:27.145248
2026/01/31 14:20:00,WATERLWF,72.0,Waterloo Wind Farm Pty Ltd,Waterloo Wind Farm,Wind,130.0,55.38,Waterloo Wind Farm,-34.00094,138.911567,2026-01-31T04:19:27.145248
2026/01/31 14:20:00,WGWF1,10.2,Willogoleche Power Pty Ltd As The Trustee For The Willogoleche Operating Trust,Willogoleche Wind Farm,Wind,119.0,8.57,Willogoleche Wind Farm,-33.39,138.85,2026-01-31T04:19:27.145248
2026/01/31 14:20:00,WOODLWN1,1.51,Woodlawn Wind Pty Ltd,Woodlawn Wind Farm,Wind,48.0,3.15,Woodlawn Wind Farm,-35.08,149.62,2026-01-31T04:19:27.145248
2026/01/31 14:20:00,WPWF,56.42,AGL SA Generation Pty Limited,Wattle Point Wind Farm,Wind,91.0,62.0,Wattle Point Wind Farm,-35.111624,137.7219,2026-01-31T04:19:27.145248
2026/01/31 14:20:00,WRWF1,7.85,White Rock Wind Farm Pty Ltd,White Rock Wind Farm,Wind,172.0,4.56,White Rock Wind Farm,-29.79,151.54,2026-01-31T04:19:27.145248
2026/01/31 14:20:00,YENDWF1,16.4,Lal Lal Wind Farms Nom Co Pty Ltd,Yendon Wind Farm,Wind,142.0,11.55,Yendon Wind Farm,-37.629987,144.022717,2026-01-31T04:19:27.145248
