SETTLEMENTDATE,DUID,SCADAVALUE,Participant,Station Name,Fuel Source - Primary,MAX_CAP,utilisation_pct,Plant,Latitude,Longitude,timestamp_utc
2026/02/12 06:25:00,CAPTL_WF,0.0,Iberdrola Australia Holdings Pty Limited,Capital Wind Farm,Wind,140.0,0.0,Capital Wind Farm,-35.1,149.31,2026-02-11T20:25:58.957069
2026/02/12 06:25:00,CHALLHWF,23.9,Pacific Hydro Challicum Hills Pty Ltd,Challicum Hills Wind Farm,Wind,52.0,45.96,Challicum Hills Wind Farm,-37.38,143.11,2026-02-11T20:25:58.957069
2026/02/12 06:25:00,CULLRGWF,4.87,Cullerin Range Wind Farm Pty Ltd,Cullerin Range Wind Farm,Wind,30.0,16.23,Cullerin Range Wind Farm,-34.81,149.4,2026-02-11T20:25:58.957069
2026/02/12 06:25:00,DIAPURWF1,8.3,Y.E.S. Energy (SA) Pty Ltd,Diapur Wind Farm,Wind,7.0,118.57,Diapur Wind Farm,-36.3425,141.43,2026-02-11T20:25:58.957069
2026/02/12 06:25:00,MLWF1,5.22,Mortons Lane Windfarm Pty Limited,Mortons Lane Wind Farm,Wind,20.0,26.1,Mortons Lane Wind Farm,-37.84,142.45,2026-02-11T20:25:58.957069
2026/02/12 06:25:00,WAUBRAWF,109.7,Pyrenees Wind Energy Developments Pty Ltd,Waubra Wind Farm,Wind,192.0,57.14,Waubra Wind Farm,-37.394498,143.638982,2026-02-11T20:25:58.957069
2026/02/12 06:25:00,WOOLNTH1,97.3,Hydro-Electric Corporation,Woolnorth Studland Bay / Bluff Point Wind Farm,Wind,140.0,69.5,Woolnorth Studland Bay / Bluff Point Wind Farm,-40.69,144.72,2026-02-11T20:25:58.957069
2026/02/12 06:25:00,YAMBUKWF,28.2,Energy Pacific (Vic) Pty Ltd,Yambuk Wind Farm,Wind,30.0,94.0,Yambuk Wind Farm,-38.299083,142.027577,2026-02-11T20:25:58.957069
2026/02/12 06:25:00,YSWF1,5.2,Pacific Hydro Yaloak South Pty Ltd,Yaloak South Wind Farm,Wind,28.0,18.57,Yaloak South Wind Farm,-37.7163,144.242853,2026-02-11T20:25:58.957069
2026/02/12 06:25:00,ARWF1,153.6,Ararat Wind Farm Pty Ltd,Ararat Wind Farm,Wind,241.0,63.73,Ararat Wind Farm,-37.232778,143.031389,2026-02-11T20:25:58.957069
2026/02/12 06:25:00,BALDHWF1,95.2,Alinta Energy Retail Sales Pty Ltd,Bald Hills Wind Farm,Wind,106.0,89.81,Bald Hills Wind Farm,-38.79,145.93,2026-02-11T20:25:58.957069
2026/02/12 06:25:00,BANGOWF1,50.2,BWF Nominees Pty Ltd as The Trustee for BWF Trust,Bango 973 Wind Farm,Wind,155.0,32.39,Bango 973 Wind Farm,-34.551582,148.732808,2026-02-11T20:25:58.957069
2026/02/12 06:25:00,BANGOWF2,34.2,BWF Nominees Pty Ltd as The Trustee for BWF Trust,Bango 999 Wind Farm,Wind,82.0,41.71,Bango 999 Wind Farm,-34.551582,148.732808,2026-02-11T20:25:58.957069
2026/02/12 06:25:00,BLUFF1,36.3,AGL SA Generation Pty Limited,The Bluff Wind Farm,Wind,53.0,68.49,The Bluff Wind Farm,-33.367778,138.728611,2026-02-11T20:25:58.957069
2026/02/12 06:25:00,BOCORWF1,43.32,Boco Rock Wind Farm Pty Ltd,Boco Rock Wind Farm,Wind,111.0,39.03,Boco Rock Wind Farm,-36.578611,149.103333,2026-02-11T20:25:58.957069
2026/02/12 06:25:00,BRYB1WF1,35.78,Berrybank Development Pty Ltd,Berrybank Wind Farm,Wind,175.9,20.34,Berrybank Wind Farm,-37.94,143.52,2026-02-11T20:25:58.957069
2026/02/12 06:25:00,BRYB2WF2,0.0,Berrybank 2 Asset Pty Ltd as trustee for Berrybank 2 Asset Trust,Berrybank 2 Wind Farm,Wind,105.0,0.0,Berrybank 2 Wind Farm,-37.94,143.52,2026-02-11T20:25:58.957069
2026/02/12 06:25:00,BULGANA1,111.34,Bulgana Wind Farm Pty Ltd,Bulgana Green Power Hub,Wind,204.0,54.58,Bulgana Green Power Hub,-37.0975,142.973611,2026-02-11T20:25:58.957069
2026/02/12 06:25:00,CATHROCK,34.1,Cathedral Rocks Wind Farm Pty Ltd,Cathedral Rocks,Wind,66.0,51.67,Cathedral Rocks,-34.51,135.35,2026-02-11T20:25:58.957069
2026/02/12 06:25:00,CHYTWF1,47.02,Cherry Tree Wind Farm Pty Ltd as trustee for The Cherry Tree Project trust ,Cherry Tree Wind Farm,Wind,57.0,82.49,Cherry Tree Wind Farm,-37.1,145.26,2026-02-11T20:25:58.957069
2026/02/12 06:25:00,CLEMGPWF,51.87,Pacific Hydro Clements Gap Pty Ltd,Clements Gap Wind Farm,Wind,57.0,91.0,Clements Gap Wind Farm,-33.48,138.1,2026-02-11T20:25:58.957069
2026/02/12 06:25:00,CLRKCWF1,298.78,Stanwell Corporation Limited ,Clarke Creek Wind Farm,Wind,338.0,88.4,Clarke Creek Wind Farm,-22.85,149.45,2026-02-11T20:25:58.957069
2026/02/12 06:25:00,CLRKCWF2,70.14,Stanwell Corporation Limited ,Clarke Creek Wind Farm,Wind,101.0,69.45,Clarke Creek Wind Farm,-22.85,149.45,2026-02-11T20:25:58.957069
2026/02/12 06:25:00,CNUNDAWF,33.84,Canunda Power Pty Ltd,Canunda Wind Farm,Wind,46.0,73.57,Canunda Wind Farm,-37.73,140.39,2026-02-11T20:25:58.957069
2026/02/12 06:25:00,COLWF01,14.77,Collector Wind Farm Pty Ltd,Collector Wind Farm 1,Wind,219.0,6.74,Collector Wind Farm 1,-34.8719,149.3967,2026-02-11T20:25:58.957069
2026/02/12 06:25:00,COOPGWF1,184.44,PARF Company 10 Pty Limited as The Trustee for Coopers Gap Project Trust,Coopers Gap Wind Farm,Wind,440.0,41.92,Coopers Gap Wind Farm,-26.74,151.45,2026-02-11T20:25:58.957069
2026/02/12 06:25:00,CROOKWF2,20.87,Crookwell Development Pty Ltd ,Crookwell 2 Wind Farm,Wind,91.0,22.93,Crookwell 2 Wind Farm,-34.52,149.54,2026-02-11T20:25:58.957069
2026/02/12 06:25:00,CROOKWF3,23.32,Crookwell 3 Development Pty Ltd,Crookwell 3 Wind Farm,Wind,56.0,41.64,Crookwell 3 Wind Farm,-34.52,149.54,2026-02-11T20:25:58.957069
2026/02/12 06:25:00,CROWLWF1,64.72,Pacific Hydro Crowlands Pty Ltd ,Crowlands Wind Farm,Wind,79.0,81.92,Crowlands Wind Farm,-37.13,143.16,2026-02-11T20:25:58.957069
2026/02/12 06:25:00,CRURWF1,51.2,CRWF Nominees Pty Ltd As Trustee For The CRWF Trust,Crudine Ridge Wind Farm,Wind,138.0,37.1,Crudine Ridge Wind Farm,-32.97,149.64,2026-02-11T20:25:58.957069
2026/02/12 06:25:00,CTHLWF1,120.4,Wild Cattle Hill Pty Ltd,Cattle Hill Wind Farm,Wind,144.0,83.61,Cattle Hill Wind Farm,-42.15,146.69,2026-02-11T20:25:58.957069
2026/02/12 06:25:00,DULAWF1,155.9,Dulacca Energy Project Co Pty Ltd,Dulacca Wind Farm,Wind,173.0,90.12,Dulacca Wind Farm,-26.63,149.87,2026-02-11T20:25:58.957069
2026/02/12 06:25:00,DUNDWF1,69.44,Dundonnell Wind Farm Pty Ltd,Dundonnell Wind Farm,Wind,168.0,41.33,Dundonnell Wind Farm,-37.52,142.58,2026-02-11T20:25:58.957069
2026/02/12 06:25:00,DUNDWF2,20.93,Dundonnell Wind Farm Pty Ltd,Dundonnell Wind Farm,Wind,46.0,45.5,Dundonnell Wind Farm,-37.52,142.58,2026-02-11T20:25:58.957069
2026/02/12 06:25:00,DUNDWF3,69.69,Dundonnell Wind Farm Pty Ltd,Dundonnell Wind Farm,Wind,122.0,57.12,Dundonnell Wind Farm,-37.52,142.58,2026-02-11T20:25:58.957069
2026/02/12 06:25:00,ELAINWF1,20.46,Lal Lal Wind Farms Nom Co Pty Ltd,Elaine Wind Farm,Wind,82.0,24.95,Elaine Wind Farm,-37.36,144.0,2026-02-11T20:25:58.957069
2026/02/12 06:25:00,FLYCRKWF,6.73,Iberdrola Australia Energy Markets Pty Limited,Flyers Creek Wind Farm,Wind,140.0,4.81,Flyers Creek Wind Farm,-33.365556,148.981944,2026-02-11T20:25:58.957069
2026/02/12 06:25:00,GPWFEST1,74.95,Golden Plains WF1 Pty Ltd as Trustee for the Golden Plains WF1 Unit Trust,Golden Plains Wind Farm East,Wind,240.0,31.23,Golden Plains Wind Farm East,-37.945091,143.752614,2026-02-11T20:25:58.957069
2026/02/12 06:25:00,GPWFEST2,52.82,Golden Plains WF1 Pty Ltd as Trustee for the Golden Plains WF1 Unit Trust,Golden Plains Wind Farm East,Wind,253.0,20.88,Golden Plains Wind Farm East,-37.945091,143.752614,2026-02-11T20:25:58.957069
2026/02/12 06:25:00,GPWFEST3,51.2,Golden Plains WF1 Pty Ltd as Trustee for the Golden Plains WF1 Unit Trust,Golden Plains Wind Farm East,Wind,240.0,21.33,Golden Plains Wind Farm East,-37.945091,143.752614,2026-02-11T20:25:58.957069
2026/02/12 06:25:00,GRANWF1,92.58,Granville Harbour Operations Pty Ltd as The Trustee for Granville Harbour Operations Trust,Granville Harbour Wind Farm,Wind,111.0,83.41,Granville Harbour Wind Farm,-41.8,145.06,2026-02-11T20:25:58.957069
2026/02/12 06:25:00,GSWF1A,117.01,Goyder Wind Farm 1 Pty Ltd as the Trustee for Goyder Wind Farm 1 Trust,Goyder South Wind Farm 1A,Wind,201.0,58.21,Goyder South Wind Farm 1A,-33.679758,138.937597,2026-02-11T20:25:58.957069
2026/02/12 06:25:00,GSWF1B1,72.84,Goyder Wind Farm 1B Pty Ltd as the Trustee for the Goyder Wind Farm 1B Trust,Goyder South Wind Farm 1B,Wind,196.0,37.16,Goyder South Wind Farm 1B,-33.679758,138.937597,2026-02-11T20:25:58.957069
2026/02/12 06:25:00,GULLRWF1,25.7,New Gullen Range Wind Farm Pty Ltd,Gullen Range Wind Farm,Wind,161.0,15.96,Gullen Range Wind Farm,-34.34,149.27,2026-02-11T20:25:58.957069
2026/02/12 06:25:00,GULLRWF2,46.33,New Gullen Range Wind Farm Pty Ltd,Gullen Range Wind Farm,Wind,107.0,43.3,Gullen Range Wind Farm,-34.34,149.27,2026-02-11T20:25:58.957069
2026/02/12 06:25:00,GUNNING1,7.39,Gunning Wind Energy Developments Pty Ltd,Gunning Wind Farm,Wind,47.0,15.72,Gunning Wind Farm,-34.813333,149.4,2026-02-11T20:25:58.957069
2026/02/12 06:25:00,HALLWF1,76.1,AGL SA Generation Pty Limited,Hallett 1 Wind Farm,Wind,95.0,80.11,Hallett 1 Wind Farm,-33.367778,138.728611,2026-02-11T20:25:58.957069
2026/02/12 06:25:00,HALLWF2,60.98,AGL SA Generation Pty Limited,Hallett 2 Wind Farm,Wind,71.0,85.89,Hallett 2 Wind Farm,-33.367778,138.728611,2026-02-11T20:25:58.957069
2026/02/12 06:25:00,HD1WF1,61.78,Hawkesdale Asset Pty Ltd as trustee for Hawkesdale Asset Trust,Hawkesdale Wind Farm,Wind,89.0,69.42,Hawkesdale Wind Farm,-38.147894,142.361381,2026-02-11T20:25:58.957069
2026/02/12 06:25:00,HDWF1,87.2,HWF1 Pty Ltd,Hornsdale Wind Farm,Wind,102.0,85.49,Hornsdale Wind Farm,-33.050556,138.543611,2026-02-11T20:25:58.957069
2026/02/12 06:25:00,HDWF2,87.7,HWF 2 Pty Ltd,Hornsdale Wind Farm 2,Wind,102.0,85.98,Hornsdale Wind Farm 2,-33.06,138.54,2026-02-11T20:25:58.957069
2026/02/12 06:25:00,HDWF3,90.6,HWF3 Pty Ltd,Hornsdale Wind Farm 3,Wind,109.0,83.12,Hornsdale Wind Farm 3,-33.06,138.54,2026-02-11T20:25:58.957069
2026/02/12 06:25:00,KABANWF1,2.29,Kaban Wind Farm Pty Ltd as trustee for Kaban Wind Farm Trust,Kaban Wind Farm,Wind,152.0,1.51,Kaban Wind Farm,-17.56,145.41,2026-02-11T20:25:58.957069
2026/02/12 06:25:00,KEPWF1,7.1,Kennedy Energy Park Pty Ltd,Kennedy Energy Park,Wind,43.0,16.51,Kennedy Energy Park,-20.88,144.42,2026-02-11T20:25:58.957069
2026/02/12 06:25:00,KIATAWF1,22.9,Kiata ProjectCo Pty Ltd Atf Kiata Project Trust,Kiata Wind Farm,Wind,31.0,73.87,Kiata Wind Farm,-36.4,141.75,2026-02-11T20:25:58.957069
2026/02/12 06:25:00,LGAPWF1,86.87,Lincoln Gap Wind Farm (Operations) Pty Ltd,Lincoln Gap Wind Farm,Wind,123.0,70.63,Lincoln Gap Wind Farm,-32.564279,137.557328,2026-02-11T20:25:58.957069
2026/02/12 06:25:00,LGAPWF1,86.87,Lincoln Gap Wind Farm (Operations) Pty Ltd,Lincoln Gap Wind Farm,Wind,123.0,70.63,Lincoln Gap Wind Farm,-32.564279,137.557328,2026-02-11T20:25:58.957069
2026/02/12 06:25:00,LGAPWF2,85.02,Lincoln Gap Wind Farm (Operations) Pty Ltd,Lincoln Gap Wind Farm,Wind,85.0,100.02,Lincoln Gap Wind Farm,-32.564279,137.557328,2026-02-11T20:25:58.957069
2026/02/12 06:25:00,LGAPWF2,85.02,Lincoln Gap Wind Farm (Operations) Pty Ltd,Lincoln Gap Wind Farm,Wind,85.0,100.02,Lincoln Gap Wind Farm,-32.564279,137.557328,2026-02-11T20:25:58.957069
2026/02/12 06:25:00,LKBONNY1,59.66,Lake Bonney Wind Power Pty Ltd,Lake Bonney Wind Farm Stage 1,Wind,81.0,73.65,Lake Bonney Wind Farm Stage 1,-37.76,140.4,2026-02-11T20:25:58.957069
2026/02/12 06:25:00,LKBONNY2,125.64,Lake Bonney Wind Power Pty Ltd,Lake Bonney Stage 2 Windfarm,Wind,159.0,79.02,Lake Bonney Stage 2 Windfarm,-37.76,140.4,2026-02-11T20:25:58.957069
2026/02/12 06:25:00,LKBONNY3,32.32,Lake Bonney Wind Power Pty Ltd,Lake Bonney Stage 3 Wind Farm,Wind,39.0,82.87,Lake Bonney Stage 3 Wind Farm,-37.737781,140.388137,2026-02-11T20:25:58.957069
2026/02/12 06:25:00,MACARTH1,75.6,AGL Hydro Partnership,Macarthur Wind Farm,Wind,420.0,18.0,Macarthur Wind Farm,-38.048957,142.192112,2026-02-11T20:25:58.957069
2026/02/12 06:25:00,MCINTYR1,193.76,MacIntyre UJV Operator Pty Ltd,MacIntyre Wind Farm,Wind,890.0,21.77,MacIntyre Wind Farm,-28.32,151.54,2026-02-11T20:25:58.957069
2026/02/12 06:25:00,MERCER01,28.6,Mt Mercer Windfarm Pty Ltd,Mt Mercer Wind Farm,Wind,131.0,21.83,Mt Mercer Wind Farm,-37.841111,143.871111,2026-02-11T20:25:58.957069
2026/02/12 06:25:00,MEWF1,0.0,Ergon Energy Queensland Pty Ltd ,Mount Emerald Wind Farm,Wind,178.0,0.0,Mount Emerald Wind Farm,-17.133007,145.380644,2026-02-11T20:25:58.957069
2026/02/12 06:25:00,MRTLSWF1,88.64,Mortlake South Wind Farm Pty Ltd,Mortlake South Wind Farm,Wind,153.0,57.93,Mortlake South Wind Farm,-38.127337,142.857801,2026-02-11T20:25:58.957069
2026/02/12 06:25:00,MTGELWF1,11.81,Mt. Gellibrand Wind Farm Pty Ltd,Mt Gellibrand Wind Farm,Wind,132.0,8.95,Mt Gellibrand Wind Farm,-38.23,143.77,2026-02-11T20:25:58.957069
2026/02/12 06:25:00,MTMILLAR,0.0,Mt Millar Wind Farm Pty Ltd,Mt Millar Wind Farm,Wind,70.0,0.0,Mt Millar Wind Farm,-33.624444,136.703611,2026-02-11T20:25:58.957069
2026/02/12 06:25:00,MUSSELR1,149.4,Hydro-Electric Corporation,Musselroe Wind Farm,Wind,168.0,88.93,Musselroe Wind Farm,-40.780225,148.010799,2026-02-11T20:25:58.957069
2026/02/12 06:25:00,MUWAWF1,85.67,Telstra Energy (Generation) Pty Ltd,Murra Warra Wind Farm,Wind,225.7,37.96,Murra Warra Wind Farm,-36.432404,142.317853,2026-02-11T20:25:58.957069
2026/02/12 06:25:00,MUWAWF2,55.8,Murra Warra II Project Co Pty Ltd ATF The Murra Warra II Project Trust,Murra Warra Wind Farm Stage 2,Wind,203.0,27.49,Murra Warra Wind Farm Stage 2,-36.43,142.32,2026-02-11T20:25:58.957069
2026/02/12 06:25:00,NBHWF1,107.2,AGL SA Generation Pty Limited,North Brown Hill Wind Farm,Wind,132.0,81.21,North Brown Hill Wind Farm,-33.367778,138.728611,2026-02-11T20:25:58.957069
2026/02/12 06:25:00,OAKLAND1,31.1,AGL Hydro Partnership,Oaklands Hill Wind Farm,Wind,63.0,49.37,Oaklands Hill Wind Farm,-37.683078,142.551678,2026-02-11T20:25:58.957069
2026/02/12 06:25:00,PAREPW1,168.7,Iberdrola Australia Energy Markets Pty Limited,Port Augusta Renewable Energy Park,Wind,201.0,83.93,Port Augusta Renewable Energy Park,-32.566944,137.856111,2026-02-11T20:25:58.957069
2026/02/12 06:25:00,RYANCWF1,204.71,Ryan Corner Development Pty Ltd,Ryan Corner Wind Farm,Wind,205.0,99.86,Ryan Corner Wind Farm,-38.271017,142.140647,2026-02-11T20:25:58.957069
2026/02/12 06:25:00,RYEPARK1,154.28,Rye Park Renewable Energy Pty Ltd as trustee for Rye Park Wind Farm Trust,Rye Park Renewable Energy,Wind,384.0,40.18,Rye Park Renewable Energy,-32.138333,148.972778,2026-02-11T20:25:58.957069
2026/02/12 06:25:00,SALTCRK1,33.8,Salt Creek Wind Farm Pty Ltd,Salt Creek Wind Farm,Wind,54.0,62.59,Salt Creek Wind Farm,-37.95,142.63,2026-02-11T20:25:58.957069
2026/02/12 06:25:00,SAPHWF1,127.82,The Trustee For The SWF1 Operations Trust,Sapphire Wind Farm,Wind,270.0,47.34,Sapphire Wind Farm,-29.7,151.41,2026-02-11T20:25:58.957069
2026/02/12 06:25:00,SNOWNTH1,140.9,Snowtown Wind Farm Stage 2 Pty Ltd,Snowtown Wind Farm Stage 2 North,Wind,144.0,97.85,Snowtown Wind Farm Stage 2 North,-33.83,138.118611,2026-02-11T20:25:58.957069
2026/02/12 06:25:00,SNOWSTH1,121.4,Snowtown Wind Farm Stage 2 Pty Ltd,Snowtown South Wind Farm,Wind,126.0,96.35,Snowtown South Wind Farm,-33.83,138.118611,2026-02-11T20:25:58.957069
2026/02/12 06:25:00,SNOWTWN1,90.93,Snowtown Wind Farm Pty Ltd,Snowtown Wind Farm Units 1 And 47,Wind,99.0,91.85,Snowtown Wind Farm Units 1 And 47,-33.83,138.118611,2026-02-11T20:25:58.957069
2026/02/12 06:25:00,STARHLWF,12.2,Starfish Hill Wind Farm Pty Ltd,Starfish Hill Wind Farm,Wind,35.0,34.86,Starfish Hill Wind Farm,-35.58,138.14,2026-02-11T20:25:58.957069
2026/02/12 06:25:00,STOCKYD1,349.44,Stockyard Hill Wind Farm Pty Ltd,Stockyard Hill Wind Farm,Wind,511.0,68.38,Stockyard Hill Wind Farm,-37.535833,143.251389,2026-02-11T20:25:58.957069
2026/02/12 06:25:00,STWF1,99.43,PARF Company 8 Pty Ltd as The Trustee for Silverton Project Trust,Silverton Wind Farm,Wind,198.0,50.22,Silverton Wind Farm,-37.683168,142.551678,2026-02-11T20:25:58.957069
2026/02/12 06:25:00,TARALGA1,21.78,Taralga Wind Farm Nominees No 2 Pty Ltd (ATF Taralga Wind Farm Operating Trust),Taralga Wind Farm,Wind,106.0,20.55,Taralga Wind Farm,-34.42352,149.826267,2026-02-11T20:25:58.957069
2026/02/12 06:25:00,WAMBOWF1,116.95,Stanwell Corporation Limited,Wambo Wind Farm 1,Wind,245.0,47.73,Wambo Wind Farm 1,-35.187301,149.524945,2026-02-11T20:25:58.957069
2026/02/12 06:25:00,WATERLWF,59.3,Waterloo Wind Farm Pty Ltd,Waterloo Wind Farm,Wind,130.0,45.62,Waterloo Wind Farm,-34.00094,138.911567,2026-02-11T20:25:58.957069
2026/02/12 06:25:00,WGWF1,114.2,Willogoleche Power Pty Ltd As The Trustee For The Willogoleche Operating Trust,Willogoleche Wind Farm,Wind,119.0,95.97,Willogoleche Wind Farm,-33.39,138.85,2026-02-11T20:25:58.957069
2026/02/12 06:25:00,WOODLWN1,1.6,Woodlawn Wind Pty Ltd,Woodlawn Wind Farm,Wind,48.0,3.33,Woodlawn Wind Farm,-35.08,149.62,2026-02-11T20:25:58.957069
2026/02/12 06:25:00,WPWF,63.65,AGL SA Generation Pty Limited,Wattle Point Wind Farm,Wind,91.0,69.95,Wattle Point Wind Farm,-35.111624,137.7219,2026-02-11T20:25:58.957069
2026/02/12 06:25:00,WRWF1,20.28,White Rock Wind Farm Pty Ltd,White Rock Wind Farm,Wind,172.0,11.79,White Rock Wind Farm,-29.79,151.54,2026-02-11T20:25:58.957069
2026/02/12 06:25:00,YENDWF1,16.42,Lal Lal Wind Farms Nom Co Pty Ltd,Yendon Wind Farm,Wind,142.0,11.56,Yendon Wind Farm,-37.629987,144.022717,2026-02-11T20:25:58.957069
