SETTLEMENTDATE,DUID,SCADAVALUE,Participant,Station Name,Fuel Source - Primary,MAX_CAP,utilisation_pct,Plant,Latitude,Longitude,timestamp_utc
2026/02/17 00:30:00,CAPTL_WF,0.0,Iberdrola Australia Holdings Pty Limited,Capital Wind Farm,Wind,140.0,0.0,Capital Wind Farm,-35.1,149.31,2026-02-16T14:29:11.698704
2026/02/17 00:30:00,CHALLHWF,30.2,Pacific Hydro Challicum Hills Pty Ltd,Challicum Hills Wind Farm,Wind,52.0,58.08,Challicum Hills Wind Farm,-37.38,143.11,2026-02-16T14:29:11.698704
2026/02/17 00:30:00,CULLRGWF,10.6,Cullerin Range Wind Farm Pty Ltd,Cullerin Range Wind Farm,Wind,30.0,35.33,Cullerin Range Wind Farm,-34.81,149.4,2026-02-16T14:29:11.698704
2026/02/17 00:30:00,DIAPURWF1,8.0,Y.E.S. Energy (SA) Pty Ltd,Diapur Wind Farm,Wind,7.0,114.29,Diapur Wind Farm,-36.3425,141.43,2026-02-16T14:29:11.698704
2026/02/17 00:30:00,MLWF1,15.2,Mortons Lane Windfarm Pty Limited,Mortons Lane Wind Farm,Wind,20.0,76.0,Mortons Lane Wind Farm,-37.84,142.45,2026-02-16T14:29:11.698704
2026/02/17 00:30:00,WAUBRAWF,105.3,Pyrenees Wind Energy Developments Pty Ltd,Waubra Wind Farm,Wind,192.0,54.84,Waubra Wind Farm,-37.394498,143.638982,2026-02-16T14:29:11.698704
2026/02/17 00:30:00,WOOLNTH1,103.0,Hydro-Electric Corporation,Woolnorth Studland Bay / Bluff Point Wind Farm,Wind,140.0,73.57,Woolnorth Studland Bay / Bluff Point Wind Farm,-40.69,144.72,2026-02-16T14:29:11.698704
2026/02/17 00:30:00,YAMBUKWF,8.4,Energy Pacific (Vic) Pty Ltd,Yambuk Wind Farm,Wind,30.0,28.0,Yambuk Wind Farm,-38.299083,142.027577,2026-02-16T14:29:11.698704
2026/02/17 00:30:00,YSWF1,10.7,Pacific Hydro Yaloak South Pty Ltd,Yaloak South Wind Farm,Wind,28.0,38.21,Yaloak South Wind Farm,-37.7163,144.242853,2026-02-16T14:29:11.698704
2026/02/17 00:30:00,ARWF1,81.7,Ararat Wind Farm Pty Ltd,Ararat Wind Farm,Wind,241.0,33.9,Ararat Wind Farm,-37.232778,143.031389,2026-02-16T14:29:11.698704
2026/02/17 00:30:00,BALDHWF1,63.84,Alinta Energy Retail Sales Pty Ltd,Bald Hills Wind Farm,Wind,106.0,60.23,Bald Hills Wind Farm,-38.79,145.93,2026-02-16T14:29:11.698704
2026/02/17 00:30:00,BANGOWF1,49.6,BWF Nominees Pty Ltd as The Trustee for BWF Trust,Bango 973 Wind Farm,Wind,155.0,32.0,Bango 973 Wind Farm,-34.551582,148.732808,2026-02-16T14:29:11.698704
2026/02/17 00:30:00,BANGOWF2,19.9,BWF Nominees Pty Ltd as The Trustee for BWF Trust,Bango 999 Wind Farm,Wind,82.0,24.27,Bango 999 Wind Farm,-34.551582,148.732808,2026-02-16T14:29:11.698704
2026/02/17 00:30:00,BLUFF1,41.5,AGL SA Generation Pty Limited,The Bluff Wind Farm,Wind,53.0,78.3,The Bluff Wind Farm,-33.367778,138.728611,2026-02-16T14:29:11.698704
2026/02/17 00:30:00,BOCORWF1,57.96,Boco Rock Wind Farm Pty Ltd,Boco Rock Wind Farm,Wind,111.0,52.22,Boco Rock Wind Farm,-36.578611,149.103333,2026-02-16T14:29:11.698704
2026/02/17 00:30:00,BRYB1WF1,146.62,Berrybank Development Pty Ltd,Berrybank Wind Farm,Wind,175.9,83.35,Berrybank Wind Farm,-37.94,143.52,2026-02-16T14:29:11.698704
2026/02/17 00:30:00,BRYB2WF2,87.94,Berrybank 2 Asset Pty Ltd as trustee for Berrybank 2 Asset Trust,Berrybank 2 Wind Farm,Wind,105.0,83.75,Berrybank 2 Wind Farm,-37.94,143.52,2026-02-16T14:29:11.698704
2026/02/17 00:30:00,BULGANA1,133.28,Bulgana Wind Farm Pty Ltd,Bulgana Green Power Hub,Wind,204.0,65.33,Bulgana Green Power Hub,-37.0975,142.973611,2026-02-16T14:29:11.698704
2026/02/17 00:30:00,CATHROCK,6.1,Cathedral Rocks Wind Farm Pty Ltd,Cathedral Rocks,Wind,66.0,9.24,Cathedral Rocks,-34.51,135.35,2026-02-16T14:29:11.698704
2026/02/17 00:30:00,CHYTWF1,7.29,Cherry Tree Wind Farm Pty Ltd as trustee for The Cherry Tree Project trust ,Cherry Tree Wind Farm,Wind,57.0,12.79,Cherry Tree Wind Farm,-37.1,145.26,2026-02-16T14:29:11.698704
2026/02/17 00:30:00,CLEMGPWF,49.2,Pacific Hydro Clements Gap Pty Ltd,Clements Gap Wind Farm,Wind,57.0,86.32,Clements Gap Wind Farm,-33.48,138.1,2026-02-16T14:29:11.698704
2026/02/17 00:30:00,CLRKCWF1,256.76,Stanwell Corporation Limited ,Clarke Creek Wind Farm,Wind,338.0,75.96,Clarke Creek Wind Farm,-22.85,149.45,2026-02-16T14:29:11.698704
2026/02/17 00:30:00,CLRKCWF2,69.58,Stanwell Corporation Limited ,Clarke Creek Wind Farm,Wind,101.0,68.89,Clarke Creek Wind Farm,-22.85,149.45,2026-02-16T14:29:11.698704
2026/02/17 00:30:00,CNUNDAWF,25.33,Canunda Power Pty Ltd,Canunda Wind Farm,Wind,46.0,55.07,Canunda Wind Farm,-37.73,140.39,2026-02-16T14:29:11.698704
2026/02/17 00:30:00,COLWF01,37.06,Collector Wind Farm Pty Ltd,Collector Wind Farm 1,Wind,219.0,16.92,Collector Wind Farm 1,-34.8719,149.3967,2026-02-16T14:29:11.698704
2026/02/17 00:30:00,COOPGWF1,332.78,PARF Company 10 Pty Limited as The Trustee for Coopers Gap Project Trust,Coopers Gap Wind Farm,Wind,440.0,75.63,Coopers Gap Wind Farm,-26.74,151.45,2026-02-16T14:29:11.698704
2026/02/17 00:30:00,CROOKWF2,26.09,Crookwell Development Pty Ltd ,Crookwell 2 Wind Farm,Wind,91.0,28.67,Crookwell 2 Wind Farm,-34.52,149.54,2026-02-16T14:29:11.698704
2026/02/17 00:30:00,CROOKWF3,19.03,Crookwell 3 Development Pty Ltd,Crookwell 3 Wind Farm,Wind,56.0,33.98,Crookwell 3 Wind Farm,-34.52,149.54,2026-02-16T14:29:11.698704
2026/02/17 00:30:00,CROWLWF1,62.62,Pacific Hydro Crowlands Pty Ltd ,Crowlands Wind Farm,Wind,79.0,79.27,Crowlands Wind Farm,-37.13,143.16,2026-02-16T14:29:11.698704
2026/02/17 00:30:00,CRURWF1,85.8,CRWF Nominees Pty Ltd As Trustee For The CRWF Trust,Crudine Ridge Wind Farm,Wind,138.0,62.17,Crudine Ridge Wind Farm,-32.97,149.64,2026-02-16T14:29:11.698704
2026/02/17 00:30:00,CTHLWF1,93.5,Wild Cattle Hill Pty Ltd,Cattle Hill Wind Farm,Wind,144.0,64.93,Cattle Hill Wind Farm,-42.15,146.69,2026-02-16T14:29:11.698704
2026/02/17 00:30:00,DULAWF1,139.7,Dulacca Energy Project Co Pty Ltd,Dulacca Wind Farm,Wind,173.0,80.75,Dulacca Wind Farm,-26.63,149.87,2026-02-16T14:29:11.698704
2026/02/17 00:30:00,DUNDWF1,154.67,Dundonnell Wind Farm Pty Ltd,Dundonnell Wind Farm,Wind,168.0,92.07,Dundonnell Wind Farm,-37.52,142.58,2026-02-16T14:29:11.698704
2026/02/17 00:30:00,DUNDWF2,37.12,Dundonnell Wind Farm Pty Ltd,Dundonnell Wind Farm,Wind,46.0,80.7,Dundonnell Wind Farm,-37.52,142.58,2026-02-16T14:29:11.698704
2026/02/17 00:30:00,DUNDWF3,113.49,Dundonnell Wind Farm Pty Ltd,Dundonnell Wind Farm,Wind,122.0,93.02,Dundonnell Wind Farm,-37.52,142.58,2026-02-16T14:29:11.698704
2026/02/17 00:30:00,ELAINWF1,48.8,Lal Lal Wind Farms Nom Co Pty Ltd,Elaine Wind Farm,Wind,82.0,59.51,Elaine Wind Farm,-37.36,144.0,2026-02-16T14:29:11.698704
2026/02/17 00:30:00,FLYCRKWF,59.59,Iberdrola Australia Energy Markets Pty Limited,Flyers Creek Wind Farm,Wind,140.0,42.56,Flyers Creek Wind Farm,-33.365556,148.981944,2026-02-16T14:29:11.698704
2026/02/17 00:30:00,GPWFEST1,200.65,Golden Plains WF1 Pty Ltd as Trustee for the Golden Plains WF1 Unit Trust,Golden Plains Wind Farm East,Wind,240.0,83.6,Golden Plains Wind Farm East,-37.945091,143.752614,2026-02-16T14:29:11.698704
2026/02/17 00:30:00,GPWFEST2,215.34,Golden Plains WF1 Pty Ltd as Trustee for the Golden Plains WF1 Unit Trust,Golden Plains Wind Farm East,Wind,253.0,85.11,Golden Plains Wind Farm East,-37.945091,143.752614,2026-02-16T14:29:11.698704
2026/02/17 00:30:00,GPWFEST3,199.41,Golden Plains WF1 Pty Ltd as Trustee for the Golden Plains WF1 Unit Trust,Golden Plains Wind Farm East,Wind,240.0,83.09,Golden Plains Wind Farm East,-37.945091,143.752614,2026-02-16T14:29:11.698704
2026/02/17 00:30:00,GRANWF1,0.0,Granville Harbour Operations Pty Ltd as The Trustee for Granville Harbour Operations Trust,Granville Harbour Wind Farm,Wind,111.0,0.0,Granville Harbour Wind Farm,-41.8,145.06,2026-02-16T14:29:11.698704
2026/02/17 00:30:00,GSWF1A,123.31,Goyder Wind Farm 1 Pty Ltd as the Trustee for Goyder Wind Farm 1 Trust,Goyder South Wind Farm 1A,Wind,201.0,61.35,Goyder South Wind Farm 1A,-33.679758,138.937597,2026-02-16T14:29:11.698704
2026/02/17 00:30:00,GSWF1B1,145.79,Goyder Wind Farm 1B Pty Ltd as the Trustee for the Goyder Wind Farm 1B Trust,Goyder South Wind Farm 1B,Wind,196.0,74.38,Goyder South Wind Farm 1B,-33.679758,138.937597,2026-02-16T14:29:11.698704
2026/02/17 00:30:00,GULLRWF1,36.77,New Gullen Range Wind Farm Pty Ltd,Gullen Range Wind Farm,Wind,161.0,22.84,Gullen Range Wind Farm,-34.34,149.27,2026-02-16T14:29:11.698704
2026/02/17 00:30:00,GULLRWF2,56.93,New Gullen Range Wind Farm Pty Ltd,Gullen Range Wind Farm,Wind,107.0,53.21,Gullen Range Wind Farm,-34.34,149.27,2026-02-16T14:29:11.698704
2026/02/17 00:30:00,GUNNING1,18.58,Gunning Wind Energy Developments Pty Ltd,Gunning Wind Farm,Wind,47.0,39.53,Gunning Wind Farm,-34.813333,149.4,2026-02-16T14:29:11.698704
2026/02/17 00:30:00,HALLWF1,68.2,AGL SA Generation Pty Limited,Hallett 1 Wind Farm,Wind,95.0,71.79,Hallett 1 Wind Farm,-33.367778,138.728611,2026-02-16T14:29:11.698704
2026/02/17 00:30:00,HALLWF2,58.38,AGL SA Generation Pty Limited,Hallett 2 Wind Farm,Wind,71.0,82.23,Hallett 2 Wind Farm,-33.367778,138.728611,2026-02-16T14:29:11.698704
2026/02/17 00:30:00,HD1WF1,72.79,Hawkesdale Asset Pty Ltd as trustee for Hawkesdale Asset Trust,Hawkesdale Wind Farm,Wind,89.0,81.79,Hawkesdale Wind Farm,-38.147894,142.361381,2026-02-16T14:29:11.698704
2026/02/17 00:30:00,HDWF1,82.6,HWF1 Pty Ltd,Hornsdale Wind Farm,Wind,102.0,80.98,Hornsdale Wind Farm,-33.050556,138.543611,2026-02-16T14:29:11.698704
2026/02/17 00:30:00,HDWF2,74.4,HWF 2 Pty Ltd,Hornsdale Wind Farm 2,Wind,102.0,72.94,Hornsdale Wind Farm 2,-33.06,138.54,2026-02-16T14:29:11.698704
2026/02/17 00:30:00,HDWF3,81.4,HWF3 Pty Ltd,Hornsdale Wind Farm 3,Wind,109.0,74.68,Hornsdale Wind Farm 3,-33.06,138.54,2026-02-16T14:29:11.698704
2026/02/17 00:30:00,KABANWF1,5.51,Kaban Wind Farm Pty Ltd as trustee for Kaban Wind Farm Trust,Kaban Wind Farm,Wind,152.0,3.62,Kaban Wind Farm,-17.56,145.41,2026-02-16T14:29:11.698704
2026/02/17 00:30:00,KEPWF1,17.3,Kennedy Energy Park Pty Ltd,Kennedy Energy Park,Wind,43.0,40.23,Kennedy Energy Park,-20.88,144.42,2026-02-16T14:29:11.698704
2026/02/17 00:30:00,KIATAWF1,30.8,Kiata ProjectCo Pty Ltd Atf Kiata Project Trust,Kiata Wind Farm,Wind,31.0,99.35,Kiata Wind Farm,-36.4,141.75,2026-02-16T14:29:11.698704
2026/02/17 00:30:00,LGAPWF1,54.55,Lincoln Gap Wind Farm (Operations) Pty Ltd,Lincoln Gap Wind Farm,Wind,123.0,44.35,Lincoln Gap Wind Farm,-32.564279,137.557328,2026-02-16T14:29:11.698704
2026/02/17 00:30:00,LGAPWF1,54.55,Lincoln Gap Wind Farm (Operations) Pty Ltd,Lincoln Gap Wind Farm,Wind,123.0,44.35,Lincoln Gap Wind Farm,-32.564279,137.557328,2026-02-16T14:29:11.698704
2026/02/17 00:30:00,LGAPWF2,62.27,Lincoln Gap Wind Farm (Operations) Pty Ltd,Lincoln Gap Wind Farm,Wind,85.0,73.26,Lincoln Gap Wind Farm,-32.564279,137.557328,2026-02-16T14:29:11.698704
2026/02/17 00:30:00,LGAPWF2,62.27,Lincoln Gap Wind Farm (Operations) Pty Ltd,Lincoln Gap Wind Farm,Wind,85.0,73.26,Lincoln Gap Wind Farm,-32.564279,137.557328,2026-02-16T14:29:11.698704
2026/02/17 00:30:00,LKBONNY1,50.64,Lake Bonney Wind Power Pty Ltd,Lake Bonney Wind Farm Stage 1,Wind,81.0,62.52,Lake Bonney Wind Farm Stage 1,-37.76,140.4,2026-02-16T14:29:11.698704
2026/02/17 00:30:00,LKBONNY2,88.54,Lake Bonney Wind Power Pty Ltd,Lake Bonney Stage 2 Windfarm,Wind,159.0,55.69,Lake Bonney Stage 2 Windfarm,-37.76,140.4,2026-02-16T14:29:11.698704
2026/02/17 00:30:00,LKBONNY3,20.15,Lake Bonney Wind Power Pty Ltd,Lake Bonney Stage 3 Wind Farm,Wind,39.0,51.67,Lake Bonney Stage 3 Wind Farm,-37.737781,140.388137,2026-02-16T14:29:11.698704
2026/02/17 00:30:00,MACARTH1,218.6,AGL Hydro Partnership,Macarthur Wind Farm,Wind,420.0,52.05,Macarthur Wind Farm,-38.048957,142.192112,2026-02-16T14:29:11.698704
2026/02/17 00:30:00,MCINTYR1,375.21,MacIntyre UJV Operator Pty Ltd,MacIntyre Wind Farm,Wind,890.0,42.16,MacIntyre Wind Farm,-28.32,151.54,2026-02-16T14:29:11.698704
2026/02/17 00:30:00,MERCER01,86.1,Mt Mercer Windfarm Pty Ltd,Mt Mercer Wind Farm,Wind,131.0,65.73,Mt Mercer Wind Farm,-37.841111,143.871111,2026-02-16T14:29:11.698704
2026/02/17 00:30:00,MEWF1,0.0,Ergon Energy Queensland Pty Ltd ,Mount Emerald Wind Farm,Wind,178.0,0.0,Mount Emerald Wind Farm,-17.133007,145.380644,2026-02-16T14:29:11.698704
2026/02/17 00:30:00,MRTLSWF1,73.09,Mortlake South Wind Farm Pty Ltd,Mortlake South Wind Farm,Wind,153.0,47.77,Mortlake South Wind Farm,-38.127337,142.857801,2026-02-16T14:29:11.698704
2026/02/17 00:30:00,MTGELWF1,34.5,Mt. Gellibrand Wind Farm Pty Ltd,Mt Gellibrand Wind Farm,Wind,132.0,26.14,Mt Gellibrand Wind Farm,-38.23,143.77,2026-02-16T14:29:11.698704
2026/02/17 00:30:00,MTMILLAR,53.7,Mt Millar Wind Farm Pty Ltd,Mt Millar Wind Farm,Wind,70.0,76.71,Mt Millar Wind Farm,-33.624444,136.703611,2026-02-16T14:29:11.698704
2026/02/17 00:30:00,MUSSELR1,26.0,Hydro-Electric Corporation,Musselroe Wind Farm,Wind,168.0,15.48,Musselroe Wind Farm,-40.780225,148.010799,2026-02-16T14:29:11.698704
2026/02/17 00:30:00,MUWAWF1,191.95,Telstra Energy (Generation) Pty Ltd,Murra Warra Wind Farm,Wind,225.7,85.05,Murra Warra Wind Farm,-36.432404,142.317853,2026-02-16T14:29:11.698704
2026/02/17 00:30:00,MUWAWF2,173.4,Murra Warra II Project Co Pty Ltd ATF The Murra Warra II Project Trust,Murra Warra Wind Farm Stage 2,Wind,203.0,85.42,Murra Warra Wind Farm Stage 2,-36.43,142.32,2026-02-16T14:29:11.698704
2026/02/17 00:30:00,NBHWF1,103.5,AGL SA Generation Pty Limited,North Brown Hill Wind Farm,Wind,132.0,78.41,North Brown Hill Wind Farm,-33.367778,138.728611,2026-02-16T14:29:11.698704
2026/02/17 00:30:00,OAKLAND1,44.4,AGL Hydro Partnership,Oaklands Hill Wind Farm,Wind,63.0,70.48,Oaklands Hill Wind Farm,-37.683078,142.551678,2026-02-16T14:29:11.698704
2026/02/17 00:30:00,PAREPW1,176.21,Iberdrola Australia Energy Markets Pty Limited,Port Augusta Renewable Energy Park,Wind,201.0,87.67,Port Augusta Renewable Energy Park,-32.566944,137.856111,2026-02-16T14:29:11.698704
2026/02/17 00:30:00,RYANCWF1,89.32,Ryan Corner Development Pty Ltd,Ryan Corner Wind Farm,Wind,205.0,43.57,Ryan Corner Wind Farm,-38.271017,142.140647,2026-02-16T14:29:11.698704
2026/02/17 00:30:00,RYEPARK1,83.36,Rye Park Renewable Energy Pty Ltd as trustee for Rye Park Wind Farm Trust,Rye Park Renewable Energy,Wind,384.0,21.71,Rye Park Renewable Energy,-32.138333,148.972778,2026-02-16T14:29:11.698704
2026/02/17 00:30:00,SALTCRK1,44.93,Salt Creek Wind Farm Pty Ltd,Salt Creek Wind Farm,Wind,54.0,83.2,Salt Creek Wind Farm,-37.95,142.63,2026-02-16T14:29:11.698704
2026/02/17 00:30:00,SAPHWF1,261.26,The Trustee For The SWF1 Operations Trust,Sapphire Wind Farm,Wind,270.0,96.76,Sapphire Wind Farm,-29.7,151.41,2026-02-16T14:29:11.698704
2026/02/17 00:30:00,SNOWNTH1,127.1,Snowtown Wind Farm Stage 2 Pty Ltd,Snowtown Wind Farm Stage 2 North,Wind,144.0,88.26,Snowtown Wind Farm Stage 2 North,-33.83,138.118611,2026-02-16T14:29:11.698704
2026/02/17 00:30:00,SNOWSTH1,121.6,Snowtown Wind Farm Stage 2 Pty Ltd,Snowtown South Wind Farm,Wind,126.0,96.51,Snowtown South Wind Farm,-33.83,138.118611,2026-02-16T14:29:11.698704
2026/02/17 00:30:00,SNOWTWN1,88.9,Snowtown Wind Farm Pty Ltd,Snowtown Wind Farm Units 1 And 47,Wind,99.0,89.8,Snowtown Wind Farm Units 1 And 47,-33.83,138.118611,2026-02-16T14:29:11.698704
2026/02/17 00:30:00,STARHLWF,11.8,Starfish Hill Wind Farm Pty Ltd,Starfish Hill Wind Farm,Wind,35.0,33.71,Starfish Hill Wind Farm,-35.58,138.14,2026-02-16T14:29:11.698704
2026/02/17 00:30:00,STOCKYD1,451.56,Stockyard Hill Wind Farm Pty Ltd,Stockyard Hill Wind Farm,Wind,511.0,88.37,Stockyard Hill Wind Farm,-37.535833,143.251389,2026-02-16T14:29:11.698704
2026/02/17 00:30:00,STWF1,51.5,PARF Company 8 Pty Ltd as The Trustee for Silverton Project Trust,Silverton Wind Farm,Wind,198.0,26.01,Silverton Wind Farm,-37.683168,142.551678,2026-02-16T14:29:11.698704
2026/02/17 00:30:00,TARALGA1,21.01,Taralga Wind Farm Nominees No 2 Pty Ltd (ATF Taralga Wind Farm Operating Trust),Taralga Wind Farm,Wind,106.0,19.82,Taralga Wind Farm,-34.42352,149.826267,2026-02-16T14:29:11.698704
2026/02/17 00:30:00,WAMBOWF1,164.3,Stanwell Corporation Limited,Wambo Wind Farm 1,Wind,245.0,67.06,Wambo Wind Farm 1,-35.187301,149.524945,2026-02-16T14:29:11.698704
2026/02/17 00:30:00,WATERLWF,36.6,Waterloo Wind Farm Pty Ltd,Waterloo Wind Farm,Wind,130.0,28.15,Waterloo Wind Farm,-34.00094,138.911567,2026-02-16T14:29:11.698704
2026/02/17 00:30:00,WGWF1,94.5,Willogoleche Power Pty Ltd As The Trustee For The Willogoleche Operating Trust,Willogoleche Wind Farm,Wind,119.0,79.41,Willogoleche Wind Farm,-33.39,138.85,2026-02-16T14:29:11.698704
2026/02/17 00:30:00,WOODLWN1,10.24,Woodlawn Wind Pty Ltd,Woodlawn Wind Farm,Wind,48.0,21.33,Woodlawn Wind Farm,-35.08,149.62,2026-02-16T14:29:11.698704
2026/02/17 00:30:00,WPWF,65.42,AGL SA Generation Pty Limited,Wattle Point Wind Farm,Wind,91.0,71.89,Wattle Point Wind Farm,-35.111624,137.7219,2026-02-16T14:29:11.698704
2026/02/17 00:30:00,WRWF1,158.25,White Rock Wind Farm Pty Ltd,White Rock Wind Farm,Wind,172.0,92.01,White Rock Wind Farm,-29.79,151.54,2026-02-16T14:29:11.698704
2026/02/17 00:30:00,YENDWF1,80.8,Lal Lal Wind Farms Nom Co Pty Ltd,Yendon Wind Farm,Wind,142.0,56.9,Yendon Wind Farm,-37.629987,144.022717,2026-02-16T14:29:11.698704
