SETTLEMENTDATE,DUID,SCADAVALUE,Participant,Station Name,Fuel Source - Primary,MAX_CAP,utilisation_pct,Plant,Latitude,Longitude,timestamp_utc
2026/04/04 06:45:00,CAPTL_WF,38.8,Iberdrola Australia Holdings Pty Limited,Capital Wind Farm,Wind,140.0,27.71,Capital Wind Farm,-35.1,149.31,2026-04-03T20:51:08.191097
2026/04/04 06:45:00,CHALLHWF,20.0,Pacific Hydro Challicum Hills Pty Ltd,Challicum Hills Wind Farm,Wind,52.0,38.46,Challicum Hills Wind Farm,-37.38,143.11,2026-04-03T20:51:08.191097
2026/04/04 06:45:00,CULLRGWF,17.21,Cullerin Range Wind Farm Pty Ltd,Cullerin Range Wind Farm,Wind,30.0,57.37,Cullerin Range Wind Farm,-34.81,149.4,2026-04-03T20:51:08.191097
2026/04/04 06:45:00,DIAPURWF1,6.7,Y.E.S. Energy (SA) Pty Ltd,Diapur Wind Farm,Wind,7.0,95.71,Diapur Wind Farm,-36.3425,141.43,2026-04-03T20:51:08.191097
2026/04/04 06:45:00,MLWF1,10.11,Mortons Lane Windfarm Pty Limited,Mortons Lane Wind Farm,Wind,20.0,50.55,Mortons Lane Wind Farm,-37.84,142.45,2026-04-03T20:51:08.191097
2026/04/04 06:45:00,WAUBRAWF,144.73,Pyrenees Wind Energy Developments Pty Ltd,Waubra Wind Farm,Wind,192.0,75.38,Waubra Wind Farm,-37.394498,143.638982,2026-04-03T20:51:08.191097
2026/04/04 06:45:00,WOOLNTH1,16.0,Hydro-Electric Corporation,Woolnorth Studland Bay / Bluff Point Wind Farm,Wind,140.0,11.43,Woolnorth Studland Bay / Bluff Point Wind Farm,-40.69,144.72,2026-04-03T20:51:08.191097
2026/04/04 06:45:00,YAMBUKWF,4.2,Energy Pacific (Vic) Pty Ltd,Yambuk Wind Farm,Wind,30.0,14.0,Yambuk Wind Farm,-38.299083,142.027577,2026-04-03T20:51:08.191097
2026/04/04 06:45:00,YSWF1,8.1,Pacific Hydro Yaloak South Pty Ltd,Yaloak South Wind Farm,Wind,28.0,28.93,Yaloak South Wind Farm,-37.7163,144.242853,2026-04-03T20:51:08.191097
2026/04/04 06:45:00,ARWF1,87.3,Ararat Wind Farm Pty Ltd,Ararat Wind Farm,Wind,241.0,36.22,Ararat Wind Farm,-37.232778,143.031389,2026-04-03T20:51:08.191097
2026/04/04 06:45:00,BALDHWF1,5.03,Alinta Energy Retail Sales Pty Ltd,Bald Hills Wind Farm,Wind,106.0,4.75,Bald Hills Wind Farm,-38.79,145.93,2026-04-03T20:51:08.191097
2026/04/04 06:45:00,BANGOWF1,112.6,BWF Nominees Pty Ltd as The Trustee for BWF Trust,Bango 973 Wind Farm,Wind,155.0,72.65,Bango 973 Wind Farm,-34.551582,148.732808,2026-04-03T20:51:08.191097
2026/04/04 06:45:00,BANGOWF2,66.0,BWF Nominees Pty Ltd as The Trustee for BWF Trust,Bango 999 Wind Farm,Wind,82.0,80.49,Bango 999 Wind Farm,-34.551582,148.732808,2026-04-03T20:51:08.191097
2026/04/04 06:45:00,BLUFF1,5.4,AGL SA Generation Pty Limited,The Bluff Wind Farm,Wind,53.0,10.19,The Bluff Wind Farm,-33.367778,138.728611,2026-04-03T20:51:08.191097
2026/04/04 06:45:00,BOCORWF1,4.99,Boco Rock Wind Farm Pty Ltd,Boco Rock Wind Farm,Wind,111.0,4.5,Boco Rock Wind Farm,-36.578611,149.103333,2026-04-03T20:51:08.191097
2026/04/04 06:45:00,BRYB1WF1,48.78,Berrybank Development Pty Ltd,Berrybank Wind Farm,Wind,175.9,27.73,Berrybank Wind Farm,-37.94,143.52,2026-04-03T20:51:08.191097
2026/04/04 06:45:00,BRYB2WF2,34.01,Berrybank 2 Asset Pty Ltd as trustee for Berrybank 2 Asset Trust,Berrybank 2 Wind Farm,Wind,105.0,32.39,Berrybank 2 Wind Farm,-37.94,143.52,2026-04-03T20:51:08.191097
2026/04/04 06:45:00,BULGANA1,0.0,Bulgana Wind Farm Pty Ltd,Bulgana Green Power Hub,Wind,204.0,0.0,Bulgana Green Power Hub,-37.0975,142.973611,2026-04-03T20:51:08.191097
2026/04/04 06:45:00,CATHROCK,47.1,Cathedral Rocks Wind Farm Pty Ltd,Cathedral Rocks,Wind,66.0,71.36,Cathedral Rocks,-34.51,135.35,2026-04-03T20:51:08.191097
2026/04/04 06:45:00,CHYTWF1,45.45,Cherry Tree Wind Farm Pty Ltd as trustee for The Cherry Tree Project trust ,Cherry Tree Wind Farm,Wind,57.0,79.74,Cherry Tree Wind Farm,-37.1,145.26,2026-04-03T20:51:08.191097
2026/04/04 06:45:00,CLEMGPWF,46.39,Pacific Hydro Clements Gap Pty Ltd,Clements Gap Wind Farm,Wind,57.0,81.39,Clements Gap Wind Farm,-33.48,138.1,2026-04-03T20:51:08.191097
2026/04/04 06:45:00,CLRKCWF1,201.11,Stanwell Corporation Limited ,Clarke Creek Wind Farm,Wind,338.0,59.5,Clarke Creek Wind Farm,-22.85,149.45,2026-04-03T20:51:08.191097
2026/04/04 06:45:00,CLRKCWF2,74.37,Stanwell Corporation Limited ,Clarke Creek Wind Farm,Wind,101.0,73.63,Clarke Creek Wind Farm,-22.85,149.45,2026-04-03T20:51:08.191097
2026/04/04 06:45:00,CNUNDAWF,7.71,Canunda Power Pty Ltd,Canunda Wind Farm,Wind,46.0,16.76,Canunda Wind Farm,-37.73,140.39,2026-04-03T20:51:08.191097
2026/04/04 06:45:00,COLWF01,90.9,Collector Wind Farm Pty Ltd,Collector Wind Farm 1,Wind,219.0,41.51,Collector Wind Farm 1,-34.8719,149.3967,2026-04-03T20:51:08.191097
2026/04/04 06:45:00,COOPGWF1,243.2,PARF Company 10 Pty Limited as The Trustee for Coopers Gap Project Trust,Coopers Gap Wind Farm,Wind,440.0,55.27,Coopers Gap Wind Farm,-26.74,151.45,2026-04-03T20:51:08.191097
2026/04/04 06:45:00,CROOKWF2,15.18,Crookwell Development Pty Ltd ,Crookwell 2 Wind Farm,Wind,91.0,16.68,Crookwell 2 Wind Farm,-34.52,149.54,2026-04-03T20:51:08.191097
2026/04/04 06:45:00,CROOKWF3,9.24,Crookwell 3 Development Pty Ltd,Crookwell 3 Wind Farm,Wind,56.0,16.5,Crookwell 3 Wind Farm,-34.52,149.54,2026-04-03T20:51:08.191097
2026/04/04 06:45:00,CROWLWF1,62.98,Pacific Hydro Crowlands Pty Ltd ,Crowlands Wind Farm,Wind,79.0,79.72,Crowlands Wind Farm,-37.13,143.16,2026-04-03T20:51:08.191097
2026/04/04 06:45:00,CRURWF1,45.6,CRWF Nominees Pty Ltd As Trustee For The CRWF Trust,Crudine Ridge Wind Farm,Wind,138.0,33.04,Crudine Ridge Wind Farm,-32.97,149.64,2026-04-03T20:51:08.191097
2026/04/04 06:45:00,CTHLWF1,0.0,Wild Cattle Hill Pty Ltd,Cattle Hill Wind Farm,Wind,144.0,0.0,Cattle Hill Wind Farm,-42.15,146.69,2026-04-03T20:51:08.191097
2026/04/04 06:45:00,DULAWF1,68.3,Dulacca Energy Project Co Pty Ltd,Dulacca Wind Farm,Wind,173.0,39.48,Dulacca Wind Farm,-26.63,149.87,2026-04-03T20:51:08.191097
2026/04/04 06:45:00,DUNDWF1,67.0,Dundonnell Wind Farm Pty Ltd,Dundonnell Wind Farm,Wind,168.0,39.88,Dundonnell Wind Farm,-37.52,142.58,2026-04-03T20:51:08.191097
2026/04/04 06:45:00,DUNDWF2,19.82,Dundonnell Wind Farm Pty Ltd,Dundonnell Wind Farm,Wind,46.0,43.09,Dundonnell Wind Farm,-37.52,142.58,2026-04-03T20:51:08.191097
2026/04/04 06:45:00,DUNDWF3,47.45,Dundonnell Wind Farm Pty Ltd,Dundonnell Wind Farm,Wind,122.0,38.89,Dundonnell Wind Farm,-37.52,142.58,2026-04-03T20:51:08.191097
2026/04/04 06:45:00,ELAINWF1,63.91,Lal Lal Wind Farms Nom Co Pty Ltd,Elaine Wind Farm,Wind,82.0,77.94,Elaine Wind Farm,-37.36,144.0,2026-04-03T20:51:08.191097
2026/04/04 06:45:00,FLYCRKWF,87.9,Iberdrola Australia Energy Markets Pty Limited,Flyers Creek Wind Farm,Wind,140.0,62.79,Flyers Creek Wind Farm,-33.365556,148.981944,2026-04-03T20:51:08.191097
2026/04/04 06:45:00,GPWFEST1,170.54,Golden Plains WF1 Pty Ltd as Trustee for the Golden Plains WF1 Unit Trust,Golden Plains Wind Farm East,Wind,240.0,71.06,Golden Plains Wind Farm East,-37.945091,143.752614,2026-04-03T20:51:08.191097
2026/04/04 06:45:00,GPWFEST2,184.19,Golden Plains WF1 Pty Ltd as Trustee for the Golden Plains WF1 Unit Trust,Golden Plains Wind Farm East,Wind,253.0,72.8,Golden Plains Wind Farm East,-37.945091,143.752614,2026-04-03T20:51:08.191097
2026/04/04 06:45:00,GPWFEST3,127.1,Golden Plains WF1 Pty Ltd as Trustee for the Golden Plains WF1 Unit Trust,Golden Plains Wind Farm East,Wind,240.0,52.96,Golden Plains Wind Farm East,-37.945091,143.752614,2026-04-03T20:51:08.191097
2026/04/04 06:45:00,GRANWF1,0.56,Granville Harbour Operations Pty Ltd as The Trustee for Granville Harbour Operations Trust,Granville Harbour Wind Farm,Wind,111.0,0.5,Granville Harbour Wind Farm,-41.8,145.06,2026-04-03T20:51:08.191097
2026/04/04 06:45:00,GSWF1A,139.62,Goyder Wind Farm 1 Pty Ltd as the Trustee for Goyder Wind Farm 1 Trust,Goyder South Wind Farm 1A,Wind,201.0,69.46,Goyder South Wind Farm 1A,-33.679758,138.937597,2026-04-03T20:51:08.191097
2026/04/04 06:45:00,GSWF1B1,64.34,Goyder Wind Farm 1B Pty Ltd as the Trustee for the Goyder Wind Farm 1B Trust,Goyder South Wind Farm 1B,Wind,196.0,32.83,Goyder South Wind Farm 1B,-33.679758,138.937597,2026-04-03T20:51:08.191097
2026/04/04 06:45:00,GULLRWF1,49.02,New Gullen Range Wind Farm Pty Ltd,Gullen Range Wind Farm,Wind,161.0,30.45,Gullen Range Wind Farm,-34.34,149.27,2026-04-03T20:51:08.191097
2026/04/04 06:45:00,GULLRWF2,70.59,New Gullen Range Wind Farm Pty Ltd,Gullen Range Wind Farm,Wind,107.0,65.97,Gullen Range Wind Farm,-34.34,149.27,2026-04-03T20:51:08.191097
2026/04/04 06:45:00,GUNNING1,28.33,Gunning Wind Energy Developments Pty Ltd,Gunning Wind Farm,Wind,47.0,60.28,Gunning Wind Farm,-34.813333,149.4,2026-04-03T20:51:08.191097
2026/04/04 06:45:00,HALLWF1,45.16,AGL SA Generation Pty Limited,Hallett 1 Wind Farm,Wind,95.0,47.54,Hallett 1 Wind Farm,-33.367778,138.728611,2026-04-03T20:51:08.191097
2026/04/04 06:45:00,HALLWF2,39.79,AGL SA Generation Pty Limited,Hallett 2 Wind Farm,Wind,71.0,56.04,Hallett 2 Wind Farm,-33.367778,138.728611,2026-04-03T20:51:08.191097
2026/04/04 06:45:00,HD1WF1,54.53,Hawkesdale Asset Pty Ltd as trustee for Hawkesdale Asset Trust,Hawkesdale Wind Farm,Wind,89.0,61.27,Hawkesdale Wind Farm,-38.147894,142.361381,2026-04-03T20:51:08.191097
2026/04/04 06:45:00,HDWF1,79.3,HWF1 Pty Ltd,Hornsdale Wind Farm,Wind,102.0,77.75,Hornsdale Wind Farm,-33.050556,138.543611,2026-04-03T20:51:08.191097
2026/04/04 06:45:00,HDWF2,90.2,HWF 2 Pty Ltd,Hornsdale Wind Farm 2,Wind,102.0,88.43,Hornsdale Wind Farm 2,-33.06,138.54,2026-04-03T20:51:08.191097
2026/04/04 06:45:00,HDWF3,86.5,HWF3 Pty Ltd,Hornsdale Wind Farm 3,Wind,109.0,79.36,Hornsdale Wind Farm 3,-33.06,138.54,2026-04-03T20:51:08.191097
2026/04/04 06:45:00,KABANWF1,76.93,Kaban Wind Farm Pty Ltd as trustee for Kaban Wind Farm Trust,Kaban Wind Farm,Wind,152.0,50.61,Kaban Wind Farm,-17.56,145.41,2026-04-03T20:51:08.191097
2026/04/04 06:45:00,KEPWF1,27.3,Kennedy Energy Park Pty Ltd,Kennedy Energy Park,Wind,43.0,63.49,Kennedy Energy Park,-20.88,144.42,2026-04-03T20:51:08.191097
2026/04/04 06:45:00,KIATAWF1,20.8,Kiata ProjectCo Pty Ltd Atf Kiata Project Trust,Kiata Wind Farm,Wind,31.0,67.1,Kiata Wind Farm,-36.4,141.75,2026-04-03T20:51:08.191097
2026/04/04 06:45:00,LGAPWF1,17.99,Lincoln Gap Wind Farm (Operations) Pty Ltd,Lincoln Gap Wind Farm,Wind,123.0,14.63,Lincoln Gap Wind Farm,-32.564279,137.557328,2026-04-03T20:51:08.191097
2026/04/04 06:45:00,LGAPWF1,17.99,Lincoln Gap Wind Farm (Operations) Pty Ltd,Lincoln Gap Wind Farm,Wind,123.0,14.63,Lincoln Gap Wind Farm,-32.564279,137.557328,2026-04-03T20:51:08.191097
2026/04/04 06:45:00,LGAPWF2,26.46,Lincoln Gap Wind Farm (Operations) Pty Ltd,Lincoln Gap Wind Farm,Wind,85.0,31.13,Lincoln Gap Wind Farm,-32.564279,137.557328,2026-04-03T20:51:08.191097
2026/04/04 06:45:00,LGAPWF2,26.46,Lincoln Gap Wind Farm (Operations) Pty Ltd,Lincoln Gap Wind Farm,Wind,85.0,31.13,Lincoln Gap Wind Farm,-32.564279,137.557328,2026-04-03T20:51:08.191097
2026/04/04 06:45:00,LKBONNY1,13.22,Lake Bonney Wind Power Pty Ltd,Lake Bonney Wind Farm Stage 1,Wind,81.0,16.32,Lake Bonney Wind Farm Stage 1,-37.76,140.4,2026-04-03T20:51:08.191097
2026/04/04 06:45:00,LKBONNY2,38.21,Lake Bonney Wind Power Pty Ltd,Lake Bonney Stage 2 Windfarm,Wind,159.0,24.03,Lake Bonney Stage 2 Windfarm,-37.76,140.4,2026-04-03T20:51:08.191097
2026/04/04 06:45:00,LKBONNY3,9.21,Lake Bonney Wind Power Pty Ltd,Lake Bonney Stage 3 Wind Farm,Wind,39.0,23.62,Lake Bonney Stage 3 Wind Farm,-37.737781,140.388137,2026-04-03T20:51:08.191097
2026/04/04 06:45:00,MACARTH1,118.6,AGL Hydro Partnership,Macarthur Wind Farm,Wind,420.0,28.24,Macarthur Wind Farm,-38.048957,142.192112,2026-04-03T20:51:08.191097
2026/04/04 06:45:00,MCINTYR1,99.46,MacIntyre UJV Operator Pty Ltd,MacIntyre Wind Farm,Wind,890.0,11.18,MacIntyre Wind Farm,-28.32,151.54,2026-04-03T20:51:08.191097
2026/04/04 06:45:00,MERCER01,63.4,Mt Mercer Windfarm Pty Ltd,Mt Mercer Wind Farm,Wind,131.0,48.4,Mt Mercer Wind Farm,-37.841111,143.871111,2026-04-03T20:51:08.191097
2026/04/04 06:45:00,MEWF1,72.28,Ergon Energy Queensland Pty Ltd ,Mount Emerald Wind Farm,Wind,178.0,40.61,Mount Emerald Wind Farm,-17.133007,145.380644,2026-04-03T20:51:08.191097
2026/04/04 06:45:00,MRTLSWF1,51.77,Mortlake South Wind Farm Pty Ltd,Mortlake South Wind Farm,Wind,153.0,33.84,Mortlake South Wind Farm,-38.127337,142.857801,2026-04-03T20:51:08.191097
2026/04/04 06:45:00,MTGELWF1,17.68,Mt. Gellibrand Wind Farm Pty Ltd,Mt Gellibrand Wind Farm,Wind,132.0,13.39,Mt Gellibrand Wind Farm,-38.23,143.77,2026-04-03T20:51:08.191097
2026/04/04 06:45:00,MTMILLAR,10.5,Mt Millar Wind Farm Pty Ltd,Mt Millar Wind Farm,Wind,70.0,15.0,Mt Millar Wind Farm,-33.624444,136.703611,2026-04-03T20:51:08.191097
2026/04/04 06:45:00,MUSSELR1,59.6,Hydro-Electric Corporation,Musselroe Wind Farm,Wind,168.0,35.48,Musselroe Wind Farm,-40.780225,148.010799,2026-04-03T20:51:08.191097
2026/04/04 06:45:00,MUWAWF1,2.86,Telstra Energy (Generation) Pty Ltd,Murra Warra Wind Farm,Wind,225.7,1.27,Murra Warra Wind Farm,-36.432404,142.317853,2026-04-03T20:51:08.191097
2026/04/04 06:45:00,MUWAWF2,188.9,Murra Warra II Project Co Pty Ltd ATF The Murra Warra II Project Trust,Murra Warra Wind Farm Stage 2,Wind,203.0,93.05,Murra Warra Wind Farm Stage 2,-36.43,142.32,2026-04-03T20:51:08.191097
2026/04/04 06:45:00,NBHWF1,89.9,AGL SA Generation Pty Limited,North Brown Hill Wind Farm,Wind,132.0,68.11,North Brown Hill Wind Farm,-33.367778,138.728611,2026-04-03T20:51:08.191097
2026/04/04 06:45:00,OAKLAND1,38.9,AGL Hydro Partnership,Oaklands Hill Wind Farm,Wind,63.0,61.75,Oaklands Hill Wind Farm,-37.683078,142.551678,2026-04-03T20:51:08.191097
2026/04/04 06:45:00,PAREPW1,134.42,Iberdrola Australia Energy Markets Pty Limited,Port Augusta Renewable Energy Park,Wind,201.0,66.88,Port Augusta Renewable Energy Park,-32.566944,137.856111,2026-04-03T20:51:08.191097
2026/04/04 06:45:00,RYANCWF1,77.8,Ryan Corner Development Pty Ltd,Ryan Corner Wind Farm,Wind,205.0,37.95,Ryan Corner Wind Farm,-38.271017,142.140647,2026-04-03T20:51:08.191097
2026/04/04 06:45:00,RYEPARK1,225.59,Rye Park Renewable Energy Pty Ltd as trustee for Rye Park Wind Farm Trust,Rye Park Renewable Energy,Wind,384.0,58.75,Rye Park Renewable Energy,-32.138333,148.972778,2026-04-03T20:51:08.191097
2026/04/04 06:45:00,SALTCRK1,16.12,Salt Creek Wind Farm Pty Ltd,Salt Creek Wind Farm,Wind,54.0,29.85,Salt Creek Wind Farm,-37.95,142.63,2026-04-03T20:51:08.191097
2026/04/04 06:45:00,SAPHWF1,232.85,The Trustee For The SWF1 Operations Trust,Sapphire Wind Farm,Wind,270.0,86.24,Sapphire Wind Farm,-29.7,151.41,2026-04-03T20:51:08.191097
2026/04/04 06:45:00,SNOWNTH1,45.4,Snowtown Wind Farm Stage 2 Pty Ltd,Snowtown Wind Farm Stage 2 North,Wind,144.0,31.53,Snowtown Wind Farm Stage 2 North,-33.83,138.118611,2026-04-03T20:51:08.191097
2026/04/04 06:45:00,SNOWSTH1,61.9,Snowtown Wind Farm Stage 2 Pty Ltd,Snowtown South Wind Farm,Wind,126.0,49.13,Snowtown South Wind Farm,-33.83,138.118611,2026-04-03T20:51:08.191097
2026/04/04 06:45:00,SNOWTWN1,62.23,Snowtown Wind Farm Pty Ltd,Snowtown Wind Farm Units 1 And 47,Wind,99.0,62.86,Snowtown Wind Farm Units 1 And 47,-33.83,138.118611,2026-04-03T20:51:08.191097
2026/04/04 06:45:00,STARHLWF,29.09,Starfish Hill Wind Farm Pty Ltd,Starfish Hill Wind Farm,Wind,35.0,83.11,Starfish Hill Wind Farm,-35.58,138.14,2026-04-03T20:51:08.191097
2026/04/04 06:45:00,STOCKYD1,275.04,Stockyard Hill Wind Farm Pty Ltd,Stockyard Hill Wind Farm,Wind,511.0,53.82,Stockyard Hill Wind Farm,-37.535833,143.251389,2026-04-03T20:51:08.191097
2026/04/04 06:45:00,STWF1,148.72,PARF Company 8 Pty Ltd as The Trustee for Silverton Project Trust,Silverton Wind Farm,Wind,198.0,75.11,Silverton Wind Farm,-37.683168,142.551678,2026-04-03T20:51:08.191097
2026/04/04 06:45:00,TARALGA1,18.11,Taralga Wind Farm Nominees No 2 Pty Ltd (ATF Taralga Wind Farm Operating Trust),Taralga Wind Farm,Wind,106.0,17.08,Taralga Wind Farm,-34.42352,149.826267,2026-04-03T20:51:08.191097
2026/04/04 06:45:00,WAMBOWF1,97.45,Stanwell Corporation Limited,Wambo Wind Farm 1,Wind,245.0,39.78,Wambo Wind Farm 1,-35.187301,149.524945,2026-04-03T20:51:08.191097
2026/04/04 06:45:00,WATERLWF,91.7,Waterloo Wind Farm Pty Ltd,Waterloo Wind Farm,Wind,130.0,70.54,Waterloo Wind Farm,-34.00094,138.911567,2026-04-03T20:51:08.191097
2026/04/04 06:45:00,WGWF1,64.4,Willogoleche Power Pty Ltd As The Trustee For The Willogoleche Operating Trust,Willogoleche Wind Farm,Wind,119.0,54.12,Willogoleche Wind Farm,-33.39,138.85,2026-04-03T20:51:08.191097
2026/04/04 06:45:00,WOODLWN1,21.22,Woodlawn Wind Pty Ltd,Woodlawn Wind Farm,Wind,48.0,44.21,Woodlawn Wind Farm,-35.08,149.62,2026-04-03T20:51:08.191097
2026/04/04 06:45:00,WPWF,54.72,AGL SA Generation Pty Limited,Wattle Point Wind Farm,Wind,91.0,60.13,Wattle Point Wind Farm,-35.111624,137.7219,2026-04-03T20:51:08.191097
2026/04/04 06:45:00,WRWF1,156.61,White Rock Wind Farm Pty Ltd,White Rock Wind Farm,Wind,172.0,91.05,White Rock Wind Farm,-29.79,151.54,2026-04-03T20:51:08.191097
2026/04/04 06:45:00,YENDWF1,70.34,Lal Lal Wind Farms Nom Co Pty Ltd,Yendon Wind Farm,Wind,142.0,49.54,Yendon Wind Farm,-37.629987,144.022717,2026-04-03T20:51:08.191097
