SETTLEMENTDATE,DUID,SCADAVALUE,Participant,Station Name,Fuel Source - Primary,REG_CAP,utilisation_pct,Plant,Latitude,Longitude,timestamp_utc
2026/01/30 19:35:00,CAPTL_WF,104.4,Iberdrola Australia Holdings Pty Limited,Capital Wind Farm,Wind,140.0,74.57,Capital Wind Farm,-35.1,149.31,2026-01-30T09:34:57.107689
2026/01/30 19:35:00,CHALLHWF,20.3,Pacific Hydro Challicum Hills Pty Ltd,Challicum Hills Wind Farm,Wind,52.5,38.67,Challicum Hills Wind Farm,-37.38,143.11,2026-01-30T09:34:57.107689
2026/01/30 19:35:00,CULLRGWF,3.39,Cullerin Range Wind Farm Pty Ltd,Cullerin Range Wind Farm,Wind,30.0,11.3,Cullerin Range Wind Farm,-34.81,149.4,2026-01-30T09:34:57.107689
2026/01/30 19:35:00,DIAPURWF1,5.0,Y.E.S. Energy (SA) Pty Ltd,Diapur Wind Farm,Wind,8.0,62.5,Diapur Wind Farm,-36.3425,141.43,2026-01-30T09:34:57.107689
2026/01/30 19:35:00,MLWF1,2.4,Mortons Lane Windfarm Pty Limited,Mortons Lane Wind Farm,Wind,20.0,12.0,Mortons Lane Wind Farm,-37.84,142.45,2026-01-30T09:34:57.107689
2026/01/30 19:35:00,WAUBRAWF,75.81,Pyrenees Wind Energy Developments Pty Ltd,Waubra Wind Farm,Wind,192.0,39.48,Waubra Wind Farm,-37.394498,143.638982,2026-01-30T09:34:57.107689
2026/01/30 19:35:00,WOOLNTH1,7.38,Hydro-Electric Corporation,Woolnorth Studland Bay / Bluff Point Wind Farm,Wind,140.0,5.27,Woolnorth Studland Bay / Bluff Point Wind Farm,-40.69,144.72,2026-01-30T09:34:57.107689
2026/01/30 19:35:00,YAMBUKWF,0.5,Energy Pacific (Vic) Pty Ltd,Yambuk Wind Farm,Wind,30.0,1.67,Yambuk Wind Farm,-38.299083,142.027577,2026-01-30T09:34:57.107689
2026/01/30 19:35:00,YSWF1,0.0,Pacific Hydro Yaloak South Pty Ltd,Yaloak South Wind Farm,Wind,28.7,0.0,Yaloak South Wind Farm,-37.7163,144.242853,2026-01-30T09:34:57.107689
2026/01/30 19:35:00,ARWF1,83.6,Ararat Wind Farm Pty Ltd,Ararat Wind Farm,Wind,241.59,34.6,Ararat Wind Farm,-37.232778,143.031389,2026-01-30T09:34:57.107689
2026/01/30 19:35:00,BALDHWF1,31.94,Alinta Energy Retail Sales Pty Ltd,Bald Hills Wind Farm,Wind,106.6,29.96,Bald Hills Wind Farm,-38.79,145.93,2026-01-30T09:34:57.107689
2026/01/30 19:35:00,BANGOWF1,32.6,BWF Nominees Pty Ltd as The Trustee for BWF Trust,Bango 973 Wind Farm,Wind,159.0,20.5,Bango 973 Wind Farm,-34.551582,148.732808,2026-01-30T09:34:57.107689
2026/01/30 19:35:00,BANGOWF2,11.6,BWF Nominees Pty Ltd as The Trustee for BWF Trust,Bango 999 Wind Farm,Wind,84.8,13.68,Bango 999 Wind Farm,-34.551582,148.732808,2026-01-30T09:34:57.107689
2026/01/30 19:35:00,BLUFF1,44.4,AGL SA Generation Pty Limited,The Bluff Wind Farm,Wind,52.5,84.57,The Bluff Wind Farm,-33.367778,138.728611,2026-01-30T09:34:57.107689
2026/01/30 19:35:00,BOCORWF1,14.27,Boco Rock Wind Farm Pty Ltd,Boco Rock Wind Farm,Wind,113.18,12.61,Boco Rock Wind Farm,-36.578611,149.103333,2026-01-30T09:34:57.107689
2026/01/30 19:35:00,BRYB1WF1,15.41,Berrybank Development Pty Ltd,Berrybank Wind Farm,Wind,180.6,8.53,Berrybank Wind Farm,-37.94,143.52,2026-01-30T09:34:57.107689
2026/01/30 19:35:00,BRYB2WF2,11.81,Berrybank 2 Asset Pty Ltd as trustee for Berrybank 2 Asset Trust,Berrybank 2 Wind Farm,Wind,109.0,10.83,Berrybank 2 Wind Farm,-37.94,143.52,2026-01-30T09:34:57.107689
2026/01/30 19:35:00,BULGANA1,0.0,Bulgana Wind Farm Pty Ltd,Bulgana Green Power Hub,Wind,204.0,0.0,Bulgana Green Power Hub,-37.0975,142.973611,2026-01-30T09:34:57.107689
2026/01/30 19:35:00,CATHROCK,8.4,Cathedral Rocks Wind Farm Pty Ltd,Cathedral Rocks,Wind,66.0,12.73,Cathedral Rocks,34.51,135.35,2026-01-30T09:34:57.107689
2026/01/30 19:35:00,CHYTWF1,43.63,Cherry Tree Wind Farm Pty Ltd as trustee for The Cherry Tree Project trust ,Cherry Tree Wind Farm,Wind,57.6,75.75,Cherry Tree Wind Farm,-37.1,145.26,2026-01-30T09:34:57.107689
2026/01/30 19:35:00,CLEMGPWF,39.98,Pacific Hydro Clements Gap Pty Ltd,Clements Gap Wind Farm,Wind,57.0,70.14,Clements Gap Wind Farm,-33.48,138.1,2026-01-30T09:34:57.107689
2026/01/30 19:35:00,CLRKCWF1,151.91,Stanwell Corporation Limited ,Clarke Creek Wind Farm,Wind,345.5,43.97,Clarke Creek Wind Farm,-22.85,149.45,2026-01-30T09:34:57.107689
2026/01/30 19:35:00,CLRKCWF2,47.44,Stanwell Corporation Limited ,Clarke Creek Wind Farm,Wind,103.5,45.84,Clarke Creek Wind Farm,-22.85,149.45,2026-01-30T09:34:57.107689
2026/01/30 19:35:00,CNUNDAWF,17.92,Canunda Power Pty Ltd,Canunda Wind Farm,Wind,46.0,38.96,Canunda Wind Farm,-37.73,140.39,2026-01-30T09:34:57.107689
2026/01/30 19:35:00,COLWF01,11.71,Collector Wind Farm Pty Ltd,Collector Wind Farm 1,Wind,226.0,5.18,Collector Wind Farm 1,-34.8719,149.3967,2026-01-30T09:34:57.107689
2026/01/30 19:35:00,COOPGWF1,171.38,PARF Company 10 Pty Limited as The Trustee for Coopers Gap Project Trust,Coopers Gap Wind Farm,Wind,452.0,37.92,Coopers Gap Wind Farm,-26.74,151.45,2026-01-30T09:34:57.107689
2026/01/30 19:35:00,CROOKWF2,5.9,Crookwell Development Pty Ltd ,Crookwell 2 Wind Farm,Wind,96.04,6.14,Crookwell 2 Wind Farm,-34.52,149.54,2026-01-30T09:34:57.107689
2026/01/30 19:35:00,CROOKWF3,4.13,Crookwell 3 Development Pty Ltd,Crookwell 3 Wind Farm,Wind,57.0,7.25,Crookwell 3 Wind Farm,-34.52,149.54,2026-01-30T09:34:57.107689
2026/01/30 19:35:00,CROWLWF1,8.09,Pacific Hydro Crowlands Pty Ltd ,Crowlands Wind Farm,Wind,79.95,10.12,Crowlands Wind Farm,-37.13,143.16,2026-01-30T09:34:57.107689
2026/01/30 19:35:00,CRURWF1,7.2,CRWF Nominees Pty Ltd As Trustee For The CRWF Trust,Crudine Ridge Wind Farm,Wind,141.0,5.11,Crudine Ridge Wind Farm,-32.97,149.64,2026-01-30T09:34:57.107689
2026/01/30 19:35:00,CTHLWF1,17.9,Wild Cattle Hill Pty Ltd,Cattle Hill Wind Farm,Wind,148.0,12.09,Cattle Hill Wind Farm,-42.15,146.69,2026-01-30T09:34:57.107689
2026/01/30 19:35:00,DULAWF1,60.3,Dulacca Energy Project Co Pty Ltd,Dulacca Wind Farm,Wind,180.0,33.5,Dulacca Wind Farm,-26.63,149.87,2026-01-30T09:34:57.107689
2026/01/30 19:35:00,DUNDWF1,13.3,Dundonnell Wind Farm Pty Ltd,Dundonnell Wind Farm,Wind,168.0,7.92,Dundonnell Wind Farm,-37.52,142.58,2026-01-30T09:34:57.107689
2026/01/30 19:35:00,DUNDWF2,4.27,Dundonnell Wind Farm Pty Ltd,Dundonnell Wind Farm,Wind,46.0,9.28,Dundonnell Wind Farm,-37.52,142.58,2026-01-30T09:34:57.107689
2026/01/30 19:35:00,DUNDWF3,9.04,Dundonnell Wind Farm Pty Ltd,Dundonnell Wind Farm,Wind,121.0,7.47,Dundonnell Wind Farm,-37.52,142.58,2026-01-30T09:34:57.107689
2026/01/30 19:35:00,ELAINWF1,11.29,Lal Lal Wind Farms Nom Co Pty Ltd,Elaine Wind Farm,Wind,83.6,13.5,Elaine Wind Farm,-37.36,144,2026-01-30T09:34:57.107689
2026/01/30 19:35:00,FLYCRKWF,5.2,Iberdrola Australia Energy Markets Pty Limited,Flyers Creek Wind Farm,Wind,145.0,3.59,Flyers Creek Wind Farm,-33.365556,148.981944,2026-01-30T09:34:57.107689
2026/01/30 19:35:00,GPWFEST1,44.31,Golden Plains WF1 Pty Ltd as Trustee for the Golden Plains WF1 Unit Trust,Golden Plains Wind Farm East,Wind,248.0,17.87,Golden Plains Wind Farm East,-37.945091,143.752614,2026-01-30T09:34:57.107689
2026/01/30 19:35:00,GPWFEST2,43.52,Golden Plains WF1 Pty Ltd as Trustee for the Golden Plains WF1 Unit Trust,Golden Plains Wind Farm East,Wind,260.4,16.71,Golden Plains Wind Farm East,-37.945091,143.752614,2026-01-30T09:34:57.107689
2026/01/30 19:35:00,GPWFEST3,46.93,Golden Plains WF1 Pty Ltd as Trustee for the Golden Plains WF1 Unit Trust,Golden Plains Wind Farm East,Wind,248.0,18.92,Golden Plains Wind Farm East,-37.945091,143.752614,2026-01-30T09:34:57.107689
2026/01/30 19:35:00,GRANWF1,23.25,Granville Harbour Operations Pty Ltd as The Trustee for Granville Harbour Operations Trust,Granville Harbour Wind Farm,Wind,110.0,21.14,Granville Harbour Wind Farm,-41.8,145.06,2026-01-30T09:34:57.107689
2026/01/30 19:35:00,GSWF1A,140.37,Goyder Wind Farm 1 Pty Ltd as the Trustee for Goyder Wind Farm 1 Trust,Goyder South Wind Farm 1A,Wind,209.0,67.16,Goyder South Wind Farm 1A,-33.679758,138.937597,2026-01-30T09:34:57.107689
2026/01/30 19:35:00,GSWF1B1,124.35,Goyder Wind Farm 1B Pty Ltd as the Trustee for the Goyder Wind Farm 1B Trust,Goyder South Wind Farm 1B,Wind,203.0,61.26,Goyder South Wind Farm 1B,-33.679758,138.937597,2026-01-30T09:34:57.107689
2026/01/30 19:35:00,GULLRWF1,7.54,New Gullen Range Wind Farm Pty Ltd,Gullen Range Wind Farm,Wind,165.0,4.57,Gullen Range Wind Farm,-34.34,149.27,2026-01-30T09:34:57.107689
2026/01/30 19:35:00,GULLRWF2,1.95,New Gullen Range Wind Farm Pty Ltd,Gullen Range Wind Farm,Wind,110.0,1.77,Gullen Range Wind Farm,-34.34,149.27,2026-01-30T09:34:57.107689
2026/01/30 19:35:00,GUNNING1,4.27,Gunning Wind Energy Developments Pty Ltd,Gunning Wind Farm,Wind,46.5,9.18,Gunning Wind Farm,-34.813333,149.4,2026-01-30T09:34:57.107689
2026/01/30 19:35:00,HALLWF1,62.33,AGL SA Generation Pty Limited,Hallett 1 Wind Farm,Wind,94.5,65.96,Hallett 1 Wind Farm,-33.367778,138.728611,2026-01-30T09:34:57.107689
2026/01/30 19:35:00,HALLWF2,55.45,AGL SA Generation Pty Limited,Hallett 2 Wind Farm,Wind,71.4,77.66,Hallett 2 Wind Farm,-33.367778,138.728611,2026-01-30T09:34:57.107689
2026/01/30 19:35:00,HD1WF1,9.06,Hawkesdale Asset Pty Ltd as trustee for Hawkesdale Asset Trust,Hawkesdale Wind Farm,Wind,96.6,9.38,Hawkesdale Wind Farm,-38.147894,142.361381,2026-01-30T09:34:57.107689
2026/01/30 19:35:00,HDWF1,30.2,HWF1 Pty Ltd,Hornsdale Wind Farm,Wind,102.4,29.49,Hornsdale Wind Farm,-33.050556,138.543611,2026-01-30T09:34:57.107689
2026/01/30 19:35:00,HDWF2,27.3,HWF 2 Pty Ltd,Hornsdale Wind Farm 2,Wind,102.4,26.66,Hornsdale Wind Farm 2,-33.06,138.54,2026-01-30T09:34:57.107689
2026/01/30 19:35:00,HDWF3,24.3,HWF3 Pty Ltd,Hornsdale Wind Farm 3,Wind,112.0,21.7,Hornsdale Wind Farm 3,-33.06,138.54,2026-01-30T09:34:57.107689
2026/01/30 19:35:00,KABANWF1,60.69,Kaban Wind Farm Pty Ltd as trustee for Kaban Wind Farm Trust,Kaban Wind Farm,Wind,156.0,38.9,Kaban Wind Farm,-17.56,145.41,2026-01-30T09:34:57.107689
2026/01/30 19:35:00,KEPWF1,0.0,Kennedy Energy Park Pty Ltd,Kennedy Energy Park,Wind,43.0,0.0,Kennedy Energy Park,-20.88,144.42,2026-01-30T09:34:57.107689
2026/01/30 19:35:00,KIATAWF1,0.0,Kiata ProjectCo Pty Ltd Atf Kiata Project Trust,Kiata Wind Farm,Wind,31.05,0.0,Kiata Wind Farm,-36.4,141.75,2026-01-30T09:34:57.107689
2026/01/30 19:35:00,LGAPWF1,47.81,Lincoln Gap Wind Farm (Operations) Pty Ltd,Lincoln Gap Wind Farm,Wind,126.0,37.94,Lincoln Gap Wind Farm,-32.564279,137.557328,2026-01-30T09:34:57.107689
2026/01/30 19:35:00,LGAPWF1,47.81,Lincoln Gap Wind Farm (Operations) Pty Ltd,Lincoln Gap Wind Farm,Wind,126.0,37.94,Lincoln Gap Wind Farm,-32.564279,137.557328,2026-01-30T09:34:57.107689
2026/01/30 19:35:00,LGAPWF2,64.26,Lincoln Gap Wind Farm (Operations) Pty Ltd,Lincoln Gap Wind Farm,Wind,86.0,74.72,Lincoln Gap Wind Farm,-32.564279,137.557328,2026-01-30T09:34:57.107689
2026/01/30 19:35:00,LGAPWF2,64.26,Lincoln Gap Wind Farm (Operations) Pty Ltd,Lincoln Gap Wind Farm,Wind,86.0,74.72,Lincoln Gap Wind Farm,-32.564279,137.557328,2026-01-30T09:34:57.107689
2026/01/30 19:35:00,LKBONNY1,16.61,Lake Bonney Wind Power Pty Ltd,Lake Bonney Wind Farm Stage 1,Wind,80.5,20.63,Lake Bonney Wind Farm Stage 1,-37.76,140.4,2026-01-30T09:34:57.107689
2026/01/30 19:35:00,LKBONNY2,47.42,Lake Bonney Wind Power Pty Ltd,Lake Bonney Stage 2 Windfarm,Wind,159.0,29.82,Lake Bonney Stage 2 Windfarm,-37.76,140.4,2026-01-30T09:34:57.107689
2026/01/30 19:35:00,LKBONNY3,11.56,Lake Bonney Wind Power Pty Ltd,Lake Bonney Stage 3 Wind Farm,Wind,39.0,29.64,Lake Bonney Stage 3 Wind Farm,-37.737781,140.388137,2026-01-30T09:34:57.107689
2026/01/30 19:35:00,MACARTH1,17.5,AGL Hydro Partnership,Macarthur Wind Farm,Wind,420.0,4.17,Macarthur Wind Farm,-38.048957,142.192112,2026-01-30T09:34:57.107689
2026/01/30 19:35:00,MCINTYR1,106.92,MacIntyre UJV Operator Pty Ltd,MacIntyre Wind Farm,Wind,923.0,11.58,MacIntyre Wind Farm,-28.32,151.54,2026-01-30T09:34:57.107689
2026/01/30 19:35:00,MERCER01,16.8,Mt Mercer Windfarm Pty Ltd,Mt Mercer Wind Farm,Wind,131.2,12.8,Mt Mercer Wind Farm,-37.841111,143.871111,2026-01-30T09:34:57.107689
2026/01/30 19:35:00,MEWF1,45.46,Ergon Energy Queensland Pty Ltd ,Mount Emerald Wind Farm,Wind,180.0,25.26,Mount Emerald Wind Farm,-17.133007,145.380644,2026-01-30T09:34:57.107689
2026/01/30 19:35:00,MRTLSWF1,8.2,Mortlake South Wind Farm Pty Ltd,Mortlake South Wind Farm,Wind,157.5,5.21,Mortlake South Wind Farm,-38.127337,142.857801,2026-01-30T09:34:57.107689
2026/01/30 19:35:00,MTGELWF1,33.41,Mt. Gellibrand Wind Farm Pty Ltd,Mt Gellibrand Wind Farm,Wind,138.0,24.21,Mt Gellibrand Wind Farm,-38.23,143.77,2026-01-30T09:34:57.107689
2026/01/30 19:35:00,MTMILLAR,28.8,Mt Millar Wind Farm Pty Ltd,Mt Millar Wind Farm,Wind,70.0,41.14,Mt Millar Wind Farm,-33.624444,136.703611,2026-01-30T09:34:57.107689
2026/01/30 19:35:00,MUSSELR1,12.8,Hydro-Electric Corporation,Musselroe Wind Farm,Wind,168.0,7.62,Musselroe Wind Farm,-40.780225,148.010799,2026-01-30T09:34:57.107689
2026/01/30 19:35:00,MUWAWF1,58.83,Telstra Energy (Generation) Pty Ltd,Murra Warra Wind Farm,Wind,231.8,25.38,Murra Warra Wind Farm,-36.432404,142.317853,2026-01-30T09:34:57.107689
2026/01/30 19:35:00,MUWAWF2,29.6,Murra Warra II Project Co Pty Ltd ATF The Murra Warra II Project Trust,Murra Warra Wind Farm Stage 2,Wind,209.0,14.16,Murra Warra Wind Farm Stage 2,-36.43,142.32,2026-01-30T09:34:57.107689
2026/01/30 19:35:00,NBHWF1,93.3,AGL SA Generation Pty Limited,North Brown Hill Wind Farm,Wind,132.3,70.52,North Brown Hill Wind Farm,-33.367778,138.728611,2026-01-30T09:34:57.107689
2026/01/30 19:35:00,OAKLAND1,5.2,AGL Hydro Partnership,Oaklands Hill Wind Farm,Wind,67.0,7.76,Oaklands Hill Wind Farm,-37.683078,142.551678,2026-01-30T09:34:57.107689
2026/01/30 19:35:00,PAREPW1,125.54,Iberdrola Australia Energy Markets Pty Limited,Port Augusta Renewable Energy Park,Wind,210.0,59.78,Port Augusta Renewable Energy Park,-32.566944,137.856111,2026-01-30T09:34:57.107689
2026/01/30 19:35:00,RYANCWF1,12.19,Ryan Corner Development Pty Ltd,Ryan Corner Wind Farm,Wind,218.4,5.58,Ryan Corner Wind Farm,-38.271017,142.140647,2026-01-30T09:34:57.107689
2026/01/30 19:35:00,RYEPARK1,24.79,Rye Park Renewable Energy Pty Ltd as trustee for Rye Park Wind Farm Trust,Rye Park Renewable Energy,Wind,396.0,6.26,Rye Park Renewable Energy,-32.138333,148.972778,2026-01-30T09:34:57.107689
2026/01/30 19:35:00,SALTCRK1,2.83,Salt Creek Wind Farm Pty Ltd,Salt Creek Wind Farm,Wind,54.0,5.24,Salt Creek Wind Farm,-37.95,142.63,2026-01-30T09:34:57.107689
2026/01/30 19:35:00,SAPHWF1,90.21,The Trustee For The SWF1 Operations Trust,Sapphire Wind Farm,Wind,270.0,33.41,Sapphire Wind Farm,-29.7,151.41,2026-01-30T09:34:57.107689
2026/01/30 19:35:00,SNOWNTH1,124.9,Snowtown Wind Farm Stage 2 Pty Ltd,Snowtown Wind Farm Stage 2 North,Wind,144.0,86.74,Snowtown Wind Farm Stage 2 North,-33.83,138.118611,2026-01-30T09:34:57.107689
2026/01/30 19:35:00,SNOWSTH1,120.3,Snowtown Wind Farm Stage 2 Pty Ltd,Snowtown South Wind Farm,Wind,126.0,95.48,Snowtown South Wind Farm,-33.83,138.118611,2026-01-30T09:34:57.107689
2026/01/30 19:35:00,SNOWTWN1,86.54,Snowtown Wind Farm Pty Ltd,Snowtown Wind Farm Units 1 And 47,Wind,99.0,87.41,Snowtown Wind Farm Units 1 And 47,-33.83,138.118611,2026-01-30T09:34:57.107689
2026/01/30 19:35:00,STARHLWF,25.69,Starfish Hill Wind Farm Pty Ltd,Starfish Hill Wind Farm,Wind,34.5,74.46,Starfish Hill Wind Farm,-35.58,138.14,2026-01-30T09:34:57.107689
2026/01/30 19:35:00,STOCKYD1,179.19,Stockyard Hill Wind Farm Pty Ltd,Stockyard Hill Wind Farm,Wind,531.0,33.75,Stockyard Hill Wind Farm,-37.535833,143.251389,2026-01-30T09:34:57.107689
2026/01/30 19:35:00,STWF1,0.0,PARF Company 8 Pty Ltd as The Trustee for Silverton Project Trust,Silverton Wind Farm,Wind,198.94,0.0,Silverton Wind Farm,-37.683168,142.551678,2026-01-30T09:34:57.107689
2026/01/30 19:35:00,TARALGA1,24.32,Taralga Wind Farm Nominees No 2 Pty Ltd (ATF Taralga Wind Farm Operating Trust),Taralga Wind Farm,Wind,106.8,22.77,Taralga Wind Farm,-34.42352,149.826267,2026-01-30T09:34:57.107689
2026/01/30 19:35:00,WAMBOWF1,51.34,Stanwell Corporation Limited,Wambo Wind Farm 1,Wind,252.0,20.37,Wambo Wind Farm 1,-35.187301,149.524945,2026-01-30T09:34:57.107689
2026/01/30 19:35:00,WATERLWF,78.3,Waterloo Wind Farm Pty Ltd,Waterloo Wind Farm,Wind,130.8,59.86,Waterloo Wind Farm,-34.00094,138.911567,2026-01-30T09:34:57.107689
2026/01/30 19:35:00,WGWF1,28.7,Willogoleche Power Pty Ltd As The Trustee For The Willogoleche Operating Trust,Willogoleche Wind Farm,Wind,119.0,24.12,Willogoleche Wind Farm,-33.39,138.85,2026-01-30T09:34:57.107689
2026/01/30 19:35:00,WOODLWN1,30.42,Woodlawn Wind Pty Ltd,Woodlawn Wind Farm,Wind,48.3,62.98,Woodlawn Wind Farm,-35.08,149.62,2026-01-30T09:34:57.107689
2026/01/30 19:35:00,WPWF,82.44,AGL SA Generation Pty Limited,Wattle Point Wind Farm,Wind,90.75,90.84,Wattle Point Wind Farm,-35.111624,137.7219,2026-01-30T09:34:57.107689
2026/01/30 19:35:00,WRWF1,32.0,White Rock Wind Farm Pty Ltd,White Rock Wind Farm,Wind,175.0,18.29,White Rock Wind Farm,-29.79,151.54,2026-01-30T09:34:57.107689
2026/01/30 19:35:00,YENDWF1,18.39,Lal Lal Wind Farms Nom Co Pty Ltd,Yendon Wind Farm,Wind,144.4,12.74,Yendon Wind Farm,-37.629987,144.022717,2026-01-30T09:34:57.107689
