SETTLEMENTDATE,DUID,SCADAVALUE,Participant,Station Name,Fuel Source - Primary,MAX_CAP,utilisation_pct,Plant,Latitude,Longitude,timestamp_utc
2026/03/09 03:05:00,CAPTL_WF,52.63,Iberdrola Australia Holdings Pty Limited,Capital Wind Farm,Wind,140.0,37.59,Capital Wind Farm,-35.1,149.31,2026-03-08T17:00:48.604839
2026/03/09 03:05:00,CHALLHWF,0.0,Pacific Hydro Challicum Hills Pty Ltd,Challicum Hills Wind Farm,Wind,52.0,0.0,Challicum Hills Wind Farm,-37.38,143.11,2026-03-08T17:00:48.604839
2026/03/09 03:05:00,CULLRGWF,25.41,Cullerin Range Wind Farm Pty Ltd,Cullerin Range Wind Farm,Wind,30.0,84.7,Cullerin Range Wind Farm,-34.81,149.4,2026-03-08T17:00:48.604839
2026/03/09 03:05:00,DIAPURWF1,1.2,Y.E.S. Energy (SA) Pty Ltd,Diapur Wind Farm,Wind,7.0,17.14,Diapur Wind Farm,-36.3425,141.43,2026-03-08T17:00:48.604839
2026/03/09 03:05:00,MLWF1,0.38,Mortons Lane Windfarm Pty Limited,Mortons Lane Wind Farm,Wind,20.0,1.9,Mortons Lane Wind Farm,-37.84,142.45,2026-03-08T17:00:48.604839
2026/03/09 03:05:00,WAUBRAWF,22.81,Pyrenees Wind Energy Developments Pty Ltd,Waubra Wind Farm,Wind,192.0,11.88,Waubra Wind Farm,-37.394498,143.638982,2026-03-08T17:00:48.604839
2026/03/09 03:05:00,WOOLNTH1,37.98,Hydro-Electric Corporation,Woolnorth Studland Bay / Bluff Point Wind Farm,Wind,140.0,27.13,Woolnorth Studland Bay / Bluff Point Wind Farm,-40.69,144.72,2026-03-08T17:00:48.604839
2026/03/09 03:05:00,YAMBUKWF,0.7,Energy Pacific (Vic) Pty Ltd,Yambuk Wind Farm,Wind,30.0,2.33,Yambuk Wind Farm,-38.299083,142.027577,2026-03-08T17:00:48.604839
2026/03/09 03:05:00,YSWF1,0.0,Pacific Hydro Yaloak South Pty Ltd,Yaloak South Wind Farm,Wind,28.0,0.0,Yaloak South Wind Farm,-37.7163,144.242853,2026-03-08T17:00:48.604839
2026/03/09 03:05:00,ARWF1,0.7,Ararat Wind Farm Pty Ltd,Ararat Wind Farm,Wind,241.0,0.29,Ararat Wind Farm,-37.232778,143.031389,2026-03-08T17:00:48.604839
2026/03/09 03:05:00,BALDHWF1,91.5,Alinta Energy Retail Sales Pty Ltd,Bald Hills Wind Farm,Wind,106.0,86.32,Bald Hills Wind Farm,-38.79,145.93,2026-03-08T17:00:48.604839
2026/03/09 03:05:00,BANGOWF1,121.1,BWF Nominees Pty Ltd as The Trustee for BWF Trust,Bango 973 Wind Farm,Wind,155.0,78.13,Bango 973 Wind Farm,-34.551582,148.732808,2026-03-08T17:00:48.604839
2026/03/09 03:05:00,BANGOWF2,82.4,BWF Nominees Pty Ltd as The Trustee for BWF Trust,Bango 999 Wind Farm,Wind,82.0,100.49,Bango 999 Wind Farm,-34.551582,148.732808,2026-03-08T17:00:48.604839
2026/03/09 03:05:00,BLUFF1,0.1,AGL SA Generation Pty Limited,The Bluff Wind Farm,Wind,53.0,0.19,The Bluff Wind Farm,-33.367778,138.728611,2026-03-08T17:00:48.604839
2026/03/09 03:05:00,BOCORWF1,1.54,Boco Rock Wind Farm Pty Ltd,Boco Rock Wind Farm,Wind,111.0,1.39,Boco Rock Wind Farm,-36.578611,149.103333,2026-03-08T17:00:48.604839
2026/03/09 03:05:00,BRYB1WF1,2.11,Berrybank Development Pty Ltd,Berrybank Wind Farm,Wind,175.9,1.2,Berrybank Wind Farm,-37.94,143.52,2026-03-08T17:00:48.604839
2026/03/09 03:05:00,BRYB2WF2,3.18,Berrybank 2 Asset Pty Ltd as trustee for Berrybank 2 Asset Trust,Berrybank 2 Wind Farm,Wind,105.0,3.03,Berrybank 2 Wind Farm,-37.94,143.52,2026-03-08T17:00:48.604839
2026/03/09 03:05:00,BULGANA1,5.95,Bulgana Wind Farm Pty Ltd,Bulgana Green Power Hub,Wind,204.0,2.92,Bulgana Green Power Hub,-37.0975,142.973611,2026-03-08T17:00:48.604839
2026/03/09 03:05:00,CATHROCK,4.9,Cathedral Rocks Wind Farm Pty Ltd,Cathedral Rocks,Wind,66.0,7.42,Cathedral Rocks,-34.51,135.35,2026-03-08T17:00:48.604839
2026/03/09 03:05:00,CHYTWF1,5.86,Cherry Tree Wind Farm Pty Ltd as trustee for The Cherry Tree Project trust ,Cherry Tree Wind Farm,Wind,57.0,10.28,Cherry Tree Wind Farm,-37.1,145.26,2026-03-08T17:00:48.604839
2026/03/09 03:05:00,CLEMGPWF,19.59,Pacific Hydro Clements Gap Pty Ltd,Clements Gap Wind Farm,Wind,57.0,34.37,Clements Gap Wind Farm,-33.48,138.1,2026-03-08T17:00:48.604839
2026/03/09 03:05:00,CLRKCWF1,143.45,Stanwell Corporation Limited ,Clarke Creek Wind Farm,Wind,338.0,42.44,Clarke Creek Wind Farm,-22.85,149.45,2026-03-08T17:00:48.604839
2026/03/09 03:05:00,CLRKCWF2,20.39,Stanwell Corporation Limited ,Clarke Creek Wind Farm,Wind,101.0,20.19,Clarke Creek Wind Farm,-22.85,149.45,2026-03-08T17:00:48.604839
2026/03/09 03:05:00,CNUNDAWF,1.7,Canunda Power Pty Ltd,Canunda Wind Farm,Wind,46.0,3.7,Canunda Wind Farm,-37.73,140.39,2026-03-08T17:00:48.604839
2026/03/09 03:05:00,COLWF01,147.15,Collector Wind Farm Pty Ltd,Collector Wind Farm 1,Wind,219.0,67.19,Collector Wind Farm 1,-34.8719,149.3967,2026-03-08T17:00:48.604839
2026/03/09 03:05:00,COOPGWF1,321.1,PARF Company 10 Pty Limited as The Trustee for Coopers Gap Project Trust,Coopers Gap Wind Farm,Wind,440.0,72.98,Coopers Gap Wind Farm,-26.74,151.45,2026-03-08T17:00:48.604839
2026/03/09 03:05:00,CROOKWF2,21.09,Crookwell Development Pty Ltd ,Crookwell 2 Wind Farm,Wind,91.0,23.18,Crookwell 2 Wind Farm,-34.52,149.54,2026-03-08T17:00:48.604839
2026/03/09 03:05:00,CROOKWF3,13.4,Crookwell 3 Development Pty Ltd,Crookwell 3 Wind Farm,Wind,56.0,23.93,Crookwell 3 Wind Farm,-34.52,149.54,2026-03-08T17:00:48.604839
2026/03/09 03:05:00,CROWLWF1,6.29,Pacific Hydro Crowlands Pty Ltd ,Crowlands Wind Farm,Wind,79.0,7.96,Crowlands Wind Farm,-37.13,143.16,2026-03-08T17:00:48.604839
2026/03/09 03:05:00,CRURWF1,127.2,CRWF Nominees Pty Ltd As Trustee For The CRWF Trust,Crudine Ridge Wind Farm,Wind,138.0,92.17,Crudine Ridge Wind Farm,-32.97,149.64,2026-03-08T17:00:48.604839
2026/03/09 03:05:00,CTHLWF1,14.9,Wild Cattle Hill Pty Ltd,Cattle Hill Wind Farm,Wind,144.0,10.35,Cattle Hill Wind Farm,-42.15,146.69,2026-03-08T17:00:48.604839
2026/03/09 03:05:00,DULAWF1,75.9,Dulacca Energy Project Co Pty Ltd,Dulacca Wind Farm,Wind,173.0,43.87,Dulacca Wind Farm,-26.63,149.87,2026-03-08T17:00:48.604839
2026/03/09 03:05:00,DUNDWF1,6.4,Dundonnell Wind Farm Pty Ltd,Dundonnell Wind Farm,Wind,168.0,3.81,Dundonnell Wind Farm,-37.52,142.58,2026-03-08T17:00:48.604839
2026/03/09 03:05:00,DUNDWF2,1.9,Dundonnell Wind Farm Pty Ltd,Dundonnell Wind Farm,Wind,46.0,4.13,Dundonnell Wind Farm,-37.52,142.58,2026-03-08T17:00:48.604839
2026/03/09 03:05:00,DUNDWF3,6.26,Dundonnell Wind Farm Pty Ltd,Dundonnell Wind Farm,Wind,122.0,5.13,Dundonnell Wind Farm,-37.52,142.58,2026-03-08T17:00:48.604839
2026/03/09 03:05:00,ELAINWF1,0.0,Lal Lal Wind Farms Nom Co Pty Ltd,Elaine Wind Farm,Wind,82.0,0.0,Elaine Wind Farm,-37.36,144.0,2026-03-08T17:00:48.604839
2026/03/09 03:05:00,FLYCRKWF,80.19,Iberdrola Australia Energy Markets Pty Limited,Flyers Creek Wind Farm,Wind,140.0,57.28,Flyers Creek Wind Farm,-33.365556,148.981944,2026-03-08T17:00:48.604839
2026/03/09 03:05:00,GPWFEST1,0.49,Golden Plains WF1 Pty Ltd as Trustee for the Golden Plains WF1 Unit Trust,Golden Plains Wind Farm East,Wind,240.0,0.2,Golden Plains Wind Farm East,-37.945091,143.752614,2026-03-08T17:00:48.604839
2026/03/09 03:05:00,GPWFEST2,5.59,Golden Plains WF1 Pty Ltd as Trustee for the Golden Plains WF1 Unit Trust,Golden Plains Wind Farm East,Wind,253.0,2.21,Golden Plains Wind Farm East,-37.945091,143.752614,2026-03-08T17:00:48.604839
2026/03/09 03:05:00,GPWFEST3,7.26,Golden Plains WF1 Pty Ltd as Trustee for the Golden Plains WF1 Unit Trust,Golden Plains Wind Farm East,Wind,240.0,3.02,Golden Plains Wind Farm East,-37.945091,143.752614,2026-03-08T17:00:48.604839
2026/03/09 03:05:00,GRANWF1,63.57,Granville Harbour Operations Pty Ltd as The Trustee for Granville Harbour Operations Trust,Granville Harbour Wind Farm,Wind,111.0,57.27,Granville Harbour Wind Farm,-41.8,145.06,2026-03-08T17:00:48.604839
2026/03/09 03:05:00,GSWF1A,12.41,Goyder Wind Farm 1 Pty Ltd as the Trustee for Goyder Wind Farm 1 Trust,Goyder South Wind Farm 1A,Wind,201.0,6.17,Goyder South Wind Farm 1A,-33.679758,138.937597,2026-03-08T17:00:48.604839
2026/03/09 03:05:00,GSWF1B1,17.16,Goyder Wind Farm 1B Pty Ltd as the Trustee for the Goyder Wind Farm 1B Trust,Goyder South Wind Farm 1B,Wind,196.0,8.76,Goyder South Wind Farm 1B,-33.679758,138.937597,2026-03-08T17:00:48.604839
2026/03/09 03:05:00,GULLRWF1,77.37,New Gullen Range Wind Farm Pty Ltd,Gullen Range Wind Farm,Wind,161.0,48.06,Gullen Range Wind Farm,-34.34,149.27,2026-03-08T17:00:48.604839
2026/03/09 03:05:00,GULLRWF2,105.36,New Gullen Range Wind Farm Pty Ltd,Gullen Range Wind Farm,Wind,107.0,98.47,Gullen Range Wind Farm,-34.34,149.27,2026-03-08T17:00:48.604839
2026/03/09 03:05:00,GUNNING1,41.74,Gunning Wind Energy Developments Pty Ltd,Gunning Wind Farm,Wind,47.0,88.81,Gunning Wind Farm,-34.813333,149.4,2026-03-08T17:00:48.604839
2026/03/09 03:05:00,HALLWF1,0.34,AGL SA Generation Pty Limited,Hallett 1 Wind Farm,Wind,95.0,0.36,Hallett 1 Wind Farm,-33.367778,138.728611,2026-03-08T17:00:48.604839
2026/03/09 03:05:00,HALLWF2,6.68,AGL SA Generation Pty Limited,Hallett 2 Wind Farm,Wind,71.0,9.41,Hallett 2 Wind Farm,-33.367778,138.728611,2026-03-08T17:00:48.604839
2026/03/09 03:05:00,HD1WF1,14.53,Hawkesdale Asset Pty Ltd as trustee for Hawkesdale Asset Trust,Hawkesdale Wind Farm,Wind,89.0,16.33,Hawkesdale Wind Farm,-38.147894,142.361381,2026-03-08T17:00:48.604839
2026/03/09 03:05:00,HDWF1,15.4,HWF1 Pty Ltd,Hornsdale Wind Farm,Wind,102.0,15.1,Hornsdale Wind Farm,-33.050556,138.543611,2026-03-08T17:00:48.604839
2026/03/09 03:05:00,HDWF2,8.3,HWF 2 Pty Ltd,Hornsdale Wind Farm 2,Wind,102.0,8.14,Hornsdale Wind Farm 2,-33.06,138.54,2026-03-08T17:00:48.604839
2026/03/09 03:05:00,HDWF3,6.8,HWF3 Pty Ltd,Hornsdale Wind Farm 3,Wind,109.0,6.24,Hornsdale Wind Farm 3,-33.06,138.54,2026-03-08T17:00:48.604839
2026/03/09 03:05:00,KABANWF1,130.42,Kaban Wind Farm Pty Ltd as trustee for Kaban Wind Farm Trust,Kaban Wind Farm,Wind,152.0,85.8,Kaban Wind Farm,-17.56,145.41,2026-03-08T17:00:48.604839
2026/03/09 03:05:00,KEPWF1,27.2,Kennedy Energy Park Pty Ltd,Kennedy Energy Park,Wind,43.0,63.26,Kennedy Energy Park,-20.88,144.42,2026-03-08T17:00:48.604839
2026/03/09 03:05:00,KIATAWF1,2.4,Kiata ProjectCo Pty Ltd Atf Kiata Project Trust,Kiata Wind Farm,Wind,31.0,7.74,Kiata Wind Farm,-36.4,141.75,2026-03-08T17:00:48.604839
2026/03/09 03:05:00,LGAPWF1,11.94,Lincoln Gap Wind Farm (Operations) Pty Ltd,Lincoln Gap Wind Farm,Wind,123.0,9.71,Lincoln Gap Wind Farm,-32.564279,137.557328,2026-03-08T17:00:48.604839
2026/03/09 03:05:00,LGAPWF1,11.94,Lincoln Gap Wind Farm (Operations) Pty Ltd,Lincoln Gap Wind Farm,Wind,123.0,9.71,Lincoln Gap Wind Farm,-32.564279,137.557328,2026-03-08T17:00:48.604839
2026/03/09 03:05:00,LGAPWF2,8.46,Lincoln Gap Wind Farm (Operations) Pty Ltd,Lincoln Gap Wind Farm,Wind,85.0,9.95,Lincoln Gap Wind Farm,-32.564279,137.557328,2026-03-08T17:00:48.604839
2026/03/09 03:05:00,LGAPWF2,8.46,Lincoln Gap Wind Farm (Operations) Pty Ltd,Lincoln Gap Wind Farm,Wind,85.0,9.95,Lincoln Gap Wind Farm,-32.564279,137.557328,2026-03-08T17:00:48.604839
2026/03/09 03:05:00,LKBONNY1,0.45,Lake Bonney Wind Power Pty Ltd,Lake Bonney Wind Farm Stage 1,Wind,81.0,0.56,Lake Bonney Wind Farm Stage 1,-37.76,140.4,2026-03-08T17:00:48.604839
2026/03/09 03:05:00,LKBONNY2,5.45,Lake Bonney Wind Power Pty Ltd,Lake Bonney Stage 2 Windfarm,Wind,159.0,3.43,Lake Bonney Stage 2 Windfarm,-37.76,140.4,2026-03-08T17:00:48.604839
2026/03/09 03:05:00,LKBONNY3,2.57,Lake Bonney Wind Power Pty Ltd,Lake Bonney Stage 3 Wind Farm,Wind,39.0,6.59,Lake Bonney Stage 3 Wind Farm,-37.737781,140.388137,2026-03-08T17:00:48.604839
2026/03/09 03:05:00,MACARTH1,4.9,AGL Hydro Partnership,Macarthur Wind Farm,Wind,420.0,1.17,Macarthur Wind Farm,-38.048957,142.192112,2026-03-08T17:00:48.604839
2026/03/09 03:05:00,MCINTYR1,292.58,MacIntyre UJV Operator Pty Ltd,MacIntyre Wind Farm,Wind,890.0,32.87,MacIntyre Wind Farm,-28.32,151.54,2026-03-08T17:00:48.604839
2026/03/09 03:05:00,MERCER01,0.7,Mt Mercer Windfarm Pty Ltd,Mt Mercer Wind Farm,Wind,131.0,0.53,Mt Mercer Wind Farm,-37.841111,143.871111,2026-03-08T17:00:48.604839
2026/03/09 03:05:00,MEWF1,75.09,Ergon Energy Queensland Pty Ltd ,Mount Emerald Wind Farm,Wind,178.0,42.19,Mount Emerald Wind Farm,-17.133007,145.380644,2026-03-08T17:00:48.604839
2026/03/09 03:05:00,MRTLSWF1,15.08,Mortlake South Wind Farm Pty Ltd,Mortlake South Wind Farm,Wind,153.0,9.86,Mortlake South Wind Farm,-38.127337,142.857801,2026-03-08T17:00:48.604839
2026/03/09 03:05:00,MTGELWF1,9.04,Mt. Gellibrand Wind Farm Pty Ltd,Mt Gellibrand Wind Farm,Wind,132.0,6.85,Mt Gellibrand Wind Farm,-38.23,143.77,2026-03-08T17:00:48.604839
2026/03/09 03:05:00,MTMILLAR,10.5,Mt Millar Wind Farm Pty Ltd,Mt Millar Wind Farm,Wind,70.0,15.0,Mt Millar Wind Farm,-33.624444,136.703611,2026-03-08T17:00:48.604839
2026/03/09 03:05:00,MUSSELR1,53.3,Hydro-Electric Corporation,Musselroe Wind Farm,Wind,168.0,31.73,Musselroe Wind Farm,-40.780225,148.010799,2026-03-08T17:00:48.604839
2026/03/09 03:05:00,MUWAWF1,57.06,Telstra Energy (Generation) Pty Ltd,Murra Warra Wind Farm,Wind,225.7,25.28,Murra Warra Wind Farm,-36.432404,142.317853,2026-03-08T17:00:48.604839
2026/03/09 03:05:00,MUWAWF2,62.2,Murra Warra II Project Co Pty Ltd ATF The Murra Warra II Project Trust,Murra Warra Wind Farm Stage 2,Wind,203.0,30.64,Murra Warra Wind Farm Stage 2,-36.43,142.32,2026-03-08T17:00:48.604839
2026/03/09 03:05:00,NBHWF1,0.9,AGL SA Generation Pty Limited,North Brown Hill Wind Farm,Wind,132.0,0.68,North Brown Hill Wind Farm,-33.367778,138.728611,2026-03-08T17:00:48.604839
2026/03/09 03:05:00,OAKLAND1,0.0,AGL Hydro Partnership,Oaklands Hill Wind Farm,Wind,63.0,0.0,Oaklands Hill Wind Farm,-37.683078,142.551678,2026-03-08T17:00:48.604839
2026/03/09 03:05:00,PAREPW1,33.96,Iberdrola Australia Energy Markets Pty Limited,Port Augusta Renewable Energy Park,Wind,201.0,16.9,Port Augusta Renewable Energy Park,-32.566944,137.856111,2026-03-08T17:00:48.604839
2026/03/09 03:05:00,RYANCWF1,0.86,Ryan Corner Development Pty Ltd,Ryan Corner Wind Farm,Wind,205.0,0.42,Ryan Corner Wind Farm,-38.271017,142.140647,2026-03-08T17:00:48.604839
2026/03/09 03:05:00,RYEPARK1,358.12,Rye Park Renewable Energy Pty Ltd as trustee for Rye Park Wind Farm Trust,Rye Park Renewable Energy,Wind,384.0,93.26,Rye Park Renewable Energy,-32.138333,148.972778,2026-03-08T17:00:48.604839
2026/03/09 03:05:00,SALTCRK1,2.39,Salt Creek Wind Farm Pty Ltd,Salt Creek Wind Farm,Wind,54.0,4.43,Salt Creek Wind Farm,-37.95,142.63,2026-03-08T17:00:48.604839
2026/03/09 03:05:00,SAPHWF1,161.01,The Trustee For The SWF1 Operations Trust,Sapphire Wind Farm,Wind,270.0,59.63,Sapphire Wind Farm,-29.7,151.41,2026-03-08T17:00:48.604839
2026/03/09 03:05:00,SNOWNTH1,6.0,Snowtown Wind Farm Stage 2 Pty Ltd,Snowtown Wind Farm Stage 2 North,Wind,144.0,4.17,Snowtown Wind Farm Stage 2 North,-33.83,138.118611,2026-03-08T17:00:48.604839
2026/03/09 03:05:00,SNOWSTH1,12.8,Snowtown Wind Farm Stage 2 Pty Ltd,Snowtown South Wind Farm,Wind,126.0,10.16,Snowtown South Wind Farm,-33.83,138.118611,2026-03-08T17:00:48.604839
2026/03/09 03:05:00,SNOWTWN1,7.65,Snowtown Wind Farm Pty Ltd,Snowtown Wind Farm Units 1 And 47,Wind,99.0,7.73,Snowtown Wind Farm Units 1 And 47,-33.83,138.118611,2026-03-08T17:00:48.604839
2026/03/09 03:05:00,STARHLWF,13.3,Starfish Hill Wind Farm Pty Ltd,Starfish Hill Wind Farm,Wind,35.0,38.0,Starfish Hill Wind Farm,-35.58,138.14,2026-03-08T17:00:48.604839
2026/03/09 03:05:00,STOCKYD1,0.0,Stockyard Hill Wind Farm Pty Ltd,Stockyard Hill Wind Farm,Wind,511.0,0.0,Stockyard Hill Wind Farm,-37.535833,143.251389,2026-03-08T17:00:48.604839
2026/03/09 03:05:00,STWF1,116.92,PARF Company 8 Pty Ltd as The Trustee for Silverton Project Trust,Silverton Wind Farm,Wind,198.0,59.05,Silverton Wind Farm,-37.683168,142.551678,2026-03-08T17:00:48.604839
2026/03/09 03:05:00,TARALGA1,26.57,Taralga Wind Farm Nominees No 2 Pty Ltd (ATF Taralga Wind Farm Operating Trust),Taralga Wind Farm,Wind,106.0,25.07,Taralga Wind Farm,-34.42352,149.826267,2026-03-08T17:00:48.604839
2026/03/09 03:05:00,WAMBOWF1,208.68,Stanwell Corporation Limited,Wambo Wind Farm 1,Wind,245.0,85.18,Wambo Wind Farm 1,-35.187301,149.524945,2026-03-08T17:00:48.604839
2026/03/09 03:05:00,WATERLWF,2.0,Waterloo Wind Farm Pty Ltd,Waterloo Wind Farm,Wind,130.0,1.54,Waterloo Wind Farm,-34.00094,138.911567,2026-03-08T17:00:48.604839
2026/03/09 03:05:00,WGWF1,19.4,Willogoleche Power Pty Ltd As The Trustee For The Willogoleche Operating Trust,Willogoleche Wind Farm,Wind,119.0,16.3,Willogoleche Wind Farm,-33.39,138.85,2026-03-08T17:00:48.604839
2026/03/09 03:05:00,WOODLWN1,26.64,Woodlawn Wind Pty Ltd,Woodlawn Wind Farm,Wind,48.0,55.5,Woodlawn Wind Farm,-35.08,149.62,2026-03-08T17:00:48.604839
2026/03/09 03:05:00,WPWF,10.89,AGL SA Generation Pty Limited,Wattle Point Wind Farm,Wind,91.0,11.97,Wattle Point Wind Farm,-35.111624,137.7219,2026-03-08T17:00:48.604839
2026/03/09 03:05:00,WRWF1,164.64,White Rock Wind Farm Pty Ltd,White Rock Wind Farm,Wind,172.0,95.72,White Rock Wind Farm,-29.79,151.54,2026-03-08T17:00:48.604839
2026/03/09 03:05:00,YENDWF1,0.11,Lal Lal Wind Farms Nom Co Pty Ltd,Yendon Wind Farm,Wind,142.0,0.08,Yendon Wind Farm,-37.629987,144.022717,2026-03-08T17:00:48.604839
