SETTLEMENTDATE,DUID,SCADAVALUE,Participant,Station Name,Fuel Source - Primary,MAX_CAP,utilisation_pct,Plant,Latitude,Longitude,timestamp_utc
2026/04/05 05:40:00,CAPTL_WF,26.47,Iberdrola Australia Holdings Pty Limited,Capital Wind Farm,Wind,140.0,18.91,Capital Wind Farm,-35.1,149.31,2026-04-04T19:45:21.680172
2026/04/05 05:40:00,CHALLHWF,0.0,Pacific Hydro Challicum Hills Pty Ltd,Challicum Hills Wind Farm,Wind,52.0,0.0,Challicum Hills Wind Farm,-37.38,143.11,2026-04-04T19:45:21.680172
2026/04/05 05:40:00,CULLRGWF,25.37,Cullerin Range Wind Farm Pty Ltd,Cullerin Range Wind Farm,Wind,30.0,84.57,Cullerin Range Wind Farm,-34.81,149.4,2026-04-04T19:45:21.680172
2026/04/05 05:40:00,DIAPURWF1,6.2,Y.E.S. Energy (SA) Pty Ltd,Diapur Wind Farm,Wind,7.0,88.57,Diapur Wind Farm,-36.3425,141.43,2026-04-04T19:45:21.680172
2026/04/05 05:40:00,MLWF1,2.28,Mortons Lane Windfarm Pty Limited,Mortons Lane Wind Farm,Wind,20.0,11.4,Mortons Lane Wind Farm,-37.84,142.45,2026-04-04T19:45:21.680172
2026/04/05 05:40:00,WAUBRAWF,68.74,Pyrenees Wind Energy Developments Pty Ltd,Waubra Wind Farm,Wind,192.0,35.8,Waubra Wind Farm,-37.394498,143.638982,2026-04-04T19:45:21.680172
2026/04/05 05:40:00,WOOLNTH1,63.92,Hydro-Electric Corporation,Woolnorth Studland Bay / Bluff Point Wind Farm,Wind,140.0,45.66,Woolnorth Studland Bay / Bluff Point Wind Farm,-40.69,144.72,2026-04-04T19:45:21.680172
2026/04/05 05:40:00,YAMBUKWF,2.1,Energy Pacific (Vic) Pty Ltd,Yambuk Wind Farm,Wind,30.0,7.0,Yambuk Wind Farm,-38.299083,142.027577,2026-04-04T19:45:21.680172
2026/04/05 05:40:00,YSWF1,2.2,Pacific Hydro Yaloak South Pty Ltd,Yaloak South Wind Farm,Wind,28.0,7.86,Yaloak South Wind Farm,-37.7163,144.242853,2026-04-04T19:45:21.680172
2026/04/05 05:40:00,ARWF1,3.5,Ararat Wind Farm Pty Ltd,Ararat Wind Farm,Wind,241.0,1.45,Ararat Wind Farm,-37.232778,143.031389,2026-04-04T19:45:21.680172
2026/04/05 05:40:00,BALDHWF1,73.61,Alinta Energy Retail Sales Pty Ltd,Bald Hills Wind Farm,Wind,106.0,69.44,Bald Hills Wind Farm,-38.79,145.93,2026-04-04T19:45:21.680172
2026/04/05 05:40:00,BANGOWF1,126.9,BWF Nominees Pty Ltd as The Trustee for BWF Trust,Bango 973 Wind Farm,Wind,155.0,81.87,Bango 973 Wind Farm,-34.551582,148.732808,2026-04-04T19:45:21.680172
2026/04/05 05:40:00,BANGOWF2,81.9,BWF Nominees Pty Ltd as The Trustee for BWF Trust,Bango 999 Wind Farm,Wind,82.0,99.88,Bango 999 Wind Farm,-34.551582,148.732808,2026-04-04T19:45:21.680172
2026/04/05 05:40:00,BLUFF1,14.7,AGL SA Generation Pty Limited,The Bluff Wind Farm,Wind,53.0,27.74,The Bluff Wind Farm,-33.367778,138.728611,2026-04-04T19:45:21.680172
2026/04/05 05:40:00,BOCORWF1,0.97,Boco Rock Wind Farm Pty Ltd,Boco Rock Wind Farm,Wind,111.0,0.87,Boco Rock Wind Farm,-36.578611,149.103333,2026-04-04T19:45:21.680172
2026/04/05 05:40:00,BRYB1WF1,4.39,Berrybank Development Pty Ltd,Berrybank Wind Farm,Wind,175.9,2.5,Berrybank Wind Farm,-37.94,143.52,2026-04-04T19:45:21.680172
2026/04/05 05:40:00,BRYB2WF2,4.92,Berrybank 2 Asset Pty Ltd as trustee for Berrybank 2 Asset Trust,Berrybank 2 Wind Farm,Wind,105.0,4.69,Berrybank 2 Wind Farm,-37.94,143.52,2026-04-04T19:45:21.680172
2026/04/05 05:40:00,BULGANA1,0.0,Bulgana Wind Farm Pty Ltd,Bulgana Green Power Hub,Wind,204.0,0.0,Bulgana Green Power Hub,-37.0975,142.973611,2026-04-04T19:45:21.680172
2026/04/05 05:40:00,CATHROCK,17.9,Cathedral Rocks Wind Farm Pty Ltd,Cathedral Rocks,Wind,66.0,27.12,Cathedral Rocks,-34.51,135.35,2026-04-04T19:45:21.680172
2026/04/05 05:40:00,CHYTWF1,2.73,Cherry Tree Wind Farm Pty Ltd as trustee for The Cherry Tree Project trust ,Cherry Tree Wind Farm,Wind,57.0,4.79,Cherry Tree Wind Farm,-37.1,145.26,2026-04-04T19:45:21.680172
2026/04/05 05:40:00,CLEMGPWF,17.65,Pacific Hydro Clements Gap Pty Ltd,Clements Gap Wind Farm,Wind,57.0,30.96,Clements Gap Wind Farm,-33.48,138.1,2026-04-04T19:45:21.680172
2026/04/05 05:40:00,CLRKCWF1,244.65,Stanwell Corporation Limited ,Clarke Creek Wind Farm,Wind,338.0,72.38,Clarke Creek Wind Farm,-22.85,149.45,2026-04-04T19:45:21.680172
2026/04/05 05:40:00,CLRKCWF2,83.32,Stanwell Corporation Limited ,Clarke Creek Wind Farm,Wind,101.0,82.5,Clarke Creek Wind Farm,-22.85,149.45,2026-04-04T19:45:21.680172
2026/04/05 05:40:00,CNUNDAWF,7.21,Canunda Power Pty Ltd,Canunda Wind Farm,Wind,46.0,15.67,Canunda Wind Farm,-37.73,140.39,2026-04-04T19:45:21.680172
2026/04/05 05:40:00,COLWF01,108.87,Collector Wind Farm Pty Ltd,Collector Wind Farm 1,Wind,219.0,49.71,Collector Wind Farm 1,-34.8719,149.3967,2026-04-04T19:45:21.680172
2026/04/05 05:40:00,COOPGWF1,144.99,PARF Company 10 Pty Limited as The Trustee for Coopers Gap Project Trust,Coopers Gap Wind Farm,Wind,440.0,32.95,Coopers Gap Wind Farm,-26.74,151.45,2026-04-04T19:45:21.680172
2026/04/05 05:40:00,CROOKWF2,20.78,Crookwell Development Pty Ltd ,Crookwell 2 Wind Farm,Wind,91.0,22.84,Crookwell 2 Wind Farm,-34.52,149.54,2026-04-04T19:45:21.680172
2026/04/05 05:40:00,CROOKWF3,13.08,Crookwell 3 Development Pty Ltd,Crookwell 3 Wind Farm,Wind,56.0,23.36,Crookwell 3 Wind Farm,-34.52,149.54,2026-04-04T19:45:21.680172
2026/04/05 05:40:00,CROWLWF1,19.19,Pacific Hydro Crowlands Pty Ltd ,Crowlands Wind Farm,Wind,79.0,24.29,Crowlands Wind Farm,-37.13,143.16,2026-04-04T19:45:21.680172
2026/04/05 05:40:00,CRURWF1,80.0,CRWF Nominees Pty Ltd As Trustee For The CRWF Trust,Crudine Ridge Wind Farm,Wind,138.0,57.97,Crudine Ridge Wind Farm,-32.97,149.64,2026-04-04T19:45:21.680172
2026/04/05 05:40:00,CTHLWF1,0.26,Wild Cattle Hill Pty Ltd,Cattle Hill Wind Farm,Wind,144.0,0.18,Cattle Hill Wind Farm,-42.15,146.69,2026-04-04T19:45:21.680172
2026/04/05 05:40:00,DULAWF1,112.5,Dulacca Energy Project Co Pty Ltd,Dulacca Wind Farm,Wind,173.0,65.03,Dulacca Wind Farm,-26.63,149.87,2026-04-04T19:45:21.680172
2026/04/05 05:40:00,DUNDWF1,6.56,Dundonnell Wind Farm Pty Ltd,Dundonnell Wind Farm,Wind,168.0,3.9,Dundonnell Wind Farm,-37.52,142.58,2026-04-04T19:45:21.680172
2026/04/05 05:40:00,DUNDWF2,1.91,Dundonnell Wind Farm Pty Ltd,Dundonnell Wind Farm,Wind,46.0,4.15,Dundonnell Wind Farm,-37.52,142.58,2026-04-04T19:45:21.680172
2026/04/05 05:40:00,DUNDWF3,1.75,Dundonnell Wind Farm Pty Ltd,Dundonnell Wind Farm,Wind,122.0,1.43,Dundonnell Wind Farm,-37.52,142.58,2026-04-04T19:45:21.680172
2026/04/05 05:40:00,ELAINWF1,7.75,Lal Lal Wind Farms Nom Co Pty Ltd,Elaine Wind Farm,Wind,82.0,9.45,Elaine Wind Farm,-37.36,144.0,2026-04-04T19:45:21.680172
2026/04/05 05:40:00,FLYCRKWF,111.64,Iberdrola Australia Energy Markets Pty Limited,Flyers Creek Wind Farm,Wind,140.0,79.74,Flyers Creek Wind Farm,-33.365556,148.981944,2026-04-04T19:45:21.680172
2026/04/05 05:40:00,GPWFEST1,8.9,Golden Plains WF1 Pty Ltd as Trustee for the Golden Plains WF1 Unit Trust,Golden Plains Wind Farm East,Wind,240.0,3.71,Golden Plains Wind Farm East,-37.945091,143.752614,2026-04-04T19:45:21.680172
2026/04/05 05:40:00,GPWFEST2,15.6,Golden Plains WF1 Pty Ltd as Trustee for the Golden Plains WF1 Unit Trust,Golden Plains Wind Farm East,Wind,253.0,6.17,Golden Plains Wind Farm East,-37.945091,143.752614,2026-04-04T19:45:21.680172
2026/04/05 05:40:00,GPWFEST3,15.0,Golden Plains WF1 Pty Ltd as Trustee for the Golden Plains WF1 Unit Trust,Golden Plains Wind Farm East,Wind,240.0,6.25,Golden Plains Wind Farm East,-37.945091,143.752614,2026-04-04T19:45:21.680172
2026/04/05 05:40:00,GRANWF1,56.01,Granville Harbour Operations Pty Ltd as The Trustee for Granville Harbour Operations Trust,Granville Harbour Wind Farm,Wind,111.0,50.46,Granville Harbour Wind Farm,-41.8,145.06,2026-04-04T19:45:21.680172
2026/04/05 05:40:00,GSWF1A,58.82,Goyder Wind Farm 1 Pty Ltd as the Trustee for Goyder Wind Farm 1 Trust,Goyder South Wind Farm 1A,Wind,201.0,29.26,Goyder South Wind Farm 1A,-33.679758,138.937597,2026-04-04T19:45:21.680172
2026/04/05 05:40:00,GSWF1B1,45.27,Goyder Wind Farm 1B Pty Ltd as the Trustee for the Goyder Wind Farm 1B Trust,Goyder South Wind Farm 1B,Wind,196.0,23.1,Goyder South Wind Farm 1B,-33.679758,138.937597,2026-04-04T19:45:21.680172
2026/04/05 05:40:00,GULLRWF1,80.66,New Gullen Range Wind Farm Pty Ltd,Gullen Range Wind Farm,Wind,161.0,50.1,Gullen Range Wind Farm,-34.34,149.27,2026-04-04T19:45:21.680172
2026/04/05 05:40:00,GULLRWF2,108.49,New Gullen Range Wind Farm Pty Ltd,Gullen Range Wind Farm,Wind,107.0,101.39,Gullen Range Wind Farm,-34.34,149.27,2026-04-04T19:45:21.680172
2026/04/05 05:40:00,GUNNING1,39.8,Gunning Wind Energy Developments Pty Ltd,Gunning Wind Farm,Wind,47.0,84.68,Gunning Wind Farm,-34.813333,149.4,2026-04-04T19:45:21.680172
2026/04/05 05:40:00,HALLWF1,28.51,AGL SA Generation Pty Limited,Hallett 1 Wind Farm,Wind,95.0,30.01,Hallett 1 Wind Farm,-33.367778,138.728611,2026-04-04T19:45:21.680172
2026/04/05 05:40:00,HALLWF2,10.45,AGL SA Generation Pty Limited,Hallett 2 Wind Farm,Wind,71.0,14.72,Hallett 2 Wind Farm,-33.367778,138.728611,2026-04-04T19:45:21.680172
2026/04/05 05:40:00,HD1WF1,9.1,Hawkesdale Asset Pty Ltd as trustee for Hawkesdale Asset Trust,Hawkesdale Wind Farm,Wind,89.0,10.22,Hawkesdale Wind Farm,-38.147894,142.361381,2026-04-04T19:45:21.680172
2026/04/05 05:40:00,HDWF1,37.5,HWF1 Pty Ltd,Hornsdale Wind Farm,Wind,102.0,36.76,Hornsdale Wind Farm,-33.050556,138.543611,2026-04-04T19:45:21.680172
2026/04/05 05:40:00,HDWF2,37.7,HWF 2 Pty Ltd,Hornsdale Wind Farm 2,Wind,102.0,36.96,Hornsdale Wind Farm 2,-33.06,138.54,2026-04-04T19:45:21.680172
2026/04/05 05:40:00,HDWF3,33.2,HWF3 Pty Ltd,Hornsdale Wind Farm 3,Wind,109.0,30.46,Hornsdale Wind Farm 3,-33.06,138.54,2026-04-04T19:45:21.680172
2026/04/05 05:40:00,KABANWF1,52.48,Kaban Wind Farm Pty Ltd as trustee for Kaban Wind Farm Trust,Kaban Wind Farm,Wind,152.0,34.53,Kaban Wind Farm,-17.56,145.41,2026-04-04T19:45:21.680172
2026/04/05 05:40:00,KEPWF1,27.2,Kennedy Energy Park Pty Ltd,Kennedy Energy Park,Wind,43.0,63.26,Kennedy Energy Park,-20.88,144.42,2026-04-04T19:45:21.680172
2026/04/05 05:40:00,KIATAWF1,10.8,Kiata ProjectCo Pty Ltd Atf Kiata Project Trust,Kiata Wind Farm,Wind,31.0,34.84,Kiata Wind Farm,-36.4,141.75,2026-04-04T19:45:21.680172
2026/04/05 05:40:00,LGAPWF1,27.65,Lincoln Gap Wind Farm (Operations) Pty Ltd,Lincoln Gap Wind Farm,Wind,123.0,22.48,Lincoln Gap Wind Farm,-32.564279,137.557328,2026-04-04T19:45:21.680172
2026/04/05 05:40:00,LGAPWF1,27.65,Lincoln Gap Wind Farm (Operations) Pty Ltd,Lincoln Gap Wind Farm,Wind,123.0,22.48,Lincoln Gap Wind Farm,-32.564279,137.557328,2026-04-04T19:45:21.680172
2026/04/05 05:40:00,LGAPWF2,36.07,Lincoln Gap Wind Farm (Operations) Pty Ltd,Lincoln Gap Wind Farm,Wind,85.0,42.44,Lincoln Gap Wind Farm,-32.564279,137.557328,2026-04-04T19:45:21.680172
2026/04/05 05:40:00,LGAPWF2,36.07,Lincoln Gap Wind Farm (Operations) Pty Ltd,Lincoln Gap Wind Farm,Wind,85.0,42.44,Lincoln Gap Wind Farm,-32.564279,137.557328,2026-04-04T19:45:21.680172
2026/04/05 05:40:00,LKBONNY1,4.2,Lake Bonney Wind Power Pty Ltd,Lake Bonney Wind Farm Stage 1,Wind,81.0,5.19,Lake Bonney Wind Farm Stage 1,-37.76,140.4,2026-04-04T19:45:21.680172
2026/04/05 05:40:00,LKBONNY2,31.96,Lake Bonney Wind Power Pty Ltd,Lake Bonney Stage 2 Windfarm,Wind,159.0,20.1,Lake Bonney Stage 2 Windfarm,-37.76,140.4,2026-04-04T19:45:21.680172
2026/04/05 05:40:00,LKBONNY3,9.71,Lake Bonney Wind Power Pty Ltd,Lake Bonney Stage 3 Wind Farm,Wind,39.0,24.9,Lake Bonney Stage 3 Wind Farm,-37.737781,140.388137,2026-04-04T19:45:21.680172
2026/04/05 05:40:00,MACARTH1,28.7,AGL Hydro Partnership,Macarthur Wind Farm,Wind,420.0,6.83,Macarthur Wind Farm,-38.048957,142.192112,2026-04-04T19:45:21.680172
2026/04/05 05:40:00,MCINTYR1,274.02,MacIntyre UJV Operator Pty Ltd,MacIntyre Wind Farm,Wind,890.0,30.79,MacIntyre Wind Farm,-28.32,151.54,2026-04-04T19:45:21.680172
2026/04/05 05:40:00,MERCER01,9.4,Mt Mercer Windfarm Pty Ltd,Mt Mercer Wind Farm,Wind,131.0,7.18,Mt Mercer Wind Farm,-37.841111,143.871111,2026-04-04T19:45:21.680172
2026/04/05 05:40:00,MEWF1,138.76,Ergon Energy Queensland Pty Ltd ,Mount Emerald Wind Farm,Wind,178.0,77.96,Mount Emerald Wind Farm,-17.133007,145.380644,2026-04-04T19:45:21.680172
2026/04/05 05:40:00,MRTLSWF1,35.64,Mortlake South Wind Farm Pty Ltd,Mortlake South Wind Farm,Wind,153.0,23.29,Mortlake South Wind Farm,-38.127337,142.857801,2026-04-04T19:45:21.680172
2026/04/05 05:40:00,MTGELWF1,34.43,Mt. Gellibrand Wind Farm Pty Ltd,Mt Gellibrand Wind Farm,Wind,132.0,26.08,Mt Gellibrand Wind Farm,-38.23,143.77,2026-04-04T19:45:21.680172
2026/04/05 05:40:00,MTMILLAR,17.2,Mt Millar Wind Farm Pty Ltd,Mt Millar Wind Farm,Wind,70.0,24.57,Mt Millar Wind Farm,-33.624444,136.703611,2026-04-04T19:45:21.680172
2026/04/05 05:40:00,MUSSELR1,37.5,Hydro-Electric Corporation,Musselroe Wind Farm,Wind,168.0,22.32,Musselroe Wind Farm,-40.780225,148.010799,2026-04-04T19:45:21.680172
2026/04/05 05:40:00,MUWAWF1,34.84,Telstra Energy (Generation) Pty Ltd,Murra Warra Wind Farm,Wind,225.7,15.44,Murra Warra Wind Farm,-36.432404,142.317853,2026-04-04T19:45:21.680172
2026/04/05 05:40:00,MUWAWF2,36.6,Murra Warra II Project Co Pty Ltd ATF The Murra Warra II Project Trust,Murra Warra Wind Farm Stage 2,Wind,203.0,18.03,Murra Warra Wind Farm Stage 2,-36.43,142.32,2026-04-04T19:45:21.680172
2026/04/05 05:40:00,NBHWF1,35.8,AGL SA Generation Pty Limited,North Brown Hill Wind Farm,Wind,132.0,27.12,North Brown Hill Wind Farm,-33.367778,138.728611,2026-04-04T19:45:21.680172
2026/04/05 05:40:00,OAKLAND1,0.0,AGL Hydro Partnership,Oaklands Hill Wind Farm,Wind,63.0,0.0,Oaklands Hill Wind Farm,-37.683078,142.551678,2026-04-04T19:45:21.680172
2026/04/05 05:40:00,PAREPW1,112.35,Iberdrola Australia Energy Markets Pty Limited,Port Augusta Renewable Energy Park,Wind,201.0,55.9,Port Augusta Renewable Energy Park,-32.566944,137.856111,2026-04-04T19:45:21.680172
2026/04/05 05:40:00,RYANCWF1,16.14,Ryan Corner Development Pty Ltd,Ryan Corner Wind Farm,Wind,205.0,7.87,Ryan Corner Wind Farm,-38.271017,142.140647,2026-04-04T19:45:21.680172
2026/04/05 05:40:00,RYEPARK1,238.46,Rye Park Renewable Energy Pty Ltd as trustee for Rye Park Wind Farm Trust,Rye Park Renewable Energy,Wind,384.0,62.1,Rye Park Renewable Energy,-32.138333,148.972778,2026-04-04T19:45:21.680172
2026/04/05 05:40:00,SALTCRK1,3.24,Salt Creek Wind Farm Pty Ltd,Salt Creek Wind Farm,Wind,54.0,6.0,Salt Creek Wind Farm,-37.95,142.63,2026-04-04T19:45:21.680172
2026/04/05 05:40:00,SAPHWF1,213.48,The Trustee For The SWF1 Operations Trust,Sapphire Wind Farm,Wind,270.0,79.07,Sapphire Wind Farm,-29.7,151.41,2026-04-04T19:45:21.680172
2026/04/05 05:40:00,SNOWNTH1,23.0,Snowtown Wind Farm Stage 2 Pty Ltd,Snowtown Wind Farm Stage 2 North,Wind,144.0,15.97,Snowtown Wind Farm Stage 2 North,-33.83,138.118611,2026-04-04T19:45:21.680172
2026/04/05 05:40:00,SNOWSTH1,12.4,Snowtown Wind Farm Stage 2 Pty Ltd,Snowtown South Wind Farm,Wind,126.0,9.84,Snowtown South Wind Farm,-33.83,138.118611,2026-04-04T19:45:21.680172
2026/04/05 05:40:00,SNOWTWN1,16.17,Snowtown Wind Farm Pty Ltd,Snowtown Wind Farm Units 1 And 47,Wind,99.0,16.33,Snowtown Wind Farm Units 1 And 47,-33.83,138.118611,2026-04-04T19:45:21.680172
2026/04/05 05:40:00,STARHLWF,1.6,Starfish Hill Wind Farm Pty Ltd,Starfish Hill Wind Farm,Wind,35.0,4.57,Starfish Hill Wind Farm,-35.58,138.14,2026-04-04T19:45:21.680172
2026/04/05 05:40:00,STOCKYD1,77.35,Stockyard Hill Wind Farm Pty Ltd,Stockyard Hill Wind Farm,Wind,511.0,15.14,Stockyard Hill Wind Farm,-37.535833,143.251389,2026-04-04T19:45:21.680172
2026/04/05 05:40:00,STWF1,13.73,PARF Company 8 Pty Ltd as The Trustee for Silverton Project Trust,Silverton Wind Farm,Wind,198.0,6.93,Silverton Wind Farm,-37.683168,142.551678,2026-04-04T19:45:21.680172
2026/04/05 05:40:00,TARALGA1,16.99,Taralga Wind Farm Nominees No 2 Pty Ltd (ATF Taralga Wind Farm Operating Trust),Taralga Wind Farm,Wind,106.0,16.03,Taralga Wind Farm,-34.42352,149.826267,2026-04-04T19:45:21.680172
2026/04/05 05:40:00,WAMBOWF1,73.44,Stanwell Corporation Limited,Wambo Wind Farm 1,Wind,245.0,29.98,Wambo Wind Farm 1,-35.187301,149.524945,2026-04-04T19:45:21.680172
2026/04/05 05:40:00,WATERLWF,30.6,Waterloo Wind Farm Pty Ltd,Waterloo Wind Farm,Wind,130.0,23.54,Waterloo Wind Farm,-34.00094,138.911567,2026-04-04T19:45:21.680172
2026/04/05 05:40:00,WGWF1,21.7,Willogoleche Power Pty Ltd As The Trustee For The Willogoleche Operating Trust,Willogoleche Wind Farm,Wind,119.0,18.24,Willogoleche Wind Farm,-33.39,138.85,2026-04-04T19:45:21.680172
2026/04/05 05:40:00,WOODLWN1,9.51,Woodlawn Wind Pty Ltd,Woodlawn Wind Farm,Wind,48.0,19.81,Woodlawn Wind Farm,-35.08,149.62,2026-04-04T19:45:21.680172
2026/04/05 05:40:00,WPWF,21.75,AGL SA Generation Pty Limited,Wattle Point Wind Farm,Wind,91.0,23.9,Wattle Point Wind Farm,-35.111624,137.7219,2026-04-04T19:45:21.680172
2026/04/05 05:40:00,WRWF1,142.33,White Rock Wind Farm Pty Ltd,White Rock Wind Farm,Wind,172.0,82.75,White Rock Wind Farm,-29.79,151.54,2026-04-04T19:45:21.680172
2026/04/05 05:40:00,YENDWF1,32.65,Lal Lal Wind Farms Nom Co Pty Ltd,Yendon Wind Farm,Wind,142.0,22.99,Yendon Wind Farm,-37.629987,144.022717,2026-04-04T19:45:21.680172
