SETTLEMENTDATE,DUID,SCADAVALUE,Participant,Station Name,Fuel Source - Primary,MAX_CAP,utilisation_pct,Plant,Latitude,Longitude,timestamp_utc
2026/03/05 22:05:00,CAPTL_WF,0.0,Iberdrola Australia Holdings Pty Limited,Capital Wind Farm,Wind,140.0,0.0,Capital Wind Farm,-35.1,149.31,2026-03-05T12:03:37.897066
2026/03/05 22:05:00,CHALLHWF,12.1,Pacific Hydro Challicum Hills Pty Ltd,Challicum Hills Wind Farm,Wind,52.0,23.27,Challicum Hills Wind Farm,-37.38,143.11,2026-03-05T12:03:37.897066
2026/03/05 22:05:00,CULLRGWF,-0.11,Cullerin Range Wind Farm Pty Ltd,Cullerin Range Wind Farm,Wind,30.0,-0.37,Cullerin Range Wind Farm,-34.81,149.4,2026-03-05T12:03:37.897066
2026/03/05 22:05:00,DIAPURWF1,5.1,Y.E.S. Energy (SA) Pty Ltd,Diapur Wind Farm,Wind,7.0,72.86,Diapur Wind Farm,-36.3425,141.43,2026-03-05T12:03:37.897066
2026/03/05 22:05:00,MLWF1,1.46,Mortons Lane Windfarm Pty Limited,Mortons Lane Wind Farm,Wind,20.0,7.3,Mortons Lane Wind Farm,-37.84,142.45,2026-03-05T12:03:37.897066
2026/03/05 22:05:00,WAUBRAWF,108.47,Pyrenees Wind Energy Developments Pty Ltd,Waubra Wind Farm,Wind,192.0,56.49,Waubra Wind Farm,-37.394498,143.638982,2026-03-05T12:03:37.897066
2026/03/05 22:05:00,WOOLNTH1,47.85,Hydro-Electric Corporation,Woolnorth Studland Bay / Bluff Point Wind Farm,Wind,140.0,34.18,Woolnorth Studland Bay / Bluff Point Wind Farm,-40.69,144.72,2026-03-05T12:03:37.897066
2026/03/05 22:05:00,YAMBUKWF,3.2,Energy Pacific (Vic) Pty Ltd,Yambuk Wind Farm,Wind,30.0,10.67,Yambuk Wind Farm,-38.299083,142.027577,2026-03-05T12:03:37.897066
2026/03/05 22:05:00,YSWF1,0.0,Pacific Hydro Yaloak South Pty Ltd,Yaloak South Wind Farm,Wind,28.0,0.0,Yaloak South Wind Farm,-37.7163,144.242853,2026-03-05T12:03:37.897066
2026/03/05 22:05:00,ARWF1,112.8,Ararat Wind Farm Pty Ltd,Ararat Wind Farm,Wind,241.0,46.8,Ararat Wind Farm,-37.232778,143.031389,2026-03-05T12:03:37.897066
2026/03/05 22:05:00,BALDHWF1,0.0,Alinta Energy Retail Sales Pty Ltd,Bald Hills Wind Farm,Wind,106.0,0.0,Bald Hills Wind Farm,-38.79,145.93,2026-03-05T12:03:37.897066
2026/03/05 22:05:00,BANGOWF1,0.0,BWF Nominees Pty Ltd as The Trustee for BWF Trust,Bango 973 Wind Farm,Wind,155.0,0.0,Bango 973 Wind Farm,-34.551582,148.732808,2026-03-05T12:03:37.897066
2026/03/05 22:05:00,BANGOWF2,0.0,BWF Nominees Pty Ltd as The Trustee for BWF Trust,Bango 999 Wind Farm,Wind,82.0,0.0,Bango 999 Wind Farm,-34.551582,148.732808,2026-03-05T12:03:37.897066
2026/03/05 22:05:00,BLUFF1,0.0,AGL SA Generation Pty Limited,The Bluff Wind Farm,Wind,53.0,0.0,The Bluff Wind Farm,-33.367778,138.728611,2026-03-05T12:03:37.897066
2026/03/05 22:05:00,BOCORWF1,2.45,Boco Rock Wind Farm Pty Ltd,Boco Rock Wind Farm,Wind,111.0,2.21,Boco Rock Wind Farm,-36.578611,149.103333,2026-03-05T12:03:37.897066
2026/03/05 22:05:00,BRYB1WF1,2.52,Berrybank Development Pty Ltd,Berrybank Wind Farm,Wind,175.9,1.43,Berrybank Wind Farm,-37.94,143.52,2026-03-05T12:03:37.897066
2026/03/05 22:05:00,BRYB2WF2,3.3,Berrybank 2 Asset Pty Ltd as trustee for Berrybank 2 Asset Trust,Berrybank 2 Wind Farm,Wind,105.0,3.14,Berrybank 2 Wind Farm,-37.94,143.52,2026-03-05T12:03:37.897066
2026/03/05 22:05:00,BULGANA1,111.21,Bulgana Wind Farm Pty Ltd,Bulgana Green Power Hub,Wind,204.0,54.51,Bulgana Green Power Hub,-37.0975,142.973611,2026-03-05T12:03:37.897066
2026/03/05 22:05:00,CATHROCK,0.7,Cathedral Rocks Wind Farm Pty Ltd,Cathedral Rocks,Wind,66.0,1.06,Cathedral Rocks,-34.51,135.35,2026-03-05T12:03:37.897066
2026/03/05 22:05:00,CHYTWF1,9.08,Cherry Tree Wind Farm Pty Ltd as trustee for The Cherry Tree Project trust ,Cherry Tree Wind Farm,Wind,57.0,15.93,Cherry Tree Wind Farm,-37.1,145.26,2026-03-05T12:03:37.897066
2026/03/05 22:05:00,CLEMGPWF,44.01,Pacific Hydro Clements Gap Pty Ltd,Clements Gap Wind Farm,Wind,57.0,77.21,Clements Gap Wind Farm,-33.48,138.1,2026-03-05T12:03:37.897066
2026/03/05 22:05:00,CLRKCWF1,203.33,Stanwell Corporation Limited ,Clarke Creek Wind Farm,Wind,338.0,60.16,Clarke Creek Wind Farm,-22.85,149.45,2026-03-05T12:03:37.897066
2026/03/05 22:05:00,CLRKCWF2,56.84,Stanwell Corporation Limited ,Clarke Creek Wind Farm,Wind,101.0,56.28,Clarke Creek Wind Farm,-22.85,149.45,2026-03-05T12:03:37.897066
2026/03/05 22:05:00,CNUNDAWF,3.9,Canunda Power Pty Ltd,Canunda Wind Farm,Wind,46.0,8.48,Canunda Wind Farm,-37.73,140.39,2026-03-05T12:03:37.897066
2026/03/05 22:05:00,COLWF01,0.0,Collector Wind Farm Pty Ltd,Collector Wind Farm 1,Wind,219.0,0.0,Collector Wind Farm 1,-34.8719,149.3967,2026-03-05T12:03:37.897066
2026/03/05 22:05:00,COOPGWF1,48.05,PARF Company 10 Pty Limited as The Trustee for Coopers Gap Project Trust,Coopers Gap Wind Farm,Wind,440.0,10.92,Coopers Gap Wind Farm,-26.74,151.45,2026-03-05T12:03:37.897066
2026/03/05 22:05:00,CROOKWF2,0.0,Crookwell Development Pty Ltd ,Crookwell 2 Wind Farm,Wind,91.0,0.0,Crookwell 2 Wind Farm,-34.52,149.54,2026-03-05T12:03:37.897066
2026/03/05 22:05:00,CROOKWF3,0.0,Crookwell 3 Development Pty Ltd,Crookwell 3 Wind Farm,Wind,56.0,0.0,Crookwell 3 Wind Farm,-34.52,149.54,2026-03-05T12:03:37.897066
2026/03/05 22:05:00,CROWLWF1,15.07,Pacific Hydro Crowlands Pty Ltd ,Crowlands Wind Farm,Wind,79.0,19.08,Crowlands Wind Farm,-37.13,143.16,2026-03-05T12:03:37.897066
2026/03/05 22:05:00,CRURWF1,13.8,CRWF Nominees Pty Ltd As Trustee For The CRWF Trust,Crudine Ridge Wind Farm,Wind,138.0,10.0,Crudine Ridge Wind Farm,-32.97,149.64,2026-03-05T12:03:37.897066
2026/03/05 22:05:00,CTHLWF1,108.49,Wild Cattle Hill Pty Ltd,Cattle Hill Wind Farm,Wind,144.0,75.34,Cattle Hill Wind Farm,-42.15,146.69,2026-03-05T12:03:37.897066
2026/03/05 22:05:00,DULAWF1,136.4,Dulacca Energy Project Co Pty Ltd,Dulacca Wind Farm,Wind,173.0,78.84,Dulacca Wind Farm,-26.63,149.87,2026-03-05T12:03:37.897066
2026/03/05 22:05:00,DUNDWF1,17.88,Dundonnell Wind Farm Pty Ltd,Dundonnell Wind Farm,Wind,168.0,10.64,Dundonnell Wind Farm,-37.52,142.58,2026-03-05T12:03:37.897066
2026/03/05 22:05:00,DUNDWF2,3.18,Dundonnell Wind Farm Pty Ltd,Dundonnell Wind Farm,Wind,46.0,6.91,Dundonnell Wind Farm,-37.52,142.58,2026-03-05T12:03:37.897066
2026/03/05 22:05:00,DUNDWF3,15.02,Dundonnell Wind Farm Pty Ltd,Dundonnell Wind Farm,Wind,122.0,12.31,Dundonnell Wind Farm,-37.52,142.58,2026-03-05T12:03:37.897066
2026/03/05 22:05:00,ELAINWF1,7.95,Lal Lal Wind Farms Nom Co Pty Ltd,Elaine Wind Farm,Wind,82.0,9.7,Elaine Wind Farm,-37.36,144.0,2026-03-05T12:03:37.897066
2026/03/05 22:05:00,FLYCRKWF,2.95,Iberdrola Australia Energy Markets Pty Limited,Flyers Creek Wind Farm,Wind,140.0,2.11,Flyers Creek Wind Farm,-33.365556,148.981944,2026-03-05T12:03:37.897066
2026/03/05 22:05:00,GPWFEST1,6.18,Golden Plains WF1 Pty Ltd as Trustee for the Golden Plains WF1 Unit Trust,Golden Plains Wind Farm East,Wind,240.0,2.58,Golden Plains Wind Farm East,-37.945091,143.752614,2026-03-05T12:03:37.897066
2026/03/05 22:05:00,GPWFEST2,8.17,Golden Plains WF1 Pty Ltd as Trustee for the Golden Plains WF1 Unit Trust,Golden Plains Wind Farm East,Wind,253.0,3.23,Golden Plains Wind Farm East,-37.945091,143.752614,2026-03-05T12:03:37.897066
2026/03/05 22:05:00,GPWFEST3,1.85,Golden Plains WF1 Pty Ltd as Trustee for the Golden Plains WF1 Unit Trust,Golden Plains Wind Farm East,Wind,240.0,0.77,Golden Plains Wind Farm East,-37.945091,143.752614,2026-03-05T12:03:37.897066
2026/03/05 22:05:00,GRANWF1,39.36,Granville Harbour Operations Pty Ltd as The Trustee for Granville Harbour Operations Trust,Granville Harbour Wind Farm,Wind,111.0,35.46,Granville Harbour Wind Farm,-41.8,145.06,2026-03-05T12:03:37.897066
2026/03/05 22:05:00,GSWF1A,26.04,Goyder Wind Farm 1 Pty Ltd as the Trustee for Goyder Wind Farm 1 Trust,Goyder South Wind Farm 1A,Wind,201.0,12.96,Goyder South Wind Farm 1A,-33.679758,138.937597,2026-03-05T12:03:37.897066
2026/03/05 22:05:00,GSWF1B1,36.85,Goyder Wind Farm 1B Pty Ltd as the Trustee for the Goyder Wind Farm 1B Trust,Goyder South Wind Farm 1B,Wind,196.0,18.8,Goyder South Wind Farm 1B,-33.679758,138.937597,2026-03-05T12:03:37.897066
2026/03/05 22:05:00,GULLRWF1,0.0,New Gullen Range Wind Farm Pty Ltd,Gullen Range Wind Farm,Wind,161.0,0.0,Gullen Range Wind Farm,-34.34,149.27,2026-03-05T12:03:37.897066
2026/03/05 22:05:00,GULLRWF2,0.0,New Gullen Range Wind Farm Pty Ltd,Gullen Range Wind Farm,Wind,107.0,0.0,Gullen Range Wind Farm,-34.34,149.27,2026-03-05T12:03:37.897066
2026/03/05 22:05:00,GUNNING1,0.0,Gunning Wind Energy Developments Pty Ltd,Gunning Wind Farm,Wind,47.0,0.0,Gunning Wind Farm,-34.813333,149.4,2026-03-05T12:03:37.897066
2026/03/05 22:05:00,HALLWF1,22.11,AGL SA Generation Pty Limited,Hallett 1 Wind Farm,Wind,95.0,23.27,Hallett 1 Wind Farm,-33.367778,138.728611,2026-03-05T12:03:37.897066
2026/03/05 22:05:00,HALLWF2,7.7,AGL SA Generation Pty Limited,Hallett 2 Wind Farm,Wind,71.0,10.85,Hallett 2 Wind Farm,-33.367778,138.728611,2026-03-05T12:03:37.897066
2026/03/05 22:05:00,HD1WF1,52.57,Hawkesdale Asset Pty Ltd as trustee for Hawkesdale Asset Trust,Hawkesdale Wind Farm,Wind,89.0,59.07,Hawkesdale Wind Farm,-38.147894,142.361381,2026-03-05T12:03:37.897066
2026/03/05 22:05:00,HDWF1,31.4,HWF1 Pty Ltd,Hornsdale Wind Farm,Wind,102.0,30.78,Hornsdale Wind Farm,-33.050556,138.543611,2026-03-05T12:03:37.897066
2026/03/05 22:05:00,HDWF2,24.7,HWF 2 Pty Ltd,Hornsdale Wind Farm 2,Wind,102.0,24.22,Hornsdale Wind Farm 2,-33.06,138.54,2026-03-05T12:03:37.897066
2026/03/05 22:05:00,HDWF3,22.5,HWF3 Pty Ltd,Hornsdale Wind Farm 3,Wind,109.0,20.64,Hornsdale Wind Farm 3,-33.06,138.54,2026-03-05T12:03:37.897066
2026/03/05 22:05:00,KABANWF1,116.78,Kaban Wind Farm Pty Ltd as trustee for Kaban Wind Farm Trust,Kaban Wind Farm,Wind,152.0,76.83,Kaban Wind Farm,-17.56,145.41,2026-03-05T12:03:37.897066
2026/03/05 22:05:00,KEPWF1,19.4,Kennedy Energy Park Pty Ltd,Kennedy Energy Park,Wind,43.0,45.12,Kennedy Energy Park,-20.88,144.42,2026-03-05T12:03:37.897066
2026/03/05 22:05:00,KIATAWF1,26.1,Kiata ProjectCo Pty Ltd Atf Kiata Project Trust,Kiata Wind Farm,Wind,31.0,84.19,Kiata Wind Farm,-36.4,141.75,2026-03-05T12:03:37.897066
2026/03/05 22:05:00,LGAPWF1,43.59,Lincoln Gap Wind Farm (Operations) Pty Ltd,Lincoln Gap Wind Farm,Wind,123.0,35.44,Lincoln Gap Wind Farm,-32.564279,137.557328,2026-03-05T12:03:37.897066
2026/03/05 22:05:00,LGAPWF1,43.59,Lincoln Gap Wind Farm (Operations) Pty Ltd,Lincoln Gap Wind Farm,Wind,123.0,35.44,Lincoln Gap Wind Farm,-32.564279,137.557328,2026-03-05T12:03:37.897066
2026/03/05 22:05:00,LGAPWF2,72.49,Lincoln Gap Wind Farm (Operations) Pty Ltd,Lincoln Gap Wind Farm,Wind,85.0,85.28,Lincoln Gap Wind Farm,-32.564279,137.557328,2026-03-05T12:03:37.897066
2026/03/05 22:05:00,LGAPWF2,72.49,Lincoln Gap Wind Farm (Operations) Pty Ltd,Lincoln Gap Wind Farm,Wind,85.0,85.28,Lincoln Gap Wind Farm,-32.564279,137.557328,2026-03-05T12:03:37.897066
2026/03/05 22:05:00,LKBONNY1,8.4,Lake Bonney Wind Power Pty Ltd,Lake Bonney Wind Farm Stage 1,Wind,81.0,10.37,Lake Bonney Wind Farm Stage 1,-37.76,140.4,2026-03-05T12:03:37.897066
2026/03/05 22:05:00,LKBONNY2,15.81,Lake Bonney Wind Power Pty Ltd,Lake Bonney Stage 2 Windfarm,Wind,159.0,9.94,Lake Bonney Stage 2 Windfarm,-37.76,140.4,2026-03-05T12:03:37.897066
2026/03/05 22:05:00,LKBONNY3,6.98,Lake Bonney Wind Power Pty Ltd,Lake Bonney Stage 3 Wind Farm,Wind,39.0,17.9,Lake Bonney Stage 3 Wind Farm,-37.737781,140.388137,2026-03-05T12:03:37.897066
2026/03/05 22:05:00,MACARTH1,70.3,AGL Hydro Partnership,Macarthur Wind Farm,Wind,420.0,16.74,Macarthur Wind Farm,-38.048957,142.192112,2026-03-05T12:03:37.897066
2026/03/05 22:05:00,MCINTYR1,162.21,MacIntyre UJV Operator Pty Ltd,MacIntyre Wind Farm,Wind,890.0,18.23,MacIntyre Wind Farm,-28.32,151.54,2026-03-05T12:03:37.897066
2026/03/05 22:05:00,MERCER01,2.8,Mt Mercer Windfarm Pty Ltd,Mt Mercer Wind Farm,Wind,131.0,2.14,Mt Mercer Wind Farm,-37.841111,143.871111,2026-03-05T12:03:37.897066
2026/03/05 22:05:00,MEWF1,132.31,Ergon Energy Queensland Pty Ltd ,Mount Emerald Wind Farm,Wind,178.0,74.33,Mount Emerald Wind Farm,-17.133007,145.380644,2026-03-05T12:03:37.897066
2026/03/05 22:05:00,MRTLSWF1,16.79,Mortlake South Wind Farm Pty Ltd,Mortlake South Wind Farm,Wind,153.0,10.97,Mortlake South Wind Farm,-38.127337,142.857801,2026-03-05T12:03:37.897066
2026/03/05 22:05:00,MTGELWF1,0.0,Mt. Gellibrand Wind Farm Pty Ltd,Mt Gellibrand Wind Farm,Wind,132.0,0.0,Mt Gellibrand Wind Farm,-38.23,143.77,2026-03-05T12:03:37.897066
2026/03/05 22:05:00,MTMILLAR,16.3,Mt Millar Wind Farm Pty Ltd,Mt Millar Wind Farm,Wind,70.0,23.29,Mt Millar Wind Farm,-33.624444,136.703611,2026-03-05T12:03:37.897066
2026/03/05 22:05:00,MUSSELR1,151.7,Hydro-Electric Corporation,Musselroe Wind Farm,Wind,168.0,90.3,Musselroe Wind Farm,-40.780225,148.010799,2026-03-05T12:03:37.897066
2026/03/05 22:05:00,MUWAWF1,134.58,Telstra Energy (Generation) Pty Ltd,Murra Warra Wind Farm,Wind,225.7,59.63,Murra Warra Wind Farm,-36.432404,142.317853,2026-03-05T12:03:37.897066
2026/03/05 22:05:00,MUWAWF2,138.1,Murra Warra II Project Co Pty Ltd ATF The Murra Warra II Project Trust,Murra Warra Wind Farm Stage 2,Wind,203.0,68.03,Murra Warra Wind Farm Stage 2,-36.43,142.32,2026-03-05T12:03:37.897066
2026/03/05 22:05:00,NBHWF1,12.5,AGL SA Generation Pty Limited,North Brown Hill Wind Farm,Wind,132.0,9.47,North Brown Hill Wind Farm,-33.367778,138.728611,2026-03-05T12:03:37.897066
2026/03/05 22:05:00,OAKLAND1,6.4,AGL Hydro Partnership,Oaklands Hill Wind Farm,Wind,63.0,10.16,Oaklands Hill Wind Farm,-37.683078,142.551678,2026-03-05T12:03:37.897066
2026/03/05 22:05:00,PAREPW1,130.35,Iberdrola Australia Energy Markets Pty Limited,Port Augusta Renewable Energy Park,Wind,201.0,64.85,Port Augusta Renewable Energy Park,-32.566944,137.856111,2026-03-05T12:03:37.897066
2026/03/05 22:05:00,RYANCWF1,37.99,Ryan Corner Development Pty Ltd,Ryan Corner Wind Farm,Wind,205.0,18.53,Ryan Corner Wind Farm,-38.271017,142.140647,2026-03-05T12:03:37.897066
2026/03/05 22:05:00,RYEPARK1,0.0,Rye Park Renewable Energy Pty Ltd as trustee for Rye Park Wind Farm Trust,Rye Park Renewable Energy,Wind,384.0,0.0,Rye Park Renewable Energy,-32.138333,148.972778,2026-03-05T12:03:37.897066
2026/03/05 22:05:00,SALTCRK1,3.51,Salt Creek Wind Farm Pty Ltd,Salt Creek Wind Farm,Wind,54.0,6.5,Salt Creek Wind Farm,-37.95,142.63,2026-03-05T12:03:37.897066
2026/03/05 22:05:00,SAPHWF1,229.24,The Trustee For The SWF1 Operations Trust,Sapphire Wind Farm,Wind,270.0,84.9,Sapphire Wind Farm,-29.7,151.41,2026-03-05T12:03:37.897066
2026/03/05 22:05:00,SNOWNTH1,80.2,Snowtown Wind Farm Stage 2 Pty Ltd,Snowtown Wind Farm Stage 2 North,Wind,144.0,55.69,Snowtown Wind Farm Stage 2 North,-33.83,138.118611,2026-03-05T12:03:37.897066
2026/03/05 22:05:00,SNOWSTH1,57.3,Snowtown Wind Farm Stage 2 Pty Ltd,Snowtown South Wind Farm,Wind,126.0,45.48,Snowtown South Wind Farm,-33.83,138.118611,2026-03-05T12:03:37.897066
2026/03/05 22:05:00,SNOWTWN1,75.87,Snowtown Wind Farm Pty Ltd,Snowtown Wind Farm Units 1 And 47,Wind,99.0,76.64,Snowtown Wind Farm Units 1 And 47,-33.83,138.118611,2026-03-05T12:03:37.897066
2026/03/05 22:05:00,STARHLWF,4.9,Starfish Hill Wind Farm Pty Ltd,Starfish Hill Wind Farm,Wind,35.0,14.0,Starfish Hill Wind Farm,-35.58,138.14,2026-03-05T12:03:37.897066
2026/03/05 22:05:00,STOCKYD1,119.49,Stockyard Hill Wind Farm Pty Ltd,Stockyard Hill Wind Farm,Wind,511.0,23.38,Stockyard Hill Wind Farm,-37.535833,143.251389,2026-03-05T12:03:37.897066
2026/03/05 22:05:00,STWF1,116.91,PARF Company 8 Pty Ltd as The Trustee for Silverton Project Trust,Silverton Wind Farm,Wind,198.0,59.05,Silverton Wind Farm,-37.683168,142.551678,2026-03-05T12:03:37.897066
2026/03/05 22:05:00,TARALGA1,0.0,Taralga Wind Farm Nominees No 2 Pty Ltd (ATF Taralga Wind Farm Operating Trust),Taralga Wind Farm,Wind,106.0,0.0,Taralga Wind Farm,-34.42352,149.826267,2026-03-05T12:03:37.897066
2026/03/05 22:05:00,WAMBOWF1,115.51,Stanwell Corporation Limited,Wambo Wind Farm 1,Wind,245.0,47.15,Wambo Wind Farm 1,-35.187301,149.524945,2026-03-05T12:03:37.897066
2026/03/05 22:05:00,WATERLWF,4.0,Waterloo Wind Farm Pty Ltd,Waterloo Wind Farm,Wind,130.0,3.08,Waterloo Wind Farm,-34.00094,138.911567,2026-03-05T12:03:37.897066
2026/03/05 22:05:00,WGWF1,6.6,Willogoleche Power Pty Ltd As The Trustee For The Willogoleche Operating Trust,Willogoleche Wind Farm,Wind,119.0,5.55,Willogoleche Wind Farm,-33.39,138.85,2026-03-05T12:03:37.897066
2026/03/05 22:05:00,WOODLWN1,0.0,Woodlawn Wind Pty Ltd,Woodlawn Wind Farm,Wind,48.0,0.0,Woodlawn Wind Farm,-35.08,149.62,2026-03-05T12:03:37.897066
2026/03/05 22:05:00,WPWF,18.07,AGL SA Generation Pty Limited,Wattle Point Wind Farm,Wind,91.0,19.86,Wattle Point Wind Farm,-35.111624,137.7219,2026-03-05T12:03:37.897066
2026/03/05 22:05:00,WRWF1,135.3,White Rock Wind Farm Pty Ltd,White Rock Wind Farm,Wind,172.0,78.66,White Rock Wind Farm,-29.79,151.54,2026-03-05T12:03:37.897066
2026/03/05 22:05:00,YENDWF1,7.15,Lal Lal Wind Farms Nom Co Pty Ltd,Yendon Wind Farm,Wind,142.0,5.04,Yendon Wind Farm,-37.629987,144.022717,2026-03-05T12:03:37.897066
