SETTLEMENTDATE,DUID,SCADAVALUE,Participant,Station Name,Fuel Source - Primary,MAX_CAP,utilisation_pct,Plant,Latitude,Longitude,timestamp_utc
2026/03/12 21:30:00,CAPTL_WF,52.82,Iberdrola Australia Holdings Pty Limited,Capital Wind Farm,Wind,140.0,37.73,Capital Wind Farm,-35.1,149.31,2026-03-12T11:30:39.064197
2026/03/12 21:30:00,CHALLHWF,13.3,Pacific Hydro Challicum Hills Pty Ltd,Challicum Hills Wind Farm,Wind,52.0,25.58,Challicum Hills Wind Farm,-37.38,143.11,2026-03-12T11:30:39.064197
2026/03/12 21:30:00,CULLRGWF,2.22,Cullerin Range Wind Farm Pty Ltd,Cullerin Range Wind Farm,Wind,30.0,7.4,Cullerin Range Wind Farm,-34.81,149.4,2026-03-12T11:30:39.064197
2026/03/12 21:30:00,DIAPURWF1,7.4,Y.E.S. Energy (SA) Pty Ltd,Diapur Wind Farm,Wind,7.0,105.71,Diapur Wind Farm,-36.3425,141.43,2026-03-12T11:30:39.064197
2026/03/12 21:30:00,MLWF1,2.12,Mortons Lane Windfarm Pty Limited,Mortons Lane Wind Farm,Wind,20.0,10.6,Mortons Lane Wind Farm,-37.84,142.45,2026-03-12T11:30:39.064197
2026/03/12 21:30:00,WAUBRAWF,114.29,Pyrenees Wind Energy Developments Pty Ltd,Waubra Wind Farm,Wind,192.0,59.53,Waubra Wind Farm,-37.394498,143.638982,2026-03-12T11:30:39.064197
2026/03/12 21:30:00,WOOLNTH1,100.43,Hydro-Electric Corporation,Woolnorth Studland Bay / Bluff Point Wind Farm,Wind,140.0,71.74,Woolnorth Studland Bay / Bluff Point Wind Farm,-40.69,144.72,2026-03-12T11:30:39.064197
2026/03/12 21:30:00,YAMBUKWF,16.0,Energy Pacific (Vic) Pty Ltd,Yambuk Wind Farm,Wind,30.0,53.33,Yambuk Wind Farm,-38.299083,142.027577,2026-03-12T11:30:39.064197
2026/03/12 21:30:00,YSWF1,3.8,Pacific Hydro Yaloak South Pty Ltd,Yaloak South Wind Farm,Wind,28.0,13.57,Yaloak South Wind Farm,-37.7163,144.242853,2026-03-12T11:30:39.064197
2026/03/12 21:30:00,ARWF1,113.0,Ararat Wind Farm Pty Ltd,Ararat Wind Farm,Wind,241.0,46.89,Ararat Wind Farm,-37.232778,143.031389,2026-03-12T11:30:39.064197
2026/03/12 21:30:00,BALDHWF1,78.14,Alinta Energy Retail Sales Pty Ltd,Bald Hills Wind Farm,Wind,106.0,73.72,Bald Hills Wind Farm,-38.79,145.93,2026-03-12T11:30:39.064197
2026/03/12 21:30:00,BANGOWF1,88.9,BWF Nominees Pty Ltd as The Trustee for BWF Trust,Bango 973 Wind Farm,Wind,155.0,57.35,Bango 973 Wind Farm,-34.551582,148.732808,2026-03-12T11:30:39.064197
2026/03/12 21:30:00,BANGOWF2,31.0,BWF Nominees Pty Ltd as The Trustee for BWF Trust,Bango 999 Wind Farm,Wind,82.0,37.8,Bango 999 Wind Farm,-34.551582,148.732808,2026-03-12T11:30:39.064197
2026/03/12 21:30:00,BLUFF1,48.6,AGL SA Generation Pty Limited,The Bluff Wind Farm,Wind,53.0,91.7,The Bluff Wind Farm,-33.367778,138.728611,2026-03-12T11:30:39.064197
2026/03/12 21:30:00,BOCORWF1,48.62,Boco Rock Wind Farm Pty Ltd,Boco Rock Wind Farm,Wind,111.0,43.8,Boco Rock Wind Farm,-36.578611,149.103333,2026-03-12T11:30:39.064197
2026/03/12 21:30:00,BRYB1WF1,61.55,Berrybank Development Pty Ltd,Berrybank Wind Farm,Wind,175.9,34.99,Berrybank Wind Farm,-37.94,143.52,2026-03-12T11:30:39.064197
2026/03/12 21:30:00,BRYB2WF2,31.95,Berrybank 2 Asset Pty Ltd as trustee for Berrybank 2 Asset Trust,Berrybank 2 Wind Farm,Wind,105.0,30.43,Berrybank 2 Wind Farm,-37.94,143.52,2026-03-12T11:30:39.064197
2026/03/12 21:30:00,BULGANA1,108.91,Bulgana Wind Farm Pty Ltd,Bulgana Green Power Hub,Wind,204.0,53.39,Bulgana Green Power Hub,-37.0975,142.973611,2026-03-12T11:30:39.064197
2026/03/12 21:30:00,CATHROCK,0.0,Cathedral Rocks Wind Farm Pty Ltd,Cathedral Rocks,Wind,66.0,0.0,Cathedral Rocks,-34.51,135.35,2026-03-12T11:30:39.064197
2026/03/12 21:30:00,CHYTWF1,55.6,Cherry Tree Wind Farm Pty Ltd as trustee for The Cherry Tree Project trust ,Cherry Tree Wind Farm,Wind,57.0,97.54,Cherry Tree Wind Farm,-37.1,145.26,2026-03-12T11:30:39.064197
2026/03/12 21:30:00,CLEMGPWF,53.67,Pacific Hydro Clements Gap Pty Ltd,Clements Gap Wind Farm,Wind,57.0,94.16,Clements Gap Wind Farm,-33.48,138.1,2026-03-12T11:30:39.064197
2026/03/12 21:30:00,CLRKCWF1,174.63,Stanwell Corporation Limited ,Clarke Creek Wind Farm,Wind,338.0,51.67,Clarke Creek Wind Farm,-22.85,149.45,2026-03-12T11:30:39.064197
2026/03/12 21:30:00,CLRKCWF2,50.86,Stanwell Corporation Limited ,Clarke Creek Wind Farm,Wind,101.0,50.36,Clarke Creek Wind Farm,-22.85,149.45,2026-03-12T11:30:39.064197
2026/03/12 21:30:00,CNUNDAWF,3.7,Canunda Power Pty Ltd,Canunda Wind Farm,Wind,46.0,8.04,Canunda Wind Farm,-37.73,140.39,2026-03-12T11:30:39.064197
2026/03/12 21:30:00,COLWF01,20.18,Collector Wind Farm Pty Ltd,Collector Wind Farm 1,Wind,219.0,9.21,Collector Wind Farm 1,-34.8719,149.3967,2026-03-12T11:30:39.064197
2026/03/12 21:30:00,COOPGWF1,55.15,PARF Company 10 Pty Limited as The Trustee for Coopers Gap Project Trust,Coopers Gap Wind Farm,Wind,440.0,12.53,Coopers Gap Wind Farm,-26.74,151.45,2026-03-12T11:30:39.064197
2026/03/12 21:30:00,CROOKWF2,9.88,Crookwell Development Pty Ltd ,Crookwell 2 Wind Farm,Wind,91.0,10.86,Crookwell 2 Wind Farm,-34.52,149.54,2026-03-12T11:30:39.064197
2026/03/12 21:30:00,CROOKWF3,6.72,Crookwell 3 Development Pty Ltd,Crookwell 3 Wind Farm,Wind,56.0,12.0,Crookwell 3 Wind Farm,-34.52,149.54,2026-03-12T11:30:39.064197
2026/03/12 21:30:00,CROWLWF1,52.43,Pacific Hydro Crowlands Pty Ltd ,Crowlands Wind Farm,Wind,79.0,66.37,Crowlands Wind Farm,-37.13,143.16,2026-03-12T11:30:39.064197
2026/03/12 21:30:00,CRURWF1,28.3,CRWF Nominees Pty Ltd As Trustee For The CRWF Trust,Crudine Ridge Wind Farm,Wind,138.0,20.51,Crudine Ridge Wind Farm,-32.97,149.64,2026-03-12T11:30:39.064197
2026/03/12 21:30:00,CTHLWF1,135.8,Wild Cattle Hill Pty Ltd,Cattle Hill Wind Farm,Wind,144.0,94.31,Cattle Hill Wind Farm,-42.15,146.69,2026-03-12T11:30:39.064197
2026/03/12 21:30:00,DULAWF1,44.2,Dulacca Energy Project Co Pty Ltd,Dulacca Wind Farm,Wind,173.0,25.55,Dulacca Wind Farm,-26.63,149.87,2026-03-12T11:30:39.064197
2026/03/12 21:30:00,DUNDWF1,31.43,Dundonnell Wind Farm Pty Ltd,Dundonnell Wind Farm,Wind,168.0,18.71,Dundonnell Wind Farm,-37.52,142.58,2026-03-12T11:30:39.064197
2026/03/12 21:30:00,DUNDWF2,10.72,Dundonnell Wind Farm Pty Ltd,Dundonnell Wind Farm,Wind,46.0,23.3,Dundonnell Wind Farm,-37.52,142.58,2026-03-12T11:30:39.064197
2026/03/12 21:30:00,DUNDWF3,23.02,Dundonnell Wind Farm Pty Ltd,Dundonnell Wind Farm,Wind,122.0,18.87,Dundonnell Wind Farm,-37.52,142.58,2026-03-12T11:30:39.064197
2026/03/12 21:30:00,ELAINWF1,19.59,Lal Lal Wind Farms Nom Co Pty Ltd,Elaine Wind Farm,Wind,82.0,23.89,Elaine Wind Farm,-37.36,144.0,2026-03-12T11:30:39.064197
2026/03/12 21:30:00,FLYCRKWF,21.97,Iberdrola Australia Energy Markets Pty Limited,Flyers Creek Wind Farm,Wind,140.0,15.69,Flyers Creek Wind Farm,-33.365556,148.981944,2026-03-12T11:30:39.064197
2026/03/12 21:30:00,GPWFEST1,35.14,Golden Plains WF1 Pty Ltd as Trustee for the Golden Plains WF1 Unit Trust,Golden Plains Wind Farm East,Wind,240.0,14.64,Golden Plains Wind Farm East,-37.945091,143.752614,2026-03-12T11:30:39.064197
2026/03/12 21:30:00,GPWFEST2,23.73,Golden Plains WF1 Pty Ltd as Trustee for the Golden Plains WF1 Unit Trust,Golden Plains Wind Farm East,Wind,253.0,9.38,Golden Plains Wind Farm East,-37.945091,143.752614,2026-03-12T11:30:39.064197
2026/03/12 21:30:00,GPWFEST3,31.68,Golden Plains WF1 Pty Ltd as Trustee for the Golden Plains WF1 Unit Trust,Golden Plains Wind Farm East,Wind,240.0,13.2,Golden Plains Wind Farm East,-37.945091,143.752614,2026-03-12T11:30:39.064197
2026/03/12 21:30:00,GRANWF1,78.09,Granville Harbour Operations Pty Ltd as The Trustee for Granville Harbour Operations Trust,Granville Harbour Wind Farm,Wind,111.0,70.35,Granville Harbour Wind Farm,-41.8,145.06,2026-03-12T11:30:39.064197
2026/03/12 21:30:00,GSWF1A,160.65,Goyder Wind Farm 1 Pty Ltd as the Trustee for Goyder Wind Farm 1 Trust,Goyder South Wind Farm 1A,Wind,201.0,79.93,Goyder South Wind Farm 1A,-33.679758,138.937597,2026-03-12T11:30:39.064197
2026/03/12 21:30:00,GSWF1B1,131.35,Goyder Wind Farm 1B Pty Ltd as the Trustee for the Goyder Wind Farm 1B Trust,Goyder South Wind Farm 1B,Wind,196.0,67.02,Goyder South Wind Farm 1B,-33.679758,138.937597,2026-03-12T11:30:39.064197
2026/03/12 21:30:00,GULLRWF1,4.82,New Gullen Range Wind Farm Pty Ltd,Gullen Range Wind Farm,Wind,161.0,2.99,Gullen Range Wind Farm,-34.34,149.27,2026-03-12T11:30:39.064197
2026/03/12 21:30:00,GULLRWF2,5.24,New Gullen Range Wind Farm Pty Ltd,Gullen Range Wind Farm,Wind,107.0,4.9,Gullen Range Wind Farm,-34.34,149.27,2026-03-12T11:30:39.064197
2026/03/12 21:30:00,GUNNING1,1.34,Gunning Wind Energy Developments Pty Ltd,Gunning Wind Farm,Wind,47.0,2.85,Gunning Wind Farm,-34.813333,149.4,2026-03-12T11:30:39.064197
2026/03/12 21:30:00,HALLWF1,69.81,AGL SA Generation Pty Limited,Hallett 1 Wind Farm,Wind,95.0,73.48,Hallett 1 Wind Farm,-33.367778,138.728611,2026-03-12T11:30:39.064197
2026/03/12 21:30:00,HALLWF2,53.39,AGL SA Generation Pty Limited,Hallett 2 Wind Farm,Wind,71.0,75.2,Hallett 2 Wind Farm,-33.367778,138.728611,2026-03-12T11:30:39.064197
2026/03/12 21:30:00,HD1WF1,27.87,Hawkesdale Asset Pty Ltd as trustee for Hawkesdale Asset Trust,Hawkesdale Wind Farm,Wind,89.0,31.31,Hawkesdale Wind Farm,-38.147894,142.361381,2026-03-12T11:30:39.064197
2026/03/12 21:30:00,HDWF1,51.9,HWF1 Pty Ltd,Hornsdale Wind Farm,Wind,102.0,50.88,Hornsdale Wind Farm,-33.050556,138.543611,2026-03-12T11:30:39.064197
2026/03/12 21:30:00,HDWF2,51.0,HWF 2 Pty Ltd,Hornsdale Wind Farm 2,Wind,102.0,50.0,Hornsdale Wind Farm 2,-33.06,138.54,2026-03-12T11:30:39.064197
2026/03/12 21:30:00,HDWF3,53.4,HWF3 Pty Ltd,Hornsdale Wind Farm 3,Wind,109.0,48.99,Hornsdale Wind Farm 3,-33.06,138.54,2026-03-12T11:30:39.064197
2026/03/12 21:30:00,KABANWF1,39.54,Kaban Wind Farm Pty Ltd as trustee for Kaban Wind Farm Trust,Kaban Wind Farm,Wind,152.0,26.01,Kaban Wind Farm,-17.56,145.41,2026-03-12T11:30:39.064197
2026/03/12 21:30:00,KEPWF1,0.0,Kennedy Energy Park Pty Ltd,Kennedy Energy Park,Wind,43.0,0.0,Kennedy Energy Park,-20.88,144.42,2026-03-12T11:30:39.064197
2026/03/12 21:30:00,KIATAWF1,26.4,Kiata ProjectCo Pty Ltd Atf Kiata Project Trust,Kiata Wind Farm,Wind,31.0,85.16,Kiata Wind Farm,-36.4,141.75,2026-03-12T11:30:39.064197
2026/03/12 21:30:00,LGAPWF1,51.94,Lincoln Gap Wind Farm (Operations) Pty Ltd,Lincoln Gap Wind Farm,Wind,123.0,42.23,Lincoln Gap Wind Farm,-32.564279,137.557328,2026-03-12T11:30:39.064197
2026/03/12 21:30:00,LGAPWF1,51.94,Lincoln Gap Wind Farm (Operations) Pty Ltd,Lincoln Gap Wind Farm,Wind,123.0,42.23,Lincoln Gap Wind Farm,-32.564279,137.557328,2026-03-12T11:30:39.064197
2026/03/12 21:30:00,LGAPWF2,77.13,Lincoln Gap Wind Farm (Operations) Pty Ltd,Lincoln Gap Wind Farm,Wind,85.0,90.74,Lincoln Gap Wind Farm,-32.564279,137.557328,2026-03-12T11:30:39.064197
2026/03/12 21:30:00,LGAPWF2,77.13,Lincoln Gap Wind Farm (Operations) Pty Ltd,Lincoln Gap Wind Farm,Wind,85.0,90.74,Lincoln Gap Wind Farm,-32.564279,137.557328,2026-03-12T11:30:39.064197
2026/03/12 21:30:00,LKBONNY1,9.91,Lake Bonney Wind Power Pty Ltd,Lake Bonney Wind Farm Stage 1,Wind,81.0,12.23,Lake Bonney Wind Farm Stage 1,-37.76,140.4,2026-03-12T11:30:39.064197
2026/03/12 21:30:00,LKBONNY2,13.68,Lake Bonney Wind Power Pty Ltd,Lake Bonney Stage 2 Windfarm,Wind,159.0,8.6,Lake Bonney Stage 2 Windfarm,-37.76,140.4,2026-03-12T11:30:39.064197
2026/03/12 21:30:00,LKBONNY3,3.96,Lake Bonney Wind Power Pty Ltd,Lake Bonney Stage 3 Wind Farm,Wind,39.0,10.15,Lake Bonney Stage 3 Wind Farm,-37.737781,140.388137,2026-03-12T11:30:39.064197
2026/03/12 21:30:00,MACARTH1,39.2,AGL Hydro Partnership,Macarthur Wind Farm,Wind,420.0,9.33,Macarthur Wind Farm,-38.048957,142.192112,2026-03-12T11:30:39.064197
2026/03/12 21:30:00,MCINTYR1,5.38,MacIntyre UJV Operator Pty Ltd,MacIntyre Wind Farm,Wind,890.0,0.6,MacIntyre Wind Farm,-28.32,151.54,2026-03-12T11:30:39.064197
2026/03/12 21:30:00,MERCER01,16.9,Mt Mercer Windfarm Pty Ltd,Mt Mercer Wind Farm,Wind,131.0,12.9,Mt Mercer Wind Farm,-37.841111,143.871111,2026-03-12T11:30:39.064197
2026/03/12 21:30:00,MEWF1,16.41,Ergon Energy Queensland Pty Ltd ,Mount Emerald Wind Farm,Wind,178.0,9.22,Mount Emerald Wind Farm,-17.133007,145.380644,2026-03-12T11:30:39.064197
2026/03/12 21:30:00,MRTLSWF1,47.04,Mortlake South Wind Farm Pty Ltd,Mortlake South Wind Farm,Wind,153.0,30.75,Mortlake South Wind Farm,-38.127337,142.857801,2026-03-12T11:30:39.064197
2026/03/12 21:30:00,MTGELWF1,23.14,Mt. Gellibrand Wind Farm Pty Ltd,Mt Gellibrand Wind Farm,Wind,132.0,17.53,Mt Gellibrand Wind Farm,-38.23,143.77,2026-03-12T11:30:39.064197
2026/03/12 21:30:00,MTMILLAR,57.6,Mt Millar Wind Farm Pty Ltd,Mt Millar Wind Farm,Wind,70.0,82.29,Mt Millar Wind Farm,-33.624444,136.703611,2026-03-12T11:30:39.064197
2026/03/12 21:30:00,MUSSELR1,108.1,Hydro-Electric Corporation,Musselroe Wind Farm,Wind,168.0,64.35,Musselroe Wind Farm,-40.780225,148.010799,2026-03-12T11:30:39.064197
2026/03/12 21:30:00,MUWAWF1,132.88,Telstra Energy (Generation) Pty Ltd,Murra Warra Wind Farm,Wind,225.7,58.87,Murra Warra Wind Farm,-36.432404,142.317853,2026-03-12T11:30:39.064197
2026/03/12 21:30:00,MUWAWF2,121.2,Murra Warra II Project Co Pty Ltd ATF The Murra Warra II Project Trust,Murra Warra Wind Farm Stage 2,Wind,203.0,59.7,Murra Warra Wind Farm Stage 2,-36.43,142.32,2026-03-12T11:30:39.064197
2026/03/12 21:30:00,NBHWF1,88.8,AGL SA Generation Pty Limited,North Brown Hill Wind Farm,Wind,132.0,67.27,North Brown Hill Wind Farm,-33.367778,138.728611,2026-03-12T11:30:39.064197
2026/03/12 21:30:00,OAKLAND1,11.6,AGL Hydro Partnership,Oaklands Hill Wind Farm,Wind,63.0,18.41,Oaklands Hill Wind Farm,-37.683078,142.551678,2026-03-12T11:30:39.064197
2026/03/12 21:30:00,PAREPW1,203.78,Iberdrola Australia Energy Markets Pty Limited,Port Augusta Renewable Energy Park,Wind,201.0,101.38,Port Augusta Renewable Energy Park,-32.566944,137.856111,2026-03-12T11:30:39.064197
2026/03/12 21:30:00,RYANCWF1,88.29,Ryan Corner Development Pty Ltd,Ryan Corner Wind Farm,Wind,205.0,43.07,Ryan Corner Wind Farm,-38.271017,142.140647,2026-03-12T11:30:39.064197
2026/03/12 21:30:00,RYEPARK1,86.39,Rye Park Renewable Energy Pty Ltd as trustee for Rye Park Wind Farm Trust,Rye Park Renewable Energy,Wind,384.0,22.5,Rye Park Renewable Energy,-32.138333,148.972778,2026-03-12T11:30:39.064197
2026/03/12 21:30:00,SALTCRK1,5.38,Salt Creek Wind Farm Pty Ltd,Salt Creek Wind Farm,Wind,54.0,9.96,Salt Creek Wind Farm,-37.95,142.63,2026-03-12T11:30:39.064197
2026/03/12 21:30:00,SAPHWF1,0.0,The Trustee For The SWF1 Operations Trust,Sapphire Wind Farm,Wind,270.0,0.0,Sapphire Wind Farm,-29.7,151.41,2026-03-12T11:30:39.064197
2026/03/12 21:30:00,SNOWNTH1,137.5,Snowtown Wind Farm Stage 2 Pty Ltd,Snowtown Wind Farm Stage 2 North,Wind,144.0,95.49,Snowtown Wind Farm Stage 2 North,-33.83,138.118611,2026-03-12T11:30:39.064197
2026/03/12 21:30:00,SNOWSTH1,115.0,Snowtown Wind Farm Stage 2 Pty Ltd,Snowtown South Wind Farm,Wind,126.0,91.27,Snowtown South Wind Farm,-33.83,138.118611,2026-03-12T11:30:39.064197
2026/03/12 21:30:00,SNOWTWN1,91.33,Snowtown Wind Farm Pty Ltd,Snowtown Wind Farm Units 1 And 47,Wind,99.0,92.25,Snowtown Wind Farm Units 1 And 47,-33.83,138.118611,2026-03-12T11:30:39.064197
2026/03/12 21:30:00,STARHLWF,12.5,Starfish Hill Wind Farm Pty Ltd,Starfish Hill Wind Farm,Wind,35.0,35.71,Starfish Hill Wind Farm,-35.58,138.14,2026-03-12T11:30:39.064197
2026/03/12 21:30:00,STOCKYD1,175.25,Stockyard Hill Wind Farm Pty Ltd,Stockyard Hill Wind Farm,Wind,511.0,34.3,Stockyard Hill Wind Farm,-37.535833,143.251389,2026-03-12T11:30:39.064197
2026/03/12 21:30:00,STWF1,136.84,PARF Company 8 Pty Ltd as The Trustee for Silverton Project Trust,Silverton Wind Farm,Wind,198.0,69.11,Silverton Wind Farm,-37.683168,142.551678,2026-03-12T11:30:39.064197
2026/03/12 21:30:00,TARALGA1,6.27,Taralga Wind Farm Nominees No 2 Pty Ltd (ATF Taralga Wind Farm Operating Trust),Taralga Wind Farm,Wind,106.0,5.92,Taralga Wind Farm,-34.42352,149.826267,2026-03-12T11:30:39.064197
2026/03/12 21:30:00,WAMBOWF1,75.66,Stanwell Corporation Limited,Wambo Wind Farm 1,Wind,245.0,30.88,Wambo Wind Farm 1,-35.187301,149.524945,2026-03-12T11:30:39.064197
2026/03/12 21:30:00,WATERLWF,73.9,Waterloo Wind Farm Pty Ltd,Waterloo Wind Farm,Wind,130.0,56.85,Waterloo Wind Farm,-34.00094,138.911567,2026-03-12T11:30:39.064197
2026/03/12 21:30:00,WGWF1,112.5,Willogoleche Power Pty Ltd As The Trustee For The Willogoleche Operating Trust,Willogoleche Wind Farm,Wind,119.0,94.54,Willogoleche Wind Farm,-33.39,138.85,2026-03-12T11:30:39.064197
2026/03/12 21:30:00,WOODLWN1,12.87,Woodlawn Wind Pty Ltd,Woodlawn Wind Farm,Wind,48.0,26.81,Woodlawn Wind Farm,-35.08,149.62,2026-03-12T11:30:39.064197
2026/03/12 21:30:00,WPWF,69.71,AGL SA Generation Pty Limited,Wattle Point Wind Farm,Wind,91.0,76.6,Wattle Point Wind Farm,-35.111624,137.7219,2026-03-12T11:30:39.064197
2026/03/12 21:30:00,WRWF1,1.59,White Rock Wind Farm Pty Ltd,White Rock Wind Farm,Wind,172.0,0.92,White Rock Wind Farm,-29.79,151.54,2026-03-12T11:30:39.064197
2026/03/12 21:30:00,YENDWF1,32.83,Lal Lal Wind Farms Nom Co Pty Ltd,Yendon Wind Farm,Wind,142.0,23.12,Yendon Wind Farm,-37.629987,144.022717,2026-03-12T11:30:39.064197
