SETTLEMENTDATE,DUID,SCADAVALUE,Participant,Station Name,Fuel Source - Primary,MAX_CAP,utilisation_pct,Plant,Latitude,Longitude,timestamp_utc
2026/03/24 01:45:00,CAPTL_WF,0.0,Iberdrola Australia Holdings Pty Limited,Capital Wind Farm,Wind,140.0,0.0,Capital Wind Farm,-35.1,149.31,2026-03-23T15:44:34.482514
2026/03/24 01:45:00,CHALLHWF,14.8,Pacific Hydro Challicum Hills Pty Ltd,Challicum Hills Wind Farm,Wind,52.0,28.46,Challicum Hills Wind Farm,-37.38,143.11,2026-03-23T15:44:34.482514
2026/03/24 01:45:00,CULLRGWF,12.11,Cullerin Range Wind Farm Pty Ltd,Cullerin Range Wind Farm,Wind,30.0,40.37,Cullerin Range Wind Farm,-34.81,149.4,2026-03-23T15:44:34.482514
2026/03/24 01:45:00,DIAPURWF1,1.9,Y.E.S. Energy (SA) Pty Ltd,Diapur Wind Farm,Wind,7.0,27.14,Diapur Wind Farm,-36.3425,141.43,2026-03-23T15:44:34.482514
2026/03/24 01:45:00,MLWF1,7.78,Mortons Lane Windfarm Pty Limited,Mortons Lane Wind Farm,Wind,20.0,38.9,Mortons Lane Wind Farm,-37.84,142.45,2026-03-23T15:44:34.482514
2026/03/24 01:45:00,WAUBRAWF,45.75,Pyrenees Wind Energy Developments Pty Ltd,Waubra Wind Farm,Wind,192.0,23.83,Waubra Wind Farm,-37.394498,143.638982,2026-03-23T15:44:34.482514
2026/03/24 01:45:00,WOOLNTH1,6.04,Hydro-Electric Corporation,Woolnorth Studland Bay / Bluff Point Wind Farm,Wind,140.0,4.31,Woolnorth Studland Bay / Bluff Point Wind Farm,-40.69,144.72,2026-03-23T15:44:34.482514
2026/03/24 01:45:00,YAMBUKWF,7.5,Energy Pacific (Vic) Pty Ltd,Yambuk Wind Farm,Wind,30.0,25.0,Yambuk Wind Farm,-38.299083,142.027577,2026-03-23T15:44:34.482514
2026/03/24 01:45:00,YSWF1,10.6,Pacific Hydro Yaloak South Pty Ltd,Yaloak South Wind Farm,Wind,28.0,37.86,Yaloak South Wind Farm,-37.7163,144.242853,2026-03-23T15:44:34.482514
2026/03/24 01:45:00,ARWF1,28.8,Ararat Wind Farm Pty Ltd,Ararat Wind Farm,Wind,241.0,11.95,Ararat Wind Farm,-37.232778,143.031389,2026-03-23T15:44:34.482514
2026/03/24 01:45:00,BALDHWF1,20.32,Alinta Energy Retail Sales Pty Ltd,Bald Hills Wind Farm,Wind,106.0,19.17,Bald Hills Wind Farm,-38.79,145.93,2026-03-23T15:44:34.482514
2026/03/24 01:45:00,BANGOWF1,28.6,BWF Nominees Pty Ltd as The Trustee for BWF Trust,Bango 973 Wind Farm,Wind,155.0,18.45,Bango 973 Wind Farm,-34.551582,148.732808,2026-03-23T15:44:34.482514
2026/03/24 01:45:00,BANGOWF2,25.8,BWF Nominees Pty Ltd as The Trustee for BWF Trust,Bango 999 Wind Farm,Wind,82.0,31.46,Bango 999 Wind Farm,-34.551582,148.732808,2026-03-23T15:44:34.482514
2026/03/24 01:45:00,BLUFF1,1.6,AGL SA Generation Pty Limited,The Bluff Wind Farm,Wind,53.0,3.02,The Bluff Wind Farm,-33.367778,138.728611,2026-03-23T15:44:34.482514
2026/03/24 01:45:00,BOCORWF1,79.72,Boco Rock Wind Farm Pty Ltd,Boco Rock Wind Farm,Wind,111.0,71.82,Boco Rock Wind Farm,-36.578611,149.103333,2026-03-23T15:44:34.482514
2026/03/24 01:45:00,BRYB1WF1,19.44,Berrybank Development Pty Ltd,Berrybank Wind Farm,Wind,175.9,11.05,Berrybank Wind Farm,-37.94,143.52,2026-03-23T15:44:34.482514
2026/03/24 01:45:00,BRYB2WF2,9.27,Berrybank 2 Asset Pty Ltd as trustee for Berrybank 2 Asset Trust,Berrybank 2 Wind Farm,Wind,105.0,8.83,Berrybank 2 Wind Farm,-37.94,143.52,2026-03-23T15:44:34.482514
2026/03/24 01:45:00,BULGANA1,70.87,Bulgana Wind Farm Pty Ltd,Bulgana Green Power Hub,Wind,204.0,34.74,Bulgana Green Power Hub,-37.0975,142.973611,2026-03-23T15:44:34.482514
2026/03/24 01:45:00,CATHROCK,0.0,Cathedral Rocks Wind Farm Pty Ltd,Cathedral Rocks,Wind,66.0,0.0,Cathedral Rocks,-34.51,135.35,2026-03-23T15:44:34.482514
2026/03/24 01:45:00,CHYTWF1,0.0,Cherry Tree Wind Farm Pty Ltd as trustee for The Cherry Tree Project trust ,Cherry Tree Wind Farm,Wind,57.0,0.0,Cherry Tree Wind Farm,-37.1,145.26,2026-03-23T15:44:34.482514
2026/03/24 01:45:00,CLEMGPWF,12.97,Pacific Hydro Clements Gap Pty Ltd,Clements Gap Wind Farm,Wind,57.0,22.75,Clements Gap Wind Farm,-33.48,138.1,2026-03-23T15:44:34.482514
2026/03/24 01:45:00,CLRKCWF1,285.98,Stanwell Corporation Limited ,Clarke Creek Wind Farm,Wind,338.0,84.61,Clarke Creek Wind Farm,-22.85,149.45,2026-03-23T15:44:34.482514
2026/03/24 01:45:00,CLRKCWF2,89.37,Stanwell Corporation Limited ,Clarke Creek Wind Farm,Wind,101.0,88.49,Clarke Creek Wind Farm,-22.85,149.45,2026-03-23T15:44:34.482514
2026/03/24 01:45:00,CNUNDAWF,4.41,Canunda Power Pty Ltd,Canunda Wind Farm,Wind,46.0,9.59,Canunda Wind Farm,-37.73,140.39,2026-03-23T15:44:34.482514
2026/03/24 01:45:00,COLWF01,52.6,Collector Wind Farm Pty Ltd,Collector Wind Farm 1,Wind,219.0,24.02,Collector Wind Farm 1,-34.8719,149.3967,2026-03-23T15:44:34.482514
2026/03/24 01:45:00,COOPGWF1,296.87,PARF Company 10 Pty Limited as The Trustee for Coopers Gap Project Trust,Coopers Gap Wind Farm,Wind,440.0,67.47,Coopers Gap Wind Farm,-26.74,151.45,2026-03-23T15:44:34.482514
2026/03/24 01:45:00,CROOKWF2,13.36,Crookwell Development Pty Ltd ,Crookwell 2 Wind Farm,Wind,91.0,14.68,Crookwell 2 Wind Farm,-34.52,149.54,2026-03-23T15:44:34.482514
2026/03/24 01:45:00,CROOKWF3,19.62,Crookwell 3 Development Pty Ltd,Crookwell 3 Wind Farm,Wind,56.0,35.04,Crookwell 3 Wind Farm,-34.52,149.54,2026-03-23T15:44:34.482514
2026/03/24 01:45:00,CROWLWF1,46.49,Pacific Hydro Crowlands Pty Ltd ,Crowlands Wind Farm,Wind,79.0,58.85,Crowlands Wind Farm,-37.13,143.16,2026-03-23T15:44:34.482514
2026/03/24 01:45:00,CRURWF1,63.3,CRWF Nominees Pty Ltd As Trustee For The CRWF Trust,Crudine Ridge Wind Farm,Wind,138.0,45.87,Crudine Ridge Wind Farm,-32.97,149.64,2026-03-23T15:44:34.482514
2026/03/24 01:45:00,CTHLWF1,0.0,Wild Cattle Hill Pty Ltd,Cattle Hill Wind Farm,Wind,144.0,0.0,Cattle Hill Wind Farm,-42.15,146.69,2026-03-23T15:44:34.482514
2026/03/24 01:45:00,DULAWF1,70.9,Dulacca Energy Project Co Pty Ltd,Dulacca Wind Farm,Wind,173.0,40.98,Dulacca Wind Farm,-26.63,149.87,2026-03-23T15:44:34.482514
2026/03/24 01:45:00,DUNDWF1,83.96,Dundonnell Wind Farm Pty Ltd,Dundonnell Wind Farm,Wind,168.0,49.98,Dundonnell Wind Farm,-37.52,142.58,2026-03-23T15:44:34.482514
2026/03/24 01:45:00,DUNDWF2,21.62,Dundonnell Wind Farm Pty Ltd,Dundonnell Wind Farm,Wind,46.0,47.0,Dundonnell Wind Farm,-37.52,142.58,2026-03-23T15:44:34.482514
2026/03/24 01:45:00,DUNDWF3,52.71,Dundonnell Wind Farm Pty Ltd,Dundonnell Wind Farm,Wind,122.0,43.2,Dundonnell Wind Farm,-37.52,142.58,2026-03-23T15:44:34.482514
2026/03/24 01:45:00,ELAINWF1,43.88,Lal Lal Wind Farms Nom Co Pty Ltd,Elaine Wind Farm,Wind,82.0,53.51,Elaine Wind Farm,-37.36,144.0,2026-03-23T15:44:34.482514
2026/03/24 01:45:00,FLYCRKWF,115.25,Iberdrola Australia Energy Markets Pty Limited,Flyers Creek Wind Farm,Wind,140.0,82.32,Flyers Creek Wind Farm,-33.365556,148.981944,2026-03-23T15:44:34.482514
2026/03/24 01:45:00,GPWFEST1,93.6,Golden Plains WF1 Pty Ltd as Trustee for the Golden Plains WF1 Unit Trust,Golden Plains Wind Farm East,Wind,240.0,39.0,Golden Plains Wind Farm East,-37.945091,143.752614,2026-03-23T15:44:34.482514
2026/03/24 01:45:00,GPWFEST2,191.76,Golden Plains WF1 Pty Ltd as Trustee for the Golden Plains WF1 Unit Trust,Golden Plains Wind Farm East,Wind,253.0,75.79,Golden Plains Wind Farm East,-37.945091,143.752614,2026-03-23T15:44:34.482514
2026/03/24 01:45:00,GPWFEST3,115.01,Golden Plains WF1 Pty Ltd as Trustee for the Golden Plains WF1 Unit Trust,Golden Plains Wind Farm East,Wind,240.0,47.92,Golden Plains Wind Farm East,-37.945091,143.752614,2026-03-23T15:44:34.482514
2026/03/24 01:45:00,GRANWF1,15.54,Granville Harbour Operations Pty Ltd as The Trustee for Granville Harbour Operations Trust,Granville Harbour Wind Farm,Wind,111.0,14.0,Granville Harbour Wind Farm,-41.8,145.06,2026-03-23T15:44:34.482514
2026/03/24 01:45:00,GSWF1A,25.38,Goyder Wind Farm 1 Pty Ltd as the Trustee for Goyder Wind Farm 1 Trust,Goyder South Wind Farm 1A,Wind,201.0,12.63,Goyder South Wind Farm 1A,-33.679758,138.937597,2026-03-23T15:44:34.482514
2026/03/24 01:45:00,GSWF1B1,17.66,Goyder Wind Farm 1B Pty Ltd as the Trustee for the Goyder Wind Farm 1B Trust,Goyder South Wind Farm 1B,Wind,196.0,9.01,Goyder South Wind Farm 1B,-33.679758,138.937597,2026-03-23T15:44:34.482514
2026/03/24 01:45:00,GULLRWF1,43.56,New Gullen Range Wind Farm Pty Ltd,Gullen Range Wind Farm,Wind,161.0,27.06,Gullen Range Wind Farm,-34.34,149.27,2026-03-23T15:44:34.482514
2026/03/24 01:45:00,GULLRWF2,56.25,New Gullen Range Wind Farm Pty Ltd,Gullen Range Wind Farm,Wind,107.0,52.57,Gullen Range Wind Farm,-34.34,149.27,2026-03-23T15:44:34.482514
2026/03/24 01:45:00,GUNNING1,19.41,Gunning Wind Energy Developments Pty Ltd,Gunning Wind Farm,Wind,47.0,41.3,Gunning Wind Farm,-34.813333,149.4,2026-03-23T15:44:34.482514
2026/03/24 01:45:00,HALLWF1,12.52,AGL SA Generation Pty Limited,Hallett 1 Wind Farm,Wind,95.0,13.18,Hallett 1 Wind Farm,-33.367778,138.728611,2026-03-23T15:44:34.482514
2026/03/24 01:45:00,HALLWF2,7.71,AGL SA Generation Pty Limited,Hallett 2 Wind Farm,Wind,71.0,10.86,Hallett 2 Wind Farm,-33.367778,138.728611,2026-03-23T15:44:34.482514
2026/03/24 01:45:00,HD1WF1,33.86,Hawkesdale Asset Pty Ltd as trustee for Hawkesdale Asset Trust,Hawkesdale Wind Farm,Wind,89.0,38.04,Hawkesdale Wind Farm,-38.147894,142.361381,2026-03-23T15:44:34.482514
2026/03/24 01:45:00,HDWF1,9.1,HWF1 Pty Ltd,Hornsdale Wind Farm,Wind,102.0,8.92,Hornsdale Wind Farm,-33.050556,138.543611,2026-03-23T15:44:34.482514
2026/03/24 01:45:00,HDWF2,10.7,HWF 2 Pty Ltd,Hornsdale Wind Farm 2,Wind,102.0,10.49,Hornsdale Wind Farm 2,-33.06,138.54,2026-03-23T15:44:34.482514
2026/03/24 01:45:00,HDWF3,11.0,HWF3 Pty Ltd,Hornsdale Wind Farm 3,Wind,109.0,10.09,Hornsdale Wind Farm 3,-33.06,138.54,2026-03-23T15:44:34.482514
2026/03/24 01:45:00,KABANWF1,83.0,Kaban Wind Farm Pty Ltd as trustee for Kaban Wind Farm Trust,Kaban Wind Farm,Wind,152.0,54.61,Kaban Wind Farm,-17.56,145.41,2026-03-23T15:44:34.482514
2026/03/24 01:45:00,KEPWF1,27.2,Kennedy Energy Park Pty Ltd,Kennedy Energy Park,Wind,43.0,63.26,Kennedy Energy Park,-20.88,144.42,2026-03-23T15:44:34.482514
2026/03/24 01:45:00,KIATAWF1,5.9,Kiata ProjectCo Pty Ltd Atf Kiata Project Trust,Kiata Wind Farm,Wind,31.0,19.03,Kiata Wind Farm,-36.4,141.75,2026-03-23T15:44:34.482514
2026/03/24 01:45:00,LGAPWF1,5.88,Lincoln Gap Wind Farm (Operations) Pty Ltd,Lincoln Gap Wind Farm,Wind,123.0,4.78,Lincoln Gap Wind Farm,-32.564279,137.557328,2026-03-23T15:44:34.482514
2026/03/24 01:45:00,LGAPWF1,5.88,Lincoln Gap Wind Farm (Operations) Pty Ltd,Lincoln Gap Wind Farm,Wind,123.0,4.78,Lincoln Gap Wind Farm,-32.564279,137.557328,2026-03-23T15:44:34.482514
2026/03/24 01:45:00,LGAPWF2,5.18,Lincoln Gap Wind Farm (Operations) Pty Ltd,Lincoln Gap Wind Farm,Wind,85.0,6.09,Lincoln Gap Wind Farm,-32.564279,137.557328,2026-03-23T15:44:34.482514
2026/03/24 01:45:00,LGAPWF2,5.18,Lincoln Gap Wind Farm (Operations) Pty Ltd,Lincoln Gap Wind Farm,Wind,85.0,6.09,Lincoln Gap Wind Farm,-32.564279,137.557328,2026-03-23T15:44:34.482514
2026/03/24 01:45:00,LKBONNY1,0.0,Lake Bonney Wind Power Pty Ltd,Lake Bonney Wind Farm Stage 1,Wind,81.0,0.0,Lake Bonney Wind Farm Stage 1,-37.76,140.4,2026-03-23T15:44:34.482514
2026/03/24 01:45:00,LKBONNY2,0.0,Lake Bonney Wind Power Pty Ltd,Lake Bonney Stage 2 Windfarm,Wind,159.0,0.0,Lake Bonney Stage 2 Windfarm,-37.76,140.4,2026-03-23T15:44:34.482514
2026/03/24 01:45:00,LKBONNY3,0.0,Lake Bonney Wind Power Pty Ltd,Lake Bonney Stage 3 Wind Farm,Wind,39.0,0.0,Lake Bonney Stage 3 Wind Farm,-37.737781,140.388137,2026-03-23T15:44:34.482514
2026/03/24 01:45:00,MACARTH1,95.2,AGL Hydro Partnership,Macarthur Wind Farm,Wind,420.0,22.67,Macarthur Wind Farm,-38.048957,142.192112,2026-03-23T15:44:34.482514
2026/03/24 01:45:00,MCINTYR1,377.52,MacIntyre UJV Operator Pty Ltd,MacIntyre Wind Farm,Wind,890.0,42.42,MacIntyre Wind Farm,-28.32,151.54,2026-03-23T15:44:34.482514
2026/03/24 01:45:00,MERCER01,92.9,Mt Mercer Windfarm Pty Ltd,Mt Mercer Wind Farm,Wind,131.0,70.92,Mt Mercer Wind Farm,-37.841111,143.871111,2026-03-23T15:44:34.482514
2026/03/24 01:45:00,MEWF1,115.7,Ergon Energy Queensland Pty Ltd ,Mount Emerald Wind Farm,Wind,178.0,65.0,Mount Emerald Wind Farm,-17.133007,145.380644,2026-03-23T15:44:34.482514
2026/03/24 01:45:00,MRTLSWF1,28.84,Mortlake South Wind Farm Pty Ltd,Mortlake South Wind Farm,Wind,153.0,18.85,Mortlake South Wind Farm,-38.127337,142.857801,2026-03-23T15:44:34.482514
2026/03/24 01:45:00,MTGELWF1,11.89,Mt. Gellibrand Wind Farm Pty Ltd,Mt Gellibrand Wind Farm,Wind,132.0,9.01,Mt Gellibrand Wind Farm,-38.23,143.77,2026-03-23T15:44:34.482514
2026/03/24 01:45:00,MTMILLAR,8.1,Mt Millar Wind Farm Pty Ltd,Mt Millar Wind Farm,Wind,70.0,11.57,Mt Millar Wind Farm,-33.624444,136.703611,2026-03-23T15:44:34.482514
2026/03/24 01:45:00,MUSSELR1,33.0,Hydro-Electric Corporation,Musselroe Wind Farm,Wind,168.0,19.64,Musselroe Wind Farm,-40.780225,148.010799,2026-03-23T15:44:34.482514
2026/03/24 01:45:00,MUWAWF1,194.81,Telstra Energy (Generation) Pty Ltd,Murra Warra Wind Farm,Wind,225.7,86.31,Murra Warra Wind Farm,-36.432404,142.317853,2026-03-23T15:44:34.482514
2026/03/24 01:45:00,MUWAWF2,179.2,Murra Warra II Project Co Pty Ltd ATF The Murra Warra II Project Trust,Murra Warra Wind Farm Stage 2,Wind,203.0,88.28,Murra Warra Wind Farm Stage 2,-36.43,142.32,2026-03-23T15:44:34.482514
2026/03/24 01:45:00,NBHWF1,11.2,AGL SA Generation Pty Limited,North Brown Hill Wind Farm,Wind,132.0,8.48,North Brown Hill Wind Farm,-33.367778,138.728611,2026-03-23T15:44:34.482514
2026/03/24 01:45:00,OAKLAND1,11.1,AGL Hydro Partnership,Oaklands Hill Wind Farm,Wind,63.0,17.62,Oaklands Hill Wind Farm,-37.683078,142.551678,2026-03-23T15:44:34.482514
2026/03/24 01:45:00,PAREPW1,13.38,Iberdrola Australia Energy Markets Pty Limited,Port Augusta Renewable Energy Park,Wind,201.0,6.66,Port Augusta Renewable Energy Park,-32.566944,137.856111,2026-03-23T15:44:34.482514
2026/03/24 01:45:00,RYANCWF1,57.08,Ryan Corner Development Pty Ltd,Ryan Corner Wind Farm,Wind,205.0,27.84,Ryan Corner Wind Farm,-38.271017,142.140647,2026-03-23T15:44:34.482514
2026/03/24 01:45:00,RYEPARK1,148.66,Rye Park Renewable Energy Pty Ltd as trustee for Rye Park Wind Farm Trust,Rye Park Renewable Energy,Wind,384.0,38.71,Rye Park Renewable Energy,-32.138333,148.972778,2026-03-23T15:44:34.482514
2026/03/24 01:45:00,SALTCRK1,21.2,Salt Creek Wind Farm Pty Ltd,Salt Creek Wind Farm,Wind,54.0,39.26,Salt Creek Wind Farm,-37.95,142.63,2026-03-23T15:44:34.482514
2026/03/24 01:45:00,SAPHWF1,244.24,The Trustee For The SWF1 Operations Trust,Sapphire Wind Farm,Wind,270.0,90.46,Sapphire Wind Farm,-29.7,151.41,2026-03-23T15:44:34.482514
2026/03/24 01:45:00,SNOWNTH1,18.8,Snowtown Wind Farm Stage 2 Pty Ltd,Snowtown Wind Farm Stage 2 North,Wind,144.0,13.06,Snowtown Wind Farm Stage 2 North,-33.83,138.118611,2026-03-23T15:44:34.482514
2026/03/24 01:45:00,SNOWSTH1,13.7,Snowtown Wind Farm Stage 2 Pty Ltd,Snowtown South Wind Farm,Wind,126.0,10.87,Snowtown South Wind Farm,-33.83,138.118611,2026-03-23T15:44:34.482514
2026/03/24 01:45:00,SNOWTWN1,13.82,Snowtown Wind Farm Pty Ltd,Snowtown Wind Farm Units 1 And 47,Wind,99.0,13.96,Snowtown Wind Farm Units 1 And 47,-33.83,138.118611,2026-03-23T15:44:34.482514
2026/03/24 01:45:00,STARHLWF,0.01,Starfish Hill Wind Farm Pty Ltd,Starfish Hill Wind Farm,Wind,35.0,0.03,Starfish Hill Wind Farm,-35.58,138.14,2026-03-23T15:44:34.482514
2026/03/24 01:45:00,STOCKYD1,346.37,Stockyard Hill Wind Farm Pty Ltd,Stockyard Hill Wind Farm,Wind,511.0,67.78,Stockyard Hill Wind Farm,-37.535833,143.251389,2026-03-23T15:44:34.482514
2026/03/24 01:45:00,STWF1,0.72,PARF Company 8 Pty Ltd as The Trustee for Silverton Project Trust,Silverton Wind Farm,Wind,198.0,0.36,Silverton Wind Farm,-37.683168,142.551678,2026-03-23T15:44:34.482514
2026/03/24 01:45:00,TARALGA1,13.01,Taralga Wind Farm Nominees No 2 Pty Ltd (ATF Taralga Wind Farm Operating Trust),Taralga Wind Farm,Wind,106.0,12.27,Taralga Wind Farm,-34.42352,149.826267,2026-03-23T15:44:34.482514
2026/03/24 01:45:00,WAMBOWF1,109.89,Stanwell Corporation Limited,Wambo Wind Farm 1,Wind,245.0,44.85,Wambo Wind Farm 1,-35.187301,149.524945,2026-03-23T15:44:34.482514
2026/03/24 01:45:00,WATERLWF,5.8,Waterloo Wind Farm Pty Ltd,Waterloo Wind Farm,Wind,130.0,4.46,Waterloo Wind Farm,-34.00094,138.911567,2026-03-23T15:44:34.482514
2026/03/24 01:45:00,WGWF1,10.1,Willogoleche Power Pty Ltd As The Trustee For The Willogoleche Operating Trust,Willogoleche Wind Farm,Wind,119.0,8.49,Willogoleche Wind Farm,-33.39,138.85,2026-03-23T15:44:34.482514
2026/03/24 01:45:00,WOODLWN1,0.69,Woodlawn Wind Pty Ltd,Woodlawn Wind Farm,Wind,48.0,1.44,Woodlawn Wind Farm,-35.08,149.62,2026-03-23T15:44:34.482514
2026/03/24 01:45:00,WPWF,0.0,AGL SA Generation Pty Limited,Wattle Point Wind Farm,Wind,91.0,0.0,Wattle Point Wind Farm,-35.111624,137.7219,2026-03-23T15:44:34.482514
2026/03/24 01:45:00,WRWF1,68.95,White Rock Wind Farm Pty Ltd,White Rock Wind Farm,Wind,172.0,40.09,White Rock Wind Farm,-29.79,151.54,2026-03-23T15:44:34.482514
2026/03/24 01:45:00,YENDWF1,64.82,Lal Lal Wind Farms Nom Co Pty Ltd,Yendon Wind Farm,Wind,142.0,45.65,Yendon Wind Farm,-37.629987,144.022717,2026-03-23T15:44:34.482514
