SETTLEMENTDATE,DUID,SCADAVALUE,Participant,Station Name,Fuel Source - Primary,MAX_CAP,utilisation_pct,Plant,Latitude,Longitude,timestamp_utc
2026/02/07 01:10:00,CAPTL_WF,0.0,Iberdrola Australia Holdings Pty Limited,Capital Wind Farm,Wind,140.0,0.0,Capital Wind Farm,-35.1,149.31,2026-02-06T15:11:04.044271
2026/02/07 01:10:00,CHALLHWF,1.4,Pacific Hydro Challicum Hills Pty Ltd,Challicum Hills Wind Farm,Wind,52.0,2.69,Challicum Hills Wind Farm,-37.38,143.11,2026-02-06T15:11:04.044271
2026/02/07 01:10:00,CULLRGWF,0.56,Cullerin Range Wind Farm Pty Ltd,Cullerin Range Wind Farm,Wind,30.0,1.87,Cullerin Range Wind Farm,-34.81,149.4,2026-02-06T15:11:04.044271
2026/02/07 01:10:00,DIAPURWF1,2.6,Y.E.S. Energy (SA) Pty Ltd,Diapur Wind Farm,Wind,7.0,37.14,Diapur Wind Farm,-36.3425,141.43,2026-02-06T15:11:04.044271
2026/02/07 01:10:00,MLWF1,5.06,Mortons Lane Windfarm Pty Limited,Mortons Lane Wind Farm,Wind,20.0,25.3,Mortons Lane Wind Farm,-37.84,142.45,2026-02-06T15:11:04.044271
2026/02/07 01:10:00,WAUBRAWF,0.0,Pyrenees Wind Energy Developments Pty Ltd,Waubra Wind Farm,Wind,192.0,0.0,Waubra Wind Farm,-37.394498,143.638982,2026-02-06T15:11:04.044271
2026/02/07 01:10:00,WOOLNTH1,3.11,Hydro-Electric Corporation,Woolnorth Studland Bay / Bluff Point Wind Farm,Wind,140.0,2.22,Woolnorth Studland Bay / Bluff Point Wind Farm,-40.69,144.72,2026-02-06T15:11:04.044271
2026/02/07 01:10:00,YAMBUKWF,1.0,Energy Pacific (Vic) Pty Ltd,Yambuk Wind Farm,Wind,30.0,3.33,Yambuk Wind Farm,-38.299083,142.027577,2026-02-06T15:11:04.044271
2026/02/07 01:10:00,YSWF1,1.4,Pacific Hydro Yaloak South Pty Ltd,Yaloak South Wind Farm,Wind,28.0,5.0,Yaloak South Wind Farm,-37.7163,144.242853,2026-02-06T15:11:04.044271
2026/02/07 01:10:00,ARWF1,20.9,Ararat Wind Farm Pty Ltd,Ararat Wind Farm,Wind,241.0,8.67,Ararat Wind Farm,-37.232778,143.031389,2026-02-06T15:11:04.044271
2026/02/07 01:10:00,BALDHWF1,0.0,Alinta Energy Retail Sales Pty Ltd,Bald Hills Wind Farm,Wind,106.0,0.0,Bald Hills Wind Farm,-38.79,145.93,2026-02-06T15:11:04.044271
2026/02/07 01:10:00,BANGOWF1,64.7,BWF Nominees Pty Ltd as The Trustee for BWF Trust,Bango 973 Wind Farm,Wind,155.0,41.74,Bango 973 Wind Farm,-34.551582,148.732808,2026-02-06T15:11:04.044271
2026/02/07 01:10:00,BANGOWF2,36.6,BWF Nominees Pty Ltd as The Trustee for BWF Trust,Bango 999 Wind Farm,Wind,82.0,44.63,Bango 999 Wind Farm,-34.551582,148.732808,2026-02-06T15:11:04.044271
2026/02/07 01:10:00,BLUFF1,2.6,AGL SA Generation Pty Limited,The Bluff Wind Farm,Wind,53.0,4.91,The Bluff Wind Farm,-33.367778,138.728611,2026-02-06T15:11:04.044271
2026/02/07 01:10:00,BOCORWF1,0.0,Boco Rock Wind Farm Pty Ltd,Boco Rock Wind Farm,Wind,111.0,0.0,Boco Rock Wind Farm,-36.578611,149.103333,2026-02-06T15:11:04.044271
2026/02/07 01:10:00,BRYB1WF1,63.58,Berrybank Development Pty Ltd,Berrybank Wind Farm,Wind,175.9,36.15,Berrybank Wind Farm,-37.94,143.52,2026-02-06T15:11:04.044271
2026/02/07 01:10:00,BRYB2WF2,49.94,Berrybank 2 Asset Pty Ltd as trustee for Berrybank 2 Asset Trust,Berrybank 2 Wind Farm,Wind,105.0,47.56,Berrybank 2 Wind Farm,-37.94,143.52,2026-02-06T15:11:04.044271
2026/02/07 01:10:00,BULGANA1,36.41,Bulgana Wind Farm Pty Ltd,Bulgana Green Power Hub,Wind,204.0,17.85,Bulgana Green Power Hub,-37.0975,142.973611,2026-02-06T15:11:04.044271
2026/02/07 01:10:00,CATHROCK,28.4,Cathedral Rocks Wind Farm Pty Ltd,Cathedral Rocks,Wind,66.0,43.03,Cathedral Rocks,-34.51,135.35,2026-02-06T15:11:04.044271
2026/02/07 01:10:00,CHYTWF1,9.66,Cherry Tree Wind Farm Pty Ltd as trustee for The Cherry Tree Project trust ,Cherry Tree Wind Farm,Wind,57.0,16.95,Cherry Tree Wind Farm,-37.1,145.26,2026-02-06T15:11:04.044271
2026/02/07 01:10:00,CLEMGPWF,39.55,Pacific Hydro Clements Gap Pty Ltd,Clements Gap Wind Farm,Wind,57.0,69.39,Clements Gap Wind Farm,-33.48,138.1,2026-02-06T15:11:04.044271
2026/02/07 01:10:00,CLRKCWF1,298.78,Stanwell Corporation Limited ,Clarke Creek Wind Farm,Wind,338.0,88.4,Clarke Creek Wind Farm,-22.85,149.45,2026-02-06T15:11:04.044271
2026/02/07 01:10:00,CLRKCWF2,58.9,Stanwell Corporation Limited ,Clarke Creek Wind Farm,Wind,101.0,58.32,Clarke Creek Wind Farm,-22.85,149.45,2026-02-06T15:11:04.044271
2026/02/07 01:10:00,CNUNDAWF,6.11,Canunda Power Pty Ltd,Canunda Wind Farm,Wind,46.0,13.28,Canunda Wind Farm,-37.73,140.39,2026-02-06T15:11:04.044271
2026/02/07 01:10:00,COLWF01,1.9,Collector Wind Farm Pty Ltd,Collector Wind Farm 1,Wind,219.0,0.87,Collector Wind Farm 1,-34.8719,149.3967,2026-02-06T15:11:04.044271
2026/02/07 01:10:00,COOPGWF1,310.47,PARF Company 10 Pty Limited as The Trustee for Coopers Gap Project Trust,Coopers Gap Wind Farm,Wind,440.0,70.56,Coopers Gap Wind Farm,-26.74,151.45,2026-02-06T15:11:04.044271
2026/02/07 01:10:00,CROOKWF2,56.7,Crookwell Development Pty Ltd ,Crookwell 2 Wind Farm,Wind,91.0,62.31,Crookwell 2 Wind Farm,-34.52,149.54,2026-02-06T15:11:04.044271
2026/02/07 01:10:00,CROOKWF3,34.84,Crookwell 3 Development Pty Ltd,Crookwell 3 Wind Farm,Wind,56.0,62.21,Crookwell 3 Wind Farm,-34.52,149.54,2026-02-06T15:11:04.044271
2026/02/07 01:10:00,CROWLWF1,1.84,Pacific Hydro Crowlands Pty Ltd ,Crowlands Wind Farm,Wind,79.0,2.33,Crowlands Wind Farm,-37.13,143.16,2026-02-06T15:11:04.044271
2026/02/07 01:10:00,CRURWF1,3.3,CRWF Nominees Pty Ltd As Trustee For The CRWF Trust,Crudine Ridge Wind Farm,Wind,138.0,2.39,Crudine Ridge Wind Farm,-32.97,149.64,2026-02-06T15:11:04.044271
2026/02/07 01:10:00,CTHLWF1,73.97,Wild Cattle Hill Pty Ltd,Cattle Hill Wind Farm,Wind,144.0,51.37,Cattle Hill Wind Farm,-42.15,146.69,2026-02-06T15:11:04.044271
2026/02/07 01:10:00,DULAWF1,146.8,Dulacca Energy Project Co Pty Ltd,Dulacca Wind Farm,Wind,173.0,84.86,Dulacca Wind Farm,-26.63,149.87,2026-02-06T15:11:04.044271
2026/02/07 01:10:00,DUNDWF1,26.71,Dundonnell Wind Farm Pty Ltd,Dundonnell Wind Farm,Wind,168.0,15.9,Dundonnell Wind Farm,-37.52,142.58,2026-02-06T15:11:04.044271
2026/02/07 01:10:00,DUNDWF2,8.48,Dundonnell Wind Farm Pty Ltd,Dundonnell Wind Farm,Wind,46.0,18.43,Dundonnell Wind Farm,-37.52,142.58,2026-02-06T15:11:04.044271
2026/02/07 01:10:00,DUNDWF3,17.83,Dundonnell Wind Farm Pty Ltd,Dundonnell Wind Farm,Wind,122.0,14.61,Dundonnell Wind Farm,-37.52,142.58,2026-02-06T15:11:04.044271
2026/02/07 01:10:00,ELAINWF1,15.24,Lal Lal Wind Farms Nom Co Pty Ltd,Elaine Wind Farm,Wind,82.0,18.59,Elaine Wind Farm,-37.36,144.0,2026-02-06T15:11:04.044271
2026/02/07 01:10:00,FLYCRKWF,16.5,Iberdrola Australia Energy Markets Pty Limited,Flyers Creek Wind Farm,Wind,140.0,11.79,Flyers Creek Wind Farm,-33.365556,148.981944,2026-02-06T15:11:04.044271
2026/02/07 01:10:00,GPWFEST1,66.99,Golden Plains WF1 Pty Ltd as Trustee for the Golden Plains WF1 Unit Trust,Golden Plains Wind Farm East,Wind,240.0,27.91,Golden Plains Wind Farm East,-37.945091,143.752614,2026-02-06T15:11:04.044271
2026/02/07 01:10:00,GPWFEST2,77.87,Golden Plains WF1 Pty Ltd as Trustee for the Golden Plains WF1 Unit Trust,Golden Plains Wind Farm East,Wind,253.0,30.78,Golden Plains Wind Farm East,-37.945091,143.752614,2026-02-06T15:11:04.044271
2026/02/07 01:10:00,GPWFEST3,80.61,Golden Plains WF1 Pty Ltd as Trustee for the Golden Plains WF1 Unit Trust,Golden Plains Wind Farm East,Wind,240.0,33.59,Golden Plains Wind Farm East,-37.945091,143.752614,2026-02-06T15:11:04.044271
2026/02/07 01:10:00,GRANWF1,12.43,Granville Harbour Operations Pty Ltd as The Trustee for Granville Harbour Operations Trust,Granville Harbour Wind Farm,Wind,111.0,11.2,Granville Harbour Wind Farm,-41.8,145.06,2026-02-06T15:11:04.044271
2026/02/07 01:10:00,GSWF1A,80.39,Goyder Wind Farm 1 Pty Ltd as the Trustee for Goyder Wind Farm 1 Trust,Goyder South Wind Farm 1A,Wind,201.0,40.0,Goyder South Wind Farm 1A,-33.679758,138.937597,2026-02-06T15:11:04.044271
2026/02/07 01:10:00,GSWF1B1,32.76,Goyder Wind Farm 1B Pty Ltd as the Trustee for the Goyder Wind Farm 1B Trust,Goyder South Wind Farm 1B,Wind,196.0,16.71,Goyder South Wind Farm 1B,-33.679758,138.937597,2026-02-06T15:11:04.044271
2026/02/07 01:10:00,GULLRWF1,35.72,New Gullen Range Wind Farm Pty Ltd,Gullen Range Wind Farm,Wind,161.0,22.19,Gullen Range Wind Farm,-34.34,149.27,2026-02-06T15:11:04.044271
2026/02/07 01:10:00,GULLRWF2,27.07,New Gullen Range Wind Farm Pty Ltd,Gullen Range Wind Farm,Wind,107.0,25.3,Gullen Range Wind Farm,-34.34,149.27,2026-02-06T15:11:04.044271
2026/02/07 01:10:00,GUNNING1,15.67,Gunning Wind Energy Developments Pty Ltd,Gunning Wind Farm,Wind,47.0,33.34,Gunning Wind Farm,-34.813333,149.4,2026-02-06T15:11:04.044271
2026/02/07 01:10:00,HALLWF1,18.36,AGL SA Generation Pty Limited,Hallett 1 Wind Farm,Wind,95.0,19.33,Hallett 1 Wind Farm,-33.367778,138.728611,2026-02-06T15:11:04.044271
2026/02/07 01:10:00,HALLWF2,20.57,AGL SA Generation Pty Limited,Hallett 2 Wind Farm,Wind,71.0,28.97,Hallett 2 Wind Farm,-33.367778,138.728611,2026-02-06T15:11:04.044271
2026/02/07 01:10:00,HD1WF1,18.78,Hawkesdale Asset Pty Ltd as trustee for Hawkesdale Asset Trust,Hawkesdale Wind Farm,Wind,89.0,21.1,Hawkesdale Wind Farm,-38.147894,142.361381,2026-02-06T15:11:04.044271
2026/02/07 01:10:00,HDWF1,69.2,HWF1 Pty Ltd,Hornsdale Wind Farm,Wind,102.0,67.84,Hornsdale Wind Farm,-33.050556,138.543611,2026-02-06T15:11:04.044271
2026/02/07 01:10:00,HDWF2,64.9,HWF 2 Pty Ltd,Hornsdale Wind Farm 2,Wind,102.0,63.63,Hornsdale Wind Farm 2,-33.06,138.54,2026-02-06T15:11:04.044271
2026/02/07 01:10:00,HDWF3,53.6,HWF3 Pty Ltd,Hornsdale Wind Farm 3,Wind,109.0,49.17,Hornsdale Wind Farm 3,-33.06,138.54,2026-02-06T15:11:04.044271
2026/02/07 01:10:00,KABANWF1,52.72,Kaban Wind Farm Pty Ltd as trustee for Kaban Wind Farm Trust,Kaban Wind Farm,Wind,152.0,34.68,Kaban Wind Farm,-17.56,145.41,2026-02-06T15:11:04.044271
2026/02/07 01:10:00,KEPWF1,19.0,Kennedy Energy Park Pty Ltd,Kennedy Energy Park,Wind,43.0,44.19,Kennedy Energy Park,-20.88,144.42,2026-02-06T15:11:04.044271
2026/02/07 01:10:00,KIATAWF1,5.3,Kiata ProjectCo Pty Ltd Atf Kiata Project Trust,Kiata Wind Farm,Wind,31.0,17.1,Kiata Wind Farm,-36.4,141.75,2026-02-06T15:11:04.044271
2026/02/07 01:10:00,LGAPWF1,0.25,Lincoln Gap Wind Farm (Operations) Pty Ltd,Lincoln Gap Wind Farm,Wind,123.0,0.2,Lincoln Gap Wind Farm,-32.564279,137.557328,2026-02-06T15:11:04.044271
2026/02/07 01:10:00,LGAPWF1,0.25,Lincoln Gap Wind Farm (Operations) Pty Ltd,Lincoln Gap Wind Farm,Wind,123.0,0.2,Lincoln Gap Wind Farm,-32.564279,137.557328,2026-02-06T15:11:04.044271
2026/02/07 01:10:00,LGAPWF2,0.0,Lincoln Gap Wind Farm (Operations) Pty Ltd,Lincoln Gap Wind Farm,Wind,85.0,0.0,Lincoln Gap Wind Farm,-32.564279,137.557328,2026-02-06T15:11:04.044271
2026/02/07 01:10:00,LGAPWF2,0.0,Lincoln Gap Wind Farm (Operations) Pty Ltd,Lincoln Gap Wind Farm,Wind,85.0,0.0,Lincoln Gap Wind Farm,-32.564279,137.557328,2026-02-06T15:11:04.044271
2026/02/07 01:10:00,LKBONNY1,10.54,Lake Bonney Wind Power Pty Ltd,Lake Bonney Wind Farm Stage 1,Wind,81.0,13.01,Lake Bonney Wind Farm Stage 1,-37.76,140.4,2026-02-06T15:11:04.044271
2026/02/07 01:10:00,LKBONNY2,22.67,Lake Bonney Wind Power Pty Ltd,Lake Bonney Stage 2 Windfarm,Wind,159.0,14.26,Lake Bonney Stage 2 Windfarm,-37.76,140.4,2026-02-06T15:11:04.044271
2026/02/07 01:10:00,LKBONNY3,6.87,Lake Bonney Wind Power Pty Ltd,Lake Bonney Stage 3 Wind Farm,Wind,39.0,17.62,Lake Bonney Stage 3 Wind Farm,-37.737781,140.388137,2026-02-06T15:11:04.044271
2026/02/07 01:10:00,MACARTH1,49.6,AGL Hydro Partnership,Macarthur Wind Farm,Wind,420.0,11.81,Macarthur Wind Farm,-38.048957,142.192112,2026-02-06T15:11:04.044271
2026/02/07 01:10:00,MCINTYR1,87.96,MacIntyre UJV Operator Pty Ltd,MacIntyre Wind Farm,Wind,890.0,9.88,MacIntyre Wind Farm,-28.32,151.54,2026-02-06T15:11:04.044271
2026/02/07 01:10:00,MERCER01,27.8,Mt Mercer Windfarm Pty Ltd,Mt Mercer Wind Farm,Wind,131.0,21.22,Mt Mercer Wind Farm,-37.841111,143.871111,2026-02-06T15:11:04.044271
2026/02/07 01:10:00,MEWF1,46.94,Ergon Energy Queensland Pty Ltd ,Mount Emerald Wind Farm,Wind,178.0,26.37,Mount Emerald Wind Farm,-17.133007,145.380644,2026-02-06T15:11:04.044271
2026/02/07 01:10:00,MRTLSWF1,0.0,Mortlake South Wind Farm Pty Ltd,Mortlake South Wind Farm,Wind,153.0,0.0,Mortlake South Wind Farm,-38.127337,142.857801,2026-02-06T15:11:04.044271
2026/02/07 01:10:00,MTGELWF1,13.59,Mt. Gellibrand Wind Farm Pty Ltd,Mt Gellibrand Wind Farm,Wind,132.0,10.3,Mt Gellibrand Wind Farm,-38.23,143.77,2026-02-06T15:11:04.044271
2026/02/07 01:10:00,MTMILLAR,12.4,Mt Millar Wind Farm Pty Ltd,Mt Millar Wind Farm,Wind,70.0,17.71,Mt Millar Wind Farm,-33.624444,136.703611,2026-02-06T15:11:04.044271
2026/02/07 01:10:00,MUSSELR1,79.7,Hydro-Electric Corporation,Musselroe Wind Farm,Wind,168.0,47.44,Musselroe Wind Farm,-40.780225,148.010799,2026-02-06T15:11:04.044271
2026/02/07 01:10:00,MUWAWF1,94.81,Telstra Energy (Generation) Pty Ltd,Murra Warra Wind Farm,Wind,225.7,42.01,Murra Warra Wind Farm,-36.432404,142.317853,2026-02-06T15:11:04.044271
2026/02/07 01:10:00,MUWAWF2,75.0,Murra Warra II Project Co Pty Ltd ATF The Murra Warra II Project Trust,Murra Warra Wind Farm Stage 2,Wind,203.0,36.95,Murra Warra Wind Farm Stage 2,-36.43,142.32,2026-02-06T15:11:04.044271
2026/02/07 01:10:00,NBHWF1,70.7,AGL SA Generation Pty Limited,North Brown Hill Wind Farm,Wind,132.0,53.56,North Brown Hill Wind Farm,-33.367778,138.728611,2026-02-06T15:11:04.044271
2026/02/07 01:10:00,OAKLAND1,13.2,AGL Hydro Partnership,Oaklands Hill Wind Farm,Wind,63.0,20.95,Oaklands Hill Wind Farm,-37.683078,142.551678,2026-02-06T15:11:04.044271
2026/02/07 01:10:00,PAREPW1,66.67,Iberdrola Australia Energy Markets Pty Limited,Port Augusta Renewable Energy Park,Wind,201.0,33.17,Port Augusta Renewable Energy Park,-32.566944,137.856111,2026-02-06T15:11:04.044271
2026/02/07 01:10:00,RYANCWF1,7.12,Ryan Corner Development Pty Ltd,Ryan Corner Wind Farm,Wind,205.0,3.47,Ryan Corner Wind Farm,-38.271017,142.140647,2026-02-06T15:11:04.044271
2026/02/07 01:10:00,RYEPARK1,188.46,Rye Park Renewable Energy Pty Ltd as trustee for Rye Park Wind Farm Trust,Rye Park Renewable Energy,Wind,384.0,49.08,Rye Park Renewable Energy,-32.138333,148.972778,2026-02-06T15:11:04.044271
2026/02/07 01:10:00,SALTCRK1,10.77,Salt Creek Wind Farm Pty Ltd,Salt Creek Wind Farm,Wind,54.0,19.94,Salt Creek Wind Farm,-37.95,142.63,2026-02-06T15:11:04.044271
2026/02/07 01:10:00,SAPHWF1,43.58,The Trustee For The SWF1 Operations Trust,Sapphire Wind Farm,Wind,270.0,16.14,Sapphire Wind Farm,-29.7,151.41,2026-02-06T15:11:04.044271
2026/02/07 01:10:00,SNOWNTH1,33.7,Snowtown Wind Farm Stage 2 Pty Ltd,Snowtown Wind Farm Stage 2 North,Wind,144.0,23.4,Snowtown Wind Farm Stage 2 North,-33.83,138.118611,2026-02-06T15:11:04.044271
2026/02/07 01:10:00,SNOWSTH1,37.7,Snowtown Wind Farm Stage 2 Pty Ltd,Snowtown South Wind Farm,Wind,126.0,29.92,Snowtown South Wind Farm,-33.83,138.118611,2026-02-06T15:11:04.044271
2026/02/07 01:10:00,SNOWTWN1,45.23,Snowtown Wind Farm Pty Ltd,Snowtown Wind Farm Units 1 And 47,Wind,99.0,45.69,Snowtown Wind Farm Units 1 And 47,-33.83,138.118611,2026-02-06T15:11:04.044271
2026/02/07 01:10:00,STARHLWF,21.29,Starfish Hill Wind Farm Pty Ltd,Starfish Hill Wind Farm,Wind,35.0,60.83,Starfish Hill Wind Farm,-35.58,138.14,2026-02-06T15:11:04.044271
2026/02/07 01:10:00,STOCKYD1,0.0,Stockyard Hill Wind Farm Pty Ltd,Stockyard Hill Wind Farm,Wind,511.0,0.0,Stockyard Hill Wind Farm,-37.535833,143.251389,2026-02-06T15:11:04.044271
2026/02/07 01:10:00,STWF1,0.0,PARF Company 8 Pty Ltd as The Trustee for Silverton Project Trust,Silverton Wind Farm,Wind,198.0,0.0,Silverton Wind Farm,-37.683168,142.551678,2026-02-06T15:11:04.044271
2026/02/07 01:10:00,TARALGA1,53.18,Taralga Wind Farm Nominees No 2 Pty Ltd (ATF Taralga Wind Farm Operating Trust),Taralga Wind Farm,Wind,106.0,50.17,Taralga Wind Farm,-34.42352,149.826267,2026-02-06T15:11:04.044271
2026/02/07 01:10:00,WAMBOWF1,57.48,Stanwell Corporation Limited,Wambo Wind Farm 1,Wind,245.0,23.46,Wambo Wind Farm 1,-35.187301,149.524945,2026-02-06T15:11:04.044271
2026/02/07 01:10:00,WATERLWF,35.5,Waterloo Wind Farm Pty Ltd,Waterloo Wind Farm,Wind,130.0,27.31,Waterloo Wind Farm,-34.00094,138.911567,2026-02-06T15:11:04.044271
2026/02/07 01:10:00,WGWF1,36.4,Willogoleche Power Pty Ltd As The Trustee For The Willogoleche Operating Trust,Willogoleche Wind Farm,Wind,119.0,30.59,Willogoleche Wind Farm,-33.39,138.85,2026-02-06T15:11:04.044271
2026/02/07 01:10:00,WOODLWN1,1.79,Woodlawn Wind Pty Ltd,Woodlawn Wind Farm,Wind,48.0,3.73,Woodlawn Wind Farm,-35.08,149.62,2026-02-06T15:11:04.044271
2026/02/07 01:10:00,WPWF,64.65,AGL SA Generation Pty Limited,Wattle Point Wind Farm,Wind,91.0,71.04,Wattle Point Wind Farm,-35.111624,137.7219,2026-02-06T15:11:04.044271
2026/02/07 01:10:00,WRWF1,65.8,White Rock Wind Farm Pty Ltd,White Rock Wind Farm,Wind,172.0,38.26,White Rock Wind Farm,-29.79,151.54,2026-02-06T15:11:04.044271
2026/02/07 01:10:00,YENDWF1,12.75,Lal Lal Wind Farms Nom Co Pty Ltd,Yendon Wind Farm,Wind,142.0,8.98,Yendon Wind Farm,-37.629987,144.022717,2026-02-06T15:11:04.044271
