SETTLEMENTDATE,DUID,SCADAVALUE,Participant,Station Name,Fuel Source - Primary,MAX_CAP,utilisation_pct,Plant,Latitude,Longitude,timestamp_utc
2026/04/11 17:40:00,CAPTL_WF,125.89,Iberdrola Australia Holdings Pty Limited,Capital Wind Farm,Wind,140.0,89.92,Capital Wind Farm,-35.1,149.31,2026-04-11T07:39:15.491364
2026/04/11 17:40:00,CHALLHWF,1.6,Pacific Hydro Challicum Hills Pty Ltd,Challicum Hills Wind Farm,Wind,52.0,3.08,Challicum Hills Wind Farm,-37.38,143.11,2026-04-11T07:39:15.491364
2026/04/11 17:40:00,CULLRGWF,30.02,Cullerin Range Wind Farm Pty Ltd,Cullerin Range Wind Farm,Wind,30.0,100.07,Cullerin Range Wind Farm,-34.81,149.4,2026-04-11T07:39:15.491364
2026/04/11 17:40:00,DIAPURWF1,7.3,Y.E.S. Energy (SA) Pty Ltd,Diapur Wind Farm,Wind,7.0,104.29,Diapur Wind Farm,-36.3425,141.43,2026-04-11T07:39:15.491364
2026/04/11 17:40:00,MLWF1,14.79,Mortons Lane Windfarm Pty Limited,Mortons Lane Wind Farm,Wind,20.0,73.95,Mortons Lane Wind Farm,-37.84,142.45,2026-04-11T07:39:15.491364
2026/04/11 17:40:00,WAUBRAWF,147.16,Pyrenees Wind Energy Developments Pty Ltd,Waubra Wind Farm,Wind,192.0,76.65,Waubra Wind Farm,-37.394498,143.638982,2026-04-11T07:39:15.491364
2026/04/11 17:40:00,WOOLNTH1,113.42,Hydro-Electric Corporation,Woolnorth Studland Bay / Bluff Point Wind Farm,Wind,140.0,81.01,Woolnorth Studland Bay / Bluff Point Wind Farm,-40.69,144.72,2026-04-11T07:39:15.491364
2026/04/11 17:40:00,YAMBUKWF,-0.2,Energy Pacific (Vic) Pty Ltd,Yambuk Wind Farm,Wind,30.0,-0.67,Yambuk Wind Farm,-38.299083,142.027577,2026-04-11T07:39:15.491364
2026/04/11 17:40:00,YSWF1,0.1,Pacific Hydro Yaloak South Pty Ltd,Yaloak South Wind Farm,Wind,28.0,0.36,Yaloak South Wind Farm,-37.7163,144.242853,2026-04-11T07:39:15.491364
2026/04/11 17:40:00,ARWF1,106.6,Ararat Wind Farm Pty Ltd,Ararat Wind Farm,Wind,241.0,44.23,Ararat Wind Farm,-37.232778,143.031389,2026-04-11T07:39:15.491364
2026/04/11 17:40:00,BALDHWF1,103.14,Alinta Energy Retail Sales Pty Ltd,Bald Hills Wind Farm,Wind,106.0,97.3,Bald Hills Wind Farm,-38.79,145.93,2026-04-11T07:39:15.491364
2026/04/11 17:40:00,BANGOWF1,109.7,BWF Nominees Pty Ltd as The Trustee for BWF Trust,Bango 973 Wind Farm,Wind,155.0,70.77,Bango 973 Wind Farm,-34.551582,148.732808,2026-04-11T07:39:15.491364
2026/04/11 17:40:00,BANGOWF2,60.8,BWF Nominees Pty Ltd as The Trustee for BWF Trust,Bango 999 Wind Farm,Wind,82.0,74.15,Bango 999 Wind Farm,-34.551582,148.732808,2026-04-11T07:39:15.491364
2026/04/11 17:40:00,BLUFF1,39.9,AGL SA Generation Pty Limited,The Bluff Wind Farm,Wind,53.0,75.28,The Bluff Wind Farm,-33.367778,138.728611,2026-04-11T07:39:15.491364
2026/04/11 17:40:00,BOCORWF1,85.32,Boco Rock Wind Farm Pty Ltd,Boco Rock Wind Farm,Wind,111.0,76.86,Boco Rock Wind Farm,-36.578611,149.103333,2026-04-11T07:39:15.491364
2026/04/11 17:40:00,BRYB1WF1,147.99,Berrybank Development Pty Ltd,Berrybank Wind Farm,Wind,175.9,84.13,Berrybank Wind Farm,-37.94,143.52,2026-04-11T07:39:15.491364
2026/04/11 17:40:00,BRYB2WF2,99.19,Berrybank 2 Asset Pty Ltd as trustee for Berrybank 2 Asset Trust,Berrybank 2 Wind Farm,Wind,105.0,94.47,Berrybank 2 Wind Farm,-37.94,143.52,2026-04-11T07:39:15.491364
2026/04/11 17:40:00,BULGANA1,61.37,Bulgana Wind Farm Pty Ltd,Bulgana Green Power Hub,Wind,204.0,30.08,Bulgana Green Power Hub,-37.0975,142.973611,2026-04-11T07:39:15.491364
2026/04/11 17:40:00,CATHROCK,38.7,Cathedral Rocks Wind Farm Pty Ltd,Cathedral Rocks,Wind,66.0,58.64,Cathedral Rocks,-34.51,135.35,2026-04-11T07:39:15.491364
2026/04/11 17:40:00,CHYTWF1,22.49,Cherry Tree Wind Farm Pty Ltd as trustee for The Cherry Tree Project trust ,Cherry Tree Wind Farm,Wind,57.0,39.46,Cherry Tree Wind Farm,-37.1,145.26,2026-04-11T07:39:15.491364
2026/04/11 17:40:00,CLEMGPWF,53.88,Pacific Hydro Clements Gap Pty Ltd,Clements Gap Wind Farm,Wind,57.0,94.53,Clements Gap Wind Farm,-33.48,138.1,2026-04-11T07:39:15.491364
2026/04/11 17:40:00,CLRKCWF1,2.18,Stanwell Corporation Limited ,Clarke Creek Wind Farm,Wind,338.0,0.64,Clarke Creek Wind Farm,-22.85,149.45,2026-04-11T07:39:15.491364
2026/04/11 17:40:00,CLRKCWF2,7.3,Stanwell Corporation Limited ,Clarke Creek Wind Farm,Wind,101.0,7.23,Clarke Creek Wind Farm,-22.85,149.45,2026-04-11T07:39:15.491364
2026/04/11 17:40:00,CNUNDAWF,0.0,Canunda Power Pty Ltd,Canunda Wind Farm,Wind,46.0,0.0,Canunda Wind Farm,-37.73,140.39,2026-04-11T07:39:15.491364
2026/04/11 17:40:00,COLWF01,185.41,Collector Wind Farm Pty Ltd,Collector Wind Farm 1,Wind,219.0,84.66,Collector Wind Farm 1,-34.8719,149.3967,2026-04-11T07:39:15.491364
2026/04/11 17:40:00,COOPGWF1,32.78,PARF Company 10 Pty Limited as The Trustee for Coopers Gap Project Trust,Coopers Gap Wind Farm,Wind,440.0,7.45,Coopers Gap Wind Farm,-26.74,151.45,2026-04-11T07:39:15.491364
2026/04/11 17:40:00,CROOKWF2,65.59,Crookwell Development Pty Ltd ,Crookwell 2 Wind Farm,Wind,91.0,72.08,Crookwell 2 Wind Farm,-34.52,149.54,2026-04-11T07:39:15.491364
2026/04/11 17:40:00,CROOKWF3,49.61,Crookwell 3 Development Pty Ltd,Crookwell 3 Wind Farm,Wind,56.0,88.59,Crookwell 3 Wind Farm,-34.52,149.54,2026-04-11T07:39:15.491364
2026/04/11 17:40:00,CROWLWF1,66.41,Pacific Hydro Crowlands Pty Ltd ,Crowlands Wind Farm,Wind,79.0,84.06,Crowlands Wind Farm,-37.13,143.16,2026-04-11T07:39:15.491364
2026/04/11 17:40:00,CRURWF1,66.6,CRWF Nominees Pty Ltd As Trustee For The CRWF Trust,Crudine Ridge Wind Farm,Wind,138.0,48.26,Crudine Ridge Wind Farm,-32.97,149.64,2026-04-11T07:39:15.491364
2026/04/11 17:40:00,CTHLWF1,118.13,Wild Cattle Hill Pty Ltd,Cattle Hill Wind Farm,Wind,144.0,82.03,Cattle Hill Wind Farm,-42.15,146.69,2026-04-11T07:39:15.491364
2026/04/11 17:40:00,DULAWF1,87.3,Dulacca Energy Project Co Pty Ltd,Dulacca Wind Farm,Wind,173.0,50.46,Dulacca Wind Farm,-26.63,149.87,2026-04-11T07:39:15.491364
2026/04/11 17:40:00,DUNDWF1,84.03,Dundonnell Wind Farm Pty Ltd,Dundonnell Wind Farm,Wind,168.0,50.02,Dundonnell Wind Farm,-37.52,142.58,2026-04-11T07:39:15.491364
2026/04/11 17:40:00,DUNDWF2,23.0,Dundonnell Wind Farm Pty Ltd,Dundonnell Wind Farm,Wind,46.0,50.0,Dundonnell Wind Farm,-37.52,142.58,2026-04-11T07:39:15.491364
2026/04/11 17:40:00,DUNDWF3,60.82,Dundonnell Wind Farm Pty Ltd,Dundonnell Wind Farm,Wind,122.0,49.85,Dundonnell Wind Farm,-37.52,142.58,2026-04-11T07:39:15.491364
2026/04/11 17:40:00,ELAINWF1,74.43,Lal Lal Wind Farms Nom Co Pty Ltd,Elaine Wind Farm,Wind,82.0,90.77,Elaine Wind Farm,-37.36,144.0,2026-04-11T07:39:15.491364
2026/04/11 17:40:00,FLYCRKWF,40.56,Iberdrola Australia Energy Markets Pty Limited,Flyers Creek Wind Farm,Wind,140.0,28.97,Flyers Creek Wind Farm,-33.365556,148.981944,2026-04-11T07:39:15.491364
2026/04/11 17:40:00,GPWFEST1,0.0,Golden Plains WF1 Pty Ltd as Trustee for the Golden Plains WF1 Unit Trust,Golden Plains Wind Farm East,Wind,240.0,0.0,Golden Plains Wind Farm East,-37.945091,143.752614,2026-04-11T07:39:15.491364
2026/04/11 17:40:00,GPWFEST2,0.0,Golden Plains WF1 Pty Ltd as Trustee for the Golden Plains WF1 Unit Trust,Golden Plains Wind Farm East,Wind,253.0,0.0,Golden Plains Wind Farm East,-37.945091,143.752614,2026-04-11T07:39:15.491364
2026/04/11 17:40:00,GPWFEST3,210.82,Golden Plains WF1 Pty Ltd as Trustee for the Golden Plains WF1 Unit Trust,Golden Plains Wind Farm East,Wind,240.0,87.84,Golden Plains Wind Farm East,-37.945091,143.752614,2026-04-11T07:39:15.491364
2026/04/11 17:40:00,GRANWF1,109.27,Granville Harbour Operations Pty Ltd as The Trustee for Granville Harbour Operations Trust,Granville Harbour Wind Farm,Wind,111.0,98.44,Granville Harbour Wind Farm,-41.8,145.06,2026-04-11T07:39:15.491364
2026/04/11 17:40:00,GSWF1A,194.12,Goyder Wind Farm 1 Pty Ltd as the Trustee for Goyder Wind Farm 1 Trust,Goyder South Wind Farm 1A,Wind,201.0,96.58,Goyder South Wind Farm 1A,-33.679758,138.937597,2026-04-11T07:39:15.491364
2026/04/11 17:40:00,GSWF1B1,182.84,Goyder Wind Farm 1B Pty Ltd as the Trustee for the Goyder Wind Farm 1B Trust,Goyder South Wind Farm 1B,Wind,196.0,93.29,Goyder South Wind Farm 1B,-33.679758,138.937597,2026-04-11T07:39:15.491364
2026/04/11 17:40:00,GULLRWF1,74.69,New Gullen Range Wind Farm Pty Ltd,Gullen Range Wind Farm,Wind,161.0,46.39,Gullen Range Wind Farm,-34.34,149.27,2026-04-11T07:39:15.491364
2026/04/11 17:40:00,GULLRWF2,96.94,New Gullen Range Wind Farm Pty Ltd,Gullen Range Wind Farm,Wind,107.0,90.6,Gullen Range Wind Farm,-34.34,149.27,2026-04-11T07:39:15.491364
2026/04/11 17:40:00,GUNNING1,40.98,Gunning Wind Energy Developments Pty Ltd,Gunning Wind Farm,Wind,47.0,87.19,Gunning Wind Farm,-34.813333,149.4,2026-04-11T07:39:15.491364
2026/04/11 17:40:00,HALLWF1,82.11,AGL SA Generation Pty Limited,Hallett 1 Wind Farm,Wind,95.0,86.43,Hallett 1 Wind Farm,-33.367778,138.728611,2026-04-11T07:39:15.491364
2026/04/11 17:40:00,HALLWF2,54.57,AGL SA Generation Pty Limited,Hallett 2 Wind Farm,Wind,71.0,76.86,Hallett 2 Wind Farm,-33.367778,138.728611,2026-04-11T07:39:15.491364
2026/04/11 17:40:00,HD1WF1,61.23,Hawkesdale Asset Pty Ltd as trustee for Hawkesdale Asset Trust,Hawkesdale Wind Farm,Wind,89.0,68.8,Hawkesdale Wind Farm,-38.147894,142.361381,2026-04-11T07:39:15.491364
2026/04/11 17:40:00,HDWF1,94.8,HWF1 Pty Ltd,Hornsdale Wind Farm,Wind,102.0,92.94,Hornsdale Wind Farm,-33.050556,138.543611,2026-04-11T07:39:15.491364
2026/04/11 17:40:00,HDWF2,99.7,HWF 2 Pty Ltd,Hornsdale Wind Farm 2,Wind,102.0,97.75,Hornsdale Wind Farm 2,-33.06,138.54,2026-04-11T07:39:15.491364
2026/04/11 17:40:00,HDWF3,108.8,HWF3 Pty Ltd,Hornsdale Wind Farm 3,Wind,109.0,99.82,Hornsdale Wind Farm 3,-33.06,138.54,2026-04-11T07:39:15.491364
2026/04/11 17:40:00,KABANWF1,7.14,Kaban Wind Farm Pty Ltd as trustee for Kaban Wind Farm Trust,Kaban Wind Farm,Wind,152.0,4.7,Kaban Wind Farm,-17.56,145.41,2026-04-11T07:39:15.491364
2026/04/11 17:40:00,KEPWF1,13.9,Kennedy Energy Park Pty Ltd,Kennedy Energy Park,Wind,43.0,32.33,Kennedy Energy Park,-20.88,144.42,2026-04-11T07:39:15.491364
2026/04/11 17:40:00,KIATAWF1,30.7,Kiata ProjectCo Pty Ltd Atf Kiata Project Trust,Kiata Wind Farm,Wind,31.0,99.03,Kiata Wind Farm,-36.4,141.75,2026-04-11T07:39:15.491364
2026/04/11 17:40:00,LGAPWF1,61.09,Lincoln Gap Wind Farm (Operations) Pty Ltd,Lincoln Gap Wind Farm,Wind,123.0,49.67,Lincoln Gap Wind Farm,-32.564279,137.557328,2026-04-11T07:39:15.491364
2026/04/11 17:40:00,LGAPWF1,61.09,Lincoln Gap Wind Farm (Operations) Pty Ltd,Lincoln Gap Wind Farm,Wind,123.0,49.67,Lincoln Gap Wind Farm,-32.564279,137.557328,2026-04-11T07:39:15.491364
2026/04/11 17:40:00,LGAPWF2,63.66,Lincoln Gap Wind Farm (Operations) Pty Ltd,Lincoln Gap Wind Farm,Wind,85.0,74.89,Lincoln Gap Wind Farm,-32.564279,137.557328,2026-04-11T07:39:15.491364
2026/04/11 17:40:00,LGAPWF2,63.66,Lincoln Gap Wind Farm (Operations) Pty Ltd,Lincoln Gap Wind Farm,Wind,85.0,74.89,Lincoln Gap Wind Farm,-32.564279,137.557328,2026-04-11T07:39:15.491364
2026/04/11 17:40:00,LKBONNY1,0.0,Lake Bonney Wind Power Pty Ltd,Lake Bonney Wind Farm Stage 1,Wind,81.0,0.0,Lake Bonney Wind Farm Stage 1,-37.76,140.4,2026-04-11T07:39:15.491364
2026/04/11 17:40:00,LKBONNY2,2.67,Lake Bonney Wind Power Pty Ltd,Lake Bonney Stage 2 Windfarm,Wind,159.0,1.68,Lake Bonney Stage 2 Windfarm,-37.76,140.4,2026-04-11T07:39:15.491364
2026/04/11 17:40:00,LKBONNY3,10.61,Lake Bonney Wind Power Pty Ltd,Lake Bonney Stage 3 Wind Farm,Wind,39.0,27.21,Lake Bonney Stage 3 Wind Farm,-37.737781,140.388137,2026-04-11T07:39:15.491364
2026/04/11 17:40:00,MACARTH1,234.9,AGL Hydro Partnership,Macarthur Wind Farm,Wind,420.0,55.93,Macarthur Wind Farm,-38.048957,142.192112,2026-04-11T07:39:15.491364
2026/04/11 17:40:00,MCINTYR1,232.41,MacIntyre UJV Operator Pty Ltd,MacIntyre Wind Farm,Wind,890.0,26.11,MacIntyre Wind Farm,-28.32,151.54,2026-04-11T07:39:15.491364
2026/04/11 17:40:00,MERCER01,79.8,Mt Mercer Windfarm Pty Ltd,Mt Mercer Wind Farm,Wind,131.0,60.92,Mt Mercer Wind Farm,-37.841111,143.871111,2026-04-11T07:39:15.491364
2026/04/11 17:40:00,MEWF1,6.47,Ergon Energy Queensland Pty Ltd ,Mount Emerald Wind Farm,Wind,178.0,3.63,Mount Emerald Wind Farm,-17.133007,145.380644,2026-04-11T07:39:15.491364
2026/04/11 17:40:00,MRTLSWF1,90.95,Mortlake South Wind Farm Pty Ltd,Mortlake South Wind Farm,Wind,153.0,59.44,Mortlake South Wind Farm,-38.127337,142.857801,2026-04-11T07:39:15.491364
2026/04/11 17:40:00,MTGELWF1,99.27,Mt. Gellibrand Wind Farm Pty Ltd,Mt Gellibrand Wind Farm,Wind,132.0,75.2,Mt Gellibrand Wind Farm,-38.23,143.77,2026-04-11T07:39:15.491364
2026/04/11 17:40:00,MTMILLAR,24.4,Mt Millar Wind Farm Pty Ltd,Mt Millar Wind Farm,Wind,70.0,34.86,Mt Millar Wind Farm,-33.624444,136.703611,2026-04-11T07:39:15.491364
2026/04/11 17:40:00,MUSSELR1,151.9,Hydro-Electric Corporation,Musselroe Wind Farm,Wind,168.0,90.42,Musselroe Wind Farm,-40.780225,148.010799,2026-04-11T07:39:15.491364
2026/04/11 17:40:00,MUWAWF1,0.0,Telstra Energy (Generation) Pty Ltd,Murra Warra Wind Farm,Wind,225.7,0.0,Murra Warra Wind Farm,-36.432404,142.317853,2026-04-11T07:39:15.491364
2026/04/11 17:40:00,MUWAWF2,120.3,Murra Warra II Project Co Pty Ltd ATF The Murra Warra II Project Trust,Murra Warra Wind Farm Stage 2,Wind,203.0,59.26,Murra Warra Wind Farm Stage 2,-36.43,142.32,2026-04-11T07:39:15.491364
2026/04/11 17:40:00,NBHWF1,107.3,AGL SA Generation Pty Limited,North Brown Hill Wind Farm,Wind,132.0,81.29,North Brown Hill Wind Farm,-33.367778,138.728611,2026-04-11T07:39:15.491364
2026/04/11 17:40:00,OAKLAND1,53.7,AGL Hydro Partnership,Oaklands Hill Wind Farm,Wind,63.0,85.24,Oaklands Hill Wind Farm,-37.683078,142.551678,2026-04-11T07:39:15.491364
2026/04/11 17:40:00,PAREPW1,37.83,Iberdrola Australia Energy Markets Pty Limited,Port Augusta Renewable Energy Park,Wind,201.0,18.82,Port Augusta Renewable Energy Park,-32.566944,137.856111,2026-04-11T07:39:15.491364
2026/04/11 17:40:00,RYANCWF1,149.23,Ryan Corner Development Pty Ltd,Ryan Corner Wind Farm,Wind,205.0,72.8,Ryan Corner Wind Farm,-38.271017,142.140647,2026-04-11T07:39:15.491364
2026/04/11 17:40:00,RYEPARK1,208.79,Rye Park Renewable Energy Pty Ltd as trustee for Rye Park Wind Farm Trust,Rye Park Renewable Energy,Wind,384.0,54.37,Rye Park Renewable Energy,-32.138333,148.972778,2026-04-11T07:39:15.491364
2026/04/11 17:40:00,SALTCRK1,0.0,Salt Creek Wind Farm Pty Ltd,Salt Creek Wind Farm,Wind,54.0,0.0,Salt Creek Wind Farm,-37.95,142.63,2026-04-11T07:39:15.491364
2026/04/11 17:40:00,SAPHWF1,174.49,The Trustee For The SWF1 Operations Trust,Sapphire Wind Farm,Wind,270.0,64.63,Sapphire Wind Farm,-29.7,151.41,2026-04-11T07:39:15.491364
2026/04/11 17:40:00,SNOWNTH1,110.3,Snowtown Wind Farm Stage 2 Pty Ltd,Snowtown Wind Farm Stage 2 North,Wind,144.0,76.6,Snowtown Wind Farm Stage 2 North,-33.83,138.118611,2026-04-11T07:39:15.491364
2026/04/11 17:40:00,SNOWSTH1,119.9,Snowtown Wind Farm Stage 2 Pty Ltd,Snowtown South Wind Farm,Wind,126.0,95.16,Snowtown South Wind Farm,-33.83,138.118611,2026-04-11T07:39:15.491364
2026/04/11 17:40:00,SNOWTWN1,84.17,Snowtown Wind Farm Pty Ltd,Snowtown Wind Farm Units 1 And 47,Wind,99.0,85.02,Snowtown Wind Farm Units 1 And 47,-33.83,138.118611,2026-04-11T07:39:15.491364
2026/04/11 17:40:00,STARHLWF,13.4,Starfish Hill Wind Farm Pty Ltd,Starfish Hill Wind Farm,Wind,35.0,38.29,Starfish Hill Wind Farm,-35.58,138.14,2026-04-11T07:39:15.491364
2026/04/11 17:40:00,STOCKYD1,471.66,Stockyard Hill Wind Farm Pty Ltd,Stockyard Hill Wind Farm,Wind,511.0,92.3,Stockyard Hill Wind Farm,-37.535833,143.251389,2026-04-11T07:39:15.491364
2026/04/11 17:40:00,STWF1,0.0,PARF Company 8 Pty Ltd as The Trustee for Silverton Project Trust,Silverton Wind Farm,Wind,198.0,0.0,Silverton Wind Farm,-37.683168,142.551678,2026-04-11T07:39:15.491364
2026/04/11 17:40:00,TARALGA1,98.01,Taralga Wind Farm Nominees No 2 Pty Ltd (ATF Taralga Wind Farm Operating Trust),Taralga Wind Farm,Wind,106.0,92.46,Taralga Wind Farm,-34.42352,149.826267,2026-04-11T07:39:15.491364
2026/04/11 17:40:00,WAMBOWF1,25.95,Stanwell Corporation Limited,Wambo Wind Farm 1,Wind,245.0,10.59,Wambo Wind Farm 1,-35.187301,149.524945,2026-04-11T07:39:15.491364
2026/04/11 17:40:00,WATERLWF,106.0,Waterloo Wind Farm Pty Ltd,Waterloo Wind Farm,Wind,130.0,81.54,Waterloo Wind Farm,-34.00094,138.911567,2026-04-11T07:39:15.491364
2026/04/11 17:40:00,WGWF1,99.6,Willogoleche Power Pty Ltd As The Trustee For The Willogoleche Operating Trust,Willogoleche Wind Farm,Wind,119.0,83.7,Willogoleche Wind Farm,-33.39,138.85,2026-04-11T07:39:15.491364
2026/04/11 17:40:00,WOODLWN1,44.74,Woodlawn Wind Pty Ltd,Woodlawn Wind Farm,Wind,48.0,93.21,Woodlawn Wind Farm,-35.08,149.62,2026-04-11T07:39:15.491364
2026/04/11 17:40:00,WPWF,71.4,AGL SA Generation Pty Limited,Wattle Point Wind Farm,Wind,91.0,78.46,Wattle Point Wind Farm,-35.111624,137.7219,2026-04-11T07:39:15.491364
2026/04/11 17:40:00,WRWF1,136.97,White Rock Wind Farm Pty Ltd,White Rock Wind Farm,Wind,172.0,79.63,White Rock Wind Farm,-29.79,151.54,2026-04-11T07:39:15.491364
2026/04/11 17:40:00,YENDWF1,107.9,Lal Lal Wind Farms Nom Co Pty Ltd,Yendon Wind Farm,Wind,142.0,75.99,Yendon Wind Farm,-37.629987,144.022717,2026-04-11T07:39:15.491364
