SETTLEMENTDATE,DUID,SCADAVALUE,Participant,Station Name,Fuel Source - Primary,MAX_CAP,utilisation_pct,Plant,Latitude,Longitude,timestamp_utc
2026/02/02 05:15:00,CAPTL_WF,23.27,Iberdrola Australia Holdings Pty Limited,Capital Wind Farm,Wind,140.0,16.62,Capital Wind Farm,-35.1,149.31,2026-02-01T19:17:18.800663
2026/02/02 05:15:00,CHALLHWF,11.3,Pacific Hydro Challicum Hills Pty Ltd,Challicum Hills Wind Farm,Wind,52.0,21.73,Challicum Hills Wind Farm,-37.38,143.11,2026-02-01T19:17:18.800663
2026/02/02 05:15:00,CULLRGWF,23.06,Cullerin Range Wind Farm Pty Ltd,Cullerin Range Wind Farm,Wind,30.0,76.87,Cullerin Range Wind Farm,-34.81,149.4,2026-02-01T19:17:18.800663
2026/02/02 05:15:00,DIAPURWF1,6.9,Y.E.S. Energy (SA) Pty Ltd,Diapur Wind Farm,Wind,7.0,98.57,Diapur Wind Farm,-36.3425,141.43,2026-02-01T19:17:18.800663
2026/02/02 05:15:00,MLWF1,0.04,Mortons Lane Windfarm Pty Limited,Mortons Lane Wind Farm,Wind,20.0,0.2,Mortons Lane Wind Farm,-37.84,142.45,2026-02-01T19:17:18.800663
2026/02/02 05:15:00,WAUBRAWF,34.28,Pyrenees Wind Energy Developments Pty Ltd,Waubra Wind Farm,Wind,192.0,17.85,Waubra Wind Farm,-37.394498,143.638982,2026-02-01T19:17:18.800663
2026/02/02 05:15:00,WOOLNTH1,12.39,Hydro-Electric Corporation,Woolnorth Studland Bay / Bluff Point Wind Farm,Wind,140.0,8.85,Woolnorth Studland Bay / Bluff Point Wind Farm,-40.69,144.72,2026-02-01T19:17:18.800663
2026/02/02 05:15:00,YAMBUKWF,2.6,Energy Pacific (Vic) Pty Ltd,Yambuk Wind Farm,Wind,30.0,8.67,Yambuk Wind Farm,-38.299083,142.027577,2026-02-01T19:17:18.800663
2026/02/02 05:15:00,YSWF1,9.3,Pacific Hydro Yaloak South Pty Ltd,Yaloak South Wind Farm,Wind,28.0,33.21,Yaloak South Wind Farm,-37.7163,144.242853,2026-02-01T19:17:18.800663
2026/02/02 05:15:00,ARWF1,28.2,Ararat Wind Farm Pty Ltd,Ararat Wind Farm,Wind,241.0,11.7,Ararat Wind Farm,-37.232778,143.031389,2026-02-01T19:17:18.800663
2026/02/02 05:15:00,BALDHWF1,24.7,Alinta Energy Retail Sales Pty Ltd,Bald Hills Wind Farm,Wind,106.0,23.3,Bald Hills Wind Farm,-38.79,145.93,2026-02-01T19:17:18.800663
2026/02/02 05:15:00,BANGOWF1,131.1,BWF Nominees Pty Ltd as The Trustee for BWF Trust,Bango 973 Wind Farm,Wind,155.0,84.58,Bango 973 Wind Farm,-34.551582,148.732808,2026-02-01T19:17:18.800663
2026/02/02 05:15:00,BANGOWF2,65.9,BWF Nominees Pty Ltd as The Trustee for BWF Trust,Bango 999 Wind Farm,Wind,82.0,80.37,Bango 999 Wind Farm,-34.551582,148.732808,2026-02-01T19:17:18.800663
2026/02/02 05:15:00,BLUFF1,28.4,AGL SA Generation Pty Limited,The Bluff Wind Farm,Wind,53.0,53.58,The Bluff Wind Farm,-33.367778,138.728611,2026-02-01T19:17:18.800663
2026/02/02 05:15:00,BOCORWF1,59.92,Boco Rock Wind Farm Pty Ltd,Boco Rock Wind Farm,Wind,111.0,53.98,Boco Rock Wind Farm,-36.578611,149.103333,2026-02-01T19:17:18.800663
2026/02/02 05:15:00,BRYB1WF1,25.39,Berrybank Development Pty Ltd,Berrybank Wind Farm,Wind,175.9,14.43,Berrybank Wind Farm,-37.94,143.52,2026-02-01T19:17:18.800663
2026/02/02 05:15:00,BRYB2WF2,14.72,Berrybank 2 Asset Pty Ltd as trustee for Berrybank 2 Asset Trust,Berrybank 2 Wind Farm,Wind,105.0,14.02,Berrybank 2 Wind Farm,-37.94,143.52,2026-02-01T19:17:18.800663
2026/02/02 05:15:00,BULGANA1,0.0,Bulgana Wind Farm Pty Ltd,Bulgana Green Power Hub,Wind,204.0,0.0,Bulgana Green Power Hub,-37.0975,142.973611,2026-02-01T19:17:18.800663
2026/02/02 05:15:00,CATHROCK,36.4,Cathedral Rocks Wind Farm Pty Ltd,Cathedral Rocks,Wind,66.0,55.15,Cathedral Rocks,-34.51,135.35,2026-02-01T19:17:18.800663
2026/02/02 05:15:00,CHYTWF1,55.53,Cherry Tree Wind Farm Pty Ltd as trustee for The Cherry Tree Project trust ,Cherry Tree Wind Farm,Wind,57.0,97.42,Cherry Tree Wind Farm,-37.1,145.26,2026-02-01T19:17:18.800663
2026/02/02 05:15:00,CLEMGPWF,34.22,Pacific Hydro Clements Gap Pty Ltd,Clements Gap Wind Farm,Wind,57.0,60.04,Clements Gap Wind Farm,-33.48,138.1,2026-02-01T19:17:18.800663
2026/02/02 05:15:00,CLRKCWF1,0.0,Stanwell Corporation Limited ,Clarke Creek Wind Farm,Wind,338.0,0.0,Clarke Creek Wind Farm,-22.85,149.45,2026-02-01T19:17:18.800663
2026/02/02 05:15:00,CLRKCWF2,0.0,Stanwell Corporation Limited ,Clarke Creek Wind Farm,Wind,101.0,0.0,Clarke Creek Wind Farm,-22.85,149.45,2026-02-01T19:17:18.800663
2026/02/02 05:15:00,CNUNDAWF,1.3,Canunda Power Pty Ltd,Canunda Wind Farm,Wind,46.0,2.83,Canunda Wind Farm,-37.73,140.39,2026-02-01T19:17:18.800663
2026/02/02 05:15:00,COLWF01,196.24,Collector Wind Farm Pty Ltd,Collector Wind Farm 1,Wind,219.0,89.61,Collector Wind Farm 1,-34.8719,149.3967,2026-02-01T19:17:18.800663
2026/02/02 05:15:00,COOPGWF1,146.6,PARF Company 10 Pty Limited as The Trustee for Coopers Gap Project Trust,Coopers Gap Wind Farm,Wind,440.0,33.32,Coopers Gap Wind Farm,-26.74,151.45,2026-02-01T19:17:18.800663
2026/02/02 05:15:00,CROOKWF2,58.7,Crookwell Development Pty Ltd ,Crookwell 2 Wind Farm,Wind,91.0,64.51,Crookwell 2 Wind Farm,-34.52,149.54,2026-02-01T19:17:18.800663
2026/02/02 05:15:00,CROOKWF3,40.64,Crookwell 3 Development Pty Ltd,Crookwell 3 Wind Farm,Wind,56.0,72.57,Crookwell 3 Wind Farm,-34.52,149.54,2026-02-01T19:17:18.800663
2026/02/02 05:15:00,CROWLWF1,16.5,Pacific Hydro Crowlands Pty Ltd ,Crowlands Wind Farm,Wind,79.0,20.89,Crowlands Wind Farm,-37.13,143.16,2026-02-01T19:17:18.800663
2026/02/02 05:15:00,CRURWF1,20.4,CRWF Nominees Pty Ltd As Trustee For The CRWF Trust,Crudine Ridge Wind Farm,Wind,138.0,14.78,Crudine Ridge Wind Farm,-32.97,149.64,2026-02-01T19:17:18.800663
2026/02/02 05:15:00,CTHLWF1,31.55,Wild Cattle Hill Pty Ltd,Cattle Hill Wind Farm,Wind,144.0,21.91,Cattle Hill Wind Farm,-42.15,146.69,2026-02-01T19:17:18.800663
2026/02/02 05:15:00,DULAWF1,38.5,Dulacca Energy Project Co Pty Ltd,Dulacca Wind Farm,Wind,173.0,22.25,Dulacca Wind Farm,-26.63,149.87,2026-02-01T19:17:18.800663
2026/02/02 05:15:00,DUNDWF1,24.39,Dundonnell Wind Farm Pty Ltd,Dundonnell Wind Farm,Wind,168.0,14.52,Dundonnell Wind Farm,-37.52,142.58,2026-02-01T19:17:18.800663
2026/02/02 05:15:00,DUNDWF2,8.92,Dundonnell Wind Farm Pty Ltd,Dundonnell Wind Farm,Wind,46.0,19.39,Dundonnell Wind Farm,-37.52,142.58,2026-02-01T19:17:18.800663
2026/02/02 05:15:00,DUNDWF3,10.97,Dundonnell Wind Farm Pty Ltd,Dundonnell Wind Farm,Wind,122.0,8.99,Dundonnell Wind Farm,-37.52,142.58,2026-02-01T19:17:18.800663
2026/02/02 05:15:00,ELAINWF1,28.0,Lal Lal Wind Farms Nom Co Pty Ltd,Elaine Wind Farm,Wind,82.0,34.15,Elaine Wind Farm,-37.36,144.0,2026-02-01T19:17:18.800663
2026/02/02 05:15:00,FLYCRKWF,0.96,Iberdrola Australia Energy Markets Pty Limited,Flyers Creek Wind Farm,Wind,140.0,0.69,Flyers Creek Wind Farm,-33.365556,148.981944,2026-02-01T19:17:18.800663
2026/02/02 05:15:00,GPWFEST1,23.44,Golden Plains WF1 Pty Ltd as Trustee for the Golden Plains WF1 Unit Trust,Golden Plains Wind Farm East,Wind,240.0,9.77,Golden Plains Wind Farm East,-37.945091,143.752614,2026-02-01T19:17:18.800663
2026/02/02 05:15:00,GPWFEST2,14.79,Golden Plains WF1 Pty Ltd as Trustee for the Golden Plains WF1 Unit Trust,Golden Plains Wind Farm East,Wind,253.0,5.85,Golden Plains Wind Farm East,-37.945091,143.752614,2026-02-01T19:17:18.800663
2026/02/02 05:15:00,GPWFEST3,13.94,Golden Plains WF1 Pty Ltd as Trustee for the Golden Plains WF1 Unit Trust,Golden Plains Wind Farm East,Wind,240.0,5.81,Golden Plains Wind Farm East,-37.945091,143.752614,2026-02-01T19:17:18.800663
2026/02/02 05:15:00,GRANWF1,30.97,Granville Harbour Operations Pty Ltd as The Trustee for Granville Harbour Operations Trust,Granville Harbour Wind Farm,Wind,111.0,27.9,Granville Harbour Wind Farm,-41.8,145.06,2026-02-01T19:17:18.800663
2026/02/02 05:15:00,GSWF1A,141.72,Goyder Wind Farm 1 Pty Ltd as the Trustee for Goyder Wind Farm 1 Trust,Goyder South Wind Farm 1A,Wind,201.0,70.51,Goyder South Wind Farm 1A,-33.679758,138.937597,2026-02-01T19:17:18.800663
2026/02/02 05:15:00,GSWF1B1,0.49,Goyder Wind Farm 1B Pty Ltd as the Trustee for the Goyder Wind Farm 1B Trust,Goyder South Wind Farm 1B,Wind,196.0,0.25,Goyder South Wind Farm 1B,-33.679758,138.937597,2026-02-01T19:17:18.800663
2026/02/02 05:15:00,GULLRWF1,36.73,New Gullen Range Wind Farm Pty Ltd,Gullen Range Wind Farm,Wind,161.0,22.81,Gullen Range Wind Farm,-34.34,149.27,2026-02-01T19:17:18.800663
2026/02/02 05:15:00,GULLRWF2,87.66,New Gullen Range Wind Farm Pty Ltd,Gullen Range Wind Farm,Wind,107.0,81.93,Gullen Range Wind Farm,-34.34,149.27,2026-02-01T19:17:18.800663
2026/02/02 05:15:00,GUNNING1,31.45,Gunning Wind Energy Developments Pty Ltd,Gunning Wind Farm,Wind,47.0,66.91,Gunning Wind Farm,-34.813333,149.4,2026-02-01T19:17:18.800663
2026/02/02 05:15:00,HALLWF1,70.08,AGL SA Generation Pty Limited,Hallett 1 Wind Farm,Wind,95.0,73.77,Hallett 1 Wind Farm,-33.367778,138.728611,2026-02-01T19:17:18.800663
2026/02/02 05:15:00,HALLWF2,60.07,AGL SA Generation Pty Limited,Hallett 2 Wind Farm,Wind,71.0,84.61,Hallett 2 Wind Farm,-33.367778,138.728611,2026-02-01T19:17:18.800663
2026/02/02 05:15:00,HD1WF1,0.0,Hawkesdale Asset Pty Ltd as trustee for Hawkesdale Asset Trust,Hawkesdale Wind Farm,Wind,89.0,0.0,Hawkesdale Wind Farm,-38.147894,142.361381,2026-02-01T19:17:18.800663
2026/02/02 05:15:00,HDWF1,91.3,HWF1 Pty Ltd,Hornsdale Wind Farm,Wind,102.0,89.51,Hornsdale Wind Farm,-33.050556,138.543611,2026-02-01T19:17:18.800663
2026/02/02 05:15:00,HDWF2,84.2,HWF 2 Pty Ltd,Hornsdale Wind Farm 2,Wind,102.0,82.55,Hornsdale Wind Farm 2,-33.06,138.54,2026-02-01T19:17:18.800663
2026/02/02 05:15:00,HDWF3,101.3,HWF3 Pty Ltd,Hornsdale Wind Farm 3,Wind,109.0,92.94,Hornsdale Wind Farm 3,-33.06,138.54,2026-02-01T19:17:18.800663
2026/02/02 05:15:00,KABANWF1,7.08,Kaban Wind Farm Pty Ltd as trustee for Kaban Wind Farm Trust,Kaban Wind Farm,Wind,152.0,4.66,Kaban Wind Farm,-17.56,145.41,2026-02-01T19:17:18.800663
2026/02/02 05:15:00,KEPWF1,0.0,Kennedy Energy Park Pty Ltd,Kennedy Energy Park,Wind,43.0,0.0,Kennedy Energy Park,-20.88,144.42,2026-02-01T19:17:18.800663
2026/02/02 05:15:00,KIATAWF1,14.0,Kiata ProjectCo Pty Ltd Atf Kiata Project Trust,Kiata Wind Farm,Wind,31.0,45.16,Kiata Wind Farm,-36.4,141.75,2026-02-01T19:17:18.800663
2026/02/02 05:15:00,LGAPWF1,50.85,Lincoln Gap Wind Farm (Operations) Pty Ltd,Lincoln Gap Wind Farm,Wind,123.0,41.34,Lincoln Gap Wind Farm,-32.564279,137.557328,2026-02-01T19:17:18.800663
2026/02/02 05:15:00,LGAPWF1,50.85,Lincoln Gap Wind Farm (Operations) Pty Ltd,Lincoln Gap Wind Farm,Wind,123.0,41.34,Lincoln Gap Wind Farm,-32.564279,137.557328,2026-02-01T19:17:18.800663
2026/02/02 05:15:00,LGAPWF2,59.74,Lincoln Gap Wind Farm (Operations) Pty Ltd,Lincoln Gap Wind Farm,Wind,85.0,70.28,Lincoln Gap Wind Farm,-32.564279,137.557328,2026-02-01T19:17:18.800663
2026/02/02 05:15:00,LGAPWF2,59.74,Lincoln Gap Wind Farm (Operations) Pty Ltd,Lincoln Gap Wind Farm,Wind,85.0,70.28,Lincoln Gap Wind Farm,-32.564279,137.557328,2026-02-01T19:17:18.800663
2026/02/02 05:15:00,LKBONNY1,2.5,Lake Bonney Wind Power Pty Ltd,Lake Bonney Wind Farm Stage 1,Wind,81.0,3.09,Lake Bonney Wind Farm Stage 1,-37.76,140.4,2026-02-01T19:17:18.800663
2026/02/02 05:15:00,LKBONNY2,7.08,Lake Bonney Wind Power Pty Ltd,Lake Bonney Stage 2 Windfarm,Wind,159.0,4.45,Lake Bonney Stage 2 Windfarm,-37.76,140.4,2026-02-01T19:17:18.800663
2026/02/02 05:15:00,LKBONNY3,2.9,Lake Bonney Wind Power Pty Ltd,Lake Bonney Stage 3 Wind Farm,Wind,39.0,7.44,Lake Bonney Stage 3 Wind Farm,-37.737781,140.388137,2026-02-01T19:17:18.800663
2026/02/02 05:15:00,MACARTH1,0.0,AGL Hydro Partnership,Macarthur Wind Farm,Wind,420.0,0.0,Macarthur Wind Farm,-38.048957,142.192112,2026-02-01T19:17:18.800663
2026/02/02 05:15:00,MCINTYR1,241.57,MacIntyre UJV Operator Pty Ltd,MacIntyre Wind Farm,Wind,890.0,27.14,MacIntyre Wind Farm,-28.32,151.54,2026-02-01T19:17:18.800663
2026/02/02 05:15:00,MERCER01,5.4,Mt Mercer Windfarm Pty Ltd,Mt Mercer Wind Farm,Wind,131.0,4.12,Mt Mercer Wind Farm,-37.841111,143.871111,2026-02-01T19:17:18.800663
2026/02/02 05:15:00,MEWF1,45.0,Ergon Energy Queensland Pty Ltd ,Mount Emerald Wind Farm,Wind,178.0,25.28,Mount Emerald Wind Farm,-17.133007,145.380644,2026-02-01T19:17:18.800663
2026/02/02 05:15:00,MRTLSWF1,4.6,Mortlake South Wind Farm Pty Ltd,Mortlake South Wind Farm,Wind,153.0,3.01,Mortlake South Wind Farm,-38.127337,142.857801,2026-02-01T19:17:18.800663
2026/02/02 05:15:00,MTGELWF1,1.55,Mt. Gellibrand Wind Farm Pty Ltd,Mt Gellibrand Wind Farm,Wind,132.0,1.17,Mt Gellibrand Wind Farm,-38.23,143.77,2026-02-01T19:17:18.800663
2026/02/02 05:15:00,MTMILLAR,28.3,Mt Millar Wind Farm Pty Ltd,Mt Millar Wind Farm,Wind,70.0,40.43,Mt Millar Wind Farm,-33.624444,136.703611,2026-02-01T19:17:18.800663
2026/02/02 05:15:00,MUSSELR1,35.3,Hydro-Electric Corporation,Musselroe Wind Farm,Wind,168.0,21.01,Musselroe Wind Farm,-40.780225,148.010799,2026-02-01T19:17:18.800663
2026/02/02 05:15:00,MUWAWF1,52.32,Telstra Energy (Generation) Pty Ltd,Murra Warra Wind Farm,Wind,225.7,23.18,Murra Warra Wind Farm,-36.432404,142.317853,2026-02-01T19:17:18.800663
2026/02/02 05:15:00,MUWAWF2,48.4,Murra Warra II Project Co Pty Ltd ATF The Murra Warra II Project Trust,Murra Warra Wind Farm Stage 2,Wind,203.0,23.84,Murra Warra Wind Farm Stage 2,-36.43,142.32,2026-02-01T19:17:18.800663
2026/02/02 05:15:00,NBHWF1,108.8,AGL SA Generation Pty Limited,North Brown Hill Wind Farm,Wind,132.0,82.42,North Brown Hill Wind Farm,-33.367778,138.728611,2026-02-01T19:17:18.800663
2026/02/02 05:15:00,OAKLAND1,4.7,AGL Hydro Partnership,Oaklands Hill Wind Farm,Wind,63.0,7.46,Oaklands Hill Wind Farm,-37.683078,142.551678,2026-02-01T19:17:18.800663
2026/02/02 05:15:00,PAREPW1,38.75,Iberdrola Australia Energy Markets Pty Limited,Port Augusta Renewable Energy Park,Wind,201.0,19.28,Port Augusta Renewable Energy Park,-32.566944,137.856111,2026-02-01T19:17:18.800663
2026/02/02 05:15:00,RYANCWF1,16.34,Ryan Corner Development Pty Ltd,Ryan Corner Wind Farm,Wind,205.0,7.97,Ryan Corner Wind Farm,-38.271017,142.140647,2026-02-01T19:17:18.800663
2026/02/02 05:15:00,RYEPARK1,272.5,Rye Park Renewable Energy Pty Ltd as trustee for Rye Park Wind Farm Trust,Rye Park Renewable Energy,Wind,384.0,70.96,Rye Park Renewable Energy,-32.138333,148.972778,2026-02-01T19:17:18.800663
2026/02/02 05:15:00,SALTCRK1,0.37,Salt Creek Wind Farm Pty Ltd,Salt Creek Wind Farm,Wind,54.0,0.69,Salt Creek Wind Farm,-37.95,142.63,2026-02-01T19:17:18.800663
2026/02/02 05:15:00,SAPHWF1,89.42,The Trustee For The SWF1 Operations Trust,Sapphire Wind Farm,Wind,270.0,33.12,Sapphire Wind Farm,-29.7,151.41,2026-02-01T19:17:18.800663
2026/02/02 05:15:00,SNOWNTH1,136.4,Snowtown Wind Farm Stage 2 Pty Ltd,Snowtown Wind Farm Stage 2 North,Wind,144.0,94.72,Snowtown Wind Farm Stage 2 North,-33.83,138.118611,2026-02-01T19:17:18.800663
2026/02/02 05:15:00,SNOWSTH1,124.2,Snowtown Wind Farm Stage 2 Pty Ltd,Snowtown South Wind Farm,Wind,126.0,98.57,Snowtown South Wind Farm,-33.83,138.118611,2026-02-01T19:17:18.800663
2026/02/02 05:15:00,SNOWTWN1,89.75,Snowtown Wind Farm Pty Ltd,Snowtown Wind Farm Units 1 And 47,Wind,99.0,90.66,Snowtown Wind Farm Units 1 And 47,-33.83,138.118611,2026-02-01T19:17:18.800663
2026/02/02 05:15:00,STARHLWF,14.0,Starfish Hill Wind Farm Pty Ltd,Starfish Hill Wind Farm,Wind,35.0,40.0,Starfish Hill Wind Farm,-35.58,138.14,2026-02-01T19:17:18.800663
2026/02/02 05:15:00,STOCKYD1,147.2,Stockyard Hill Wind Farm Pty Ltd,Stockyard Hill Wind Farm,Wind,511.0,28.81,Stockyard Hill Wind Farm,-37.535833,143.251389,2026-02-01T19:17:18.800663
2026/02/02 05:15:00,STWF1,0.0,PARF Company 8 Pty Ltd as The Trustee for Silverton Project Trust,Silverton Wind Farm,Wind,198.0,0.0,Silverton Wind Farm,-37.683168,142.551678,2026-02-01T19:17:18.800663
2026/02/02 05:15:00,TARALGA1,33.99,Taralga Wind Farm Nominees No 2 Pty Ltd (ATF Taralga Wind Farm Operating Trust),Taralga Wind Farm,Wind,106.0,32.07,Taralga Wind Farm,-34.42352,149.826267,2026-02-01T19:17:18.800663
2026/02/02 05:15:00,WAMBOWF1,79.84,Stanwell Corporation Limited,Wambo Wind Farm 1,Wind,245.0,32.59,Wambo Wind Farm 1,-35.187301,149.524945,2026-02-01T19:17:18.800663
2026/02/02 05:15:00,WATERLWF,95.5,Waterloo Wind Farm Pty Ltd,Waterloo Wind Farm,Wind,130.0,73.46,Waterloo Wind Farm,-34.00094,138.911567,2026-02-01T19:17:18.800663
2026/02/02 05:15:00,WGWF1,100.8,Willogoleche Power Pty Ltd As The Trustee For The Willogoleche Operating Trust,Willogoleche Wind Farm,Wind,119.0,84.71,Willogoleche Wind Farm,-33.39,138.85,2026-02-01T19:17:18.800663
2026/02/02 05:15:00,WOODLWN1,4.74,Woodlawn Wind Pty Ltd,Woodlawn Wind Farm,Wind,48.0,9.88,Woodlawn Wind Farm,-35.08,149.62,2026-02-01T19:17:18.800663
2026/02/02 05:15:00,WPWF,59.48,AGL SA Generation Pty Limited,Wattle Point Wind Farm,Wind,91.0,65.36,Wattle Point Wind Farm,-35.111624,137.7219,2026-02-01T19:17:18.800663
2026/02/02 05:15:00,WRWF1,15.13,White Rock Wind Farm Pty Ltd,White Rock Wind Farm,Wind,172.0,8.8,White Rock Wind Farm,-29.79,151.54,2026-02-01T19:17:18.800663
2026/02/02 05:15:00,YENDWF1,43.57,Lal Lal Wind Farms Nom Co Pty Ltd,Yendon Wind Farm,Wind,142.0,30.68,Yendon Wind Farm,-37.629987,144.022717,2026-02-01T19:17:18.800663
