SETTLEMENTDATE,DUID,SCADAVALUE,Participant,Station Name,Fuel Source - Primary,MAX_CAP,utilisation_pct,Plant,Latitude,Longitude,timestamp_utc
2026/02/27 20:55:00,CAPTL_WF,26.54,Iberdrola Australia Holdings Pty Limited,Capital Wind Farm,Wind,140.0,18.96,Capital Wind Farm,-35.1,149.31,2026-02-27T10:51:51.315291
2026/02/27 20:55:00,CHALLHWF,14.6,Pacific Hydro Challicum Hills Pty Ltd,Challicum Hills Wind Farm,Wind,52.0,28.08,Challicum Hills Wind Farm,-37.38,143.11,2026-02-27T10:51:51.315291
2026/02/27 20:55:00,CULLRGWF,8.82,Cullerin Range Wind Farm Pty Ltd,Cullerin Range Wind Farm,Wind,30.0,29.4,Cullerin Range Wind Farm,-34.81,149.4,2026-02-27T10:51:51.315291
2026/02/27 20:55:00,DIAPURWF1,4.1,Y.E.S. Energy (SA) Pty Ltd,Diapur Wind Farm,Wind,7.0,58.57,Diapur Wind Farm,-36.3425,141.43,2026-02-27T10:51:51.315291
2026/02/27 20:55:00,MLWF1,6.54,Mortons Lane Windfarm Pty Limited,Mortons Lane Wind Farm,Wind,20.0,32.7,Mortons Lane Wind Farm,-37.84,142.45,2026-02-27T10:51:51.315291
2026/02/27 20:55:00,WAUBRAWF,61.24,Pyrenees Wind Energy Developments Pty Ltd,Waubra Wind Farm,Wind,192.0,31.9,Waubra Wind Farm,-37.394498,143.638982,2026-02-27T10:51:51.315291
2026/02/27 20:55:00,WOOLNTH1,107.97,Hydro-Electric Corporation,Woolnorth Studland Bay / Bluff Point Wind Farm,Wind,140.0,77.12,Woolnorth Studland Bay / Bluff Point Wind Farm,-40.69,144.72,2026-02-27T10:51:51.315291
2026/02/27 20:55:00,YAMBUKWF,9.5,Energy Pacific (Vic) Pty Ltd,Yambuk Wind Farm,Wind,30.0,31.67,Yambuk Wind Farm,-38.299083,142.027577,2026-02-27T10:51:51.315291
2026/02/27 20:55:00,YSWF1,5.0,Pacific Hydro Yaloak South Pty Ltd,Yaloak South Wind Farm,Wind,28.0,17.86,Yaloak South Wind Farm,-37.7163,144.242853,2026-02-27T10:51:51.315291
2026/02/27 20:55:00,ARWF1,75.4,Ararat Wind Farm Pty Ltd,Ararat Wind Farm,Wind,241.0,31.29,Ararat Wind Farm,-37.232778,143.031389,2026-02-27T10:51:51.315291
2026/02/27 20:55:00,BALDHWF1,102.87,Alinta Energy Retail Sales Pty Ltd,Bald Hills Wind Farm,Wind,106.0,97.05,Bald Hills Wind Farm,-38.79,145.93,2026-02-27T10:51:51.315291
2026/02/27 20:55:00,BANGOWF1,147.4,BWF Nominees Pty Ltd as The Trustee for BWF Trust,Bango 973 Wind Farm,Wind,155.0,95.1,Bango 973 Wind Farm,-34.551582,148.732808,2026-02-27T10:51:51.315291
2026/02/27 20:55:00,BANGOWF2,82.3,BWF Nominees Pty Ltd as The Trustee for BWF Trust,Bango 999 Wind Farm,Wind,82.0,100.37,Bango 999 Wind Farm,-34.551582,148.732808,2026-02-27T10:51:51.315291
2026/02/27 20:55:00,BLUFF1,5.4,AGL SA Generation Pty Limited,The Bluff Wind Farm,Wind,53.0,10.19,The Bluff Wind Farm,-33.367778,138.728611,2026-02-27T10:51:51.315291
2026/02/27 20:55:00,BOCORWF1,22.97,Boco Rock Wind Farm Pty Ltd,Boco Rock Wind Farm,Wind,111.0,20.69,Boco Rock Wind Farm,-36.578611,149.103333,2026-02-27T10:51:51.315291
2026/02/27 20:55:00,BRYB1WF1,41.94,Berrybank Development Pty Ltd,Berrybank Wind Farm,Wind,175.9,23.84,Berrybank Wind Farm,-37.94,143.52,2026-02-27T10:51:51.315291
2026/02/27 20:55:00,BRYB2WF2,42.11,Berrybank 2 Asset Pty Ltd as trustee for Berrybank 2 Asset Trust,Berrybank 2 Wind Farm,Wind,105.0,40.1,Berrybank 2 Wind Farm,-37.94,143.52,2026-02-27T10:51:51.315291
2026/02/27 20:55:00,BULGANA1,75.17,Bulgana Wind Farm Pty Ltd,Bulgana Green Power Hub,Wind,204.0,36.85,Bulgana Green Power Hub,-37.0975,142.973611,2026-02-27T10:51:51.315291
2026/02/27 20:55:00,CATHROCK,9.9,Cathedral Rocks Wind Farm Pty Ltd,Cathedral Rocks,Wind,66.0,15.0,Cathedral Rocks,-34.51,135.35,2026-02-27T10:51:51.315291
2026/02/27 20:55:00,CHYTWF1,30.27,Cherry Tree Wind Farm Pty Ltd as trustee for The Cherry Tree Project trust ,Cherry Tree Wind Farm,Wind,57.0,53.11,Cherry Tree Wind Farm,-37.1,145.26,2026-02-27T10:51:51.315291
2026/02/27 20:55:00,CLEMGPWF,0.0,Pacific Hydro Clements Gap Pty Ltd,Clements Gap Wind Farm,Wind,57.0,0.0,Clements Gap Wind Farm,-33.48,138.1,2026-02-27T10:51:51.315291
2026/02/27 20:55:00,CLRKCWF1,87.49,Stanwell Corporation Limited ,Clarke Creek Wind Farm,Wind,338.0,25.88,Clarke Creek Wind Farm,-22.85,149.45,2026-02-27T10:51:51.315291
2026/02/27 20:55:00,CLRKCWF2,44.99,Stanwell Corporation Limited ,Clarke Creek Wind Farm,Wind,101.0,44.54,Clarke Creek Wind Farm,-22.85,149.45,2026-02-27T10:51:51.315291
2026/02/27 20:55:00,CNUNDAWF,15.12,Canunda Power Pty Ltd,Canunda Wind Farm,Wind,46.0,32.87,Canunda Wind Farm,-37.73,140.39,2026-02-27T10:51:51.315291
2026/02/27 20:55:00,COLWF01,34.66,Collector Wind Farm Pty Ltd,Collector Wind Farm 1,Wind,219.0,15.83,Collector Wind Farm 1,-34.8719,149.3967,2026-02-27T10:51:51.315291
2026/02/27 20:55:00,COOPGWF1,325.62,PARF Company 10 Pty Limited as The Trustee for Coopers Gap Project Trust,Coopers Gap Wind Farm,Wind,440.0,74.0,Coopers Gap Wind Farm,-26.74,151.45,2026-02-27T10:51:51.315291
2026/02/27 20:55:00,CROOKWF2,10.35,Crookwell Development Pty Ltd ,Crookwell 2 Wind Farm,Wind,91.0,11.37,Crookwell 2 Wind Farm,-34.52,149.54,2026-02-27T10:51:51.315291
2026/02/27 20:55:00,CROOKWF3,15.28,Crookwell 3 Development Pty Ltd,Crookwell 3 Wind Farm,Wind,56.0,27.29,Crookwell 3 Wind Farm,-34.52,149.54,2026-02-27T10:51:51.315291
2026/02/27 20:55:00,CROWLWF1,11.48,Pacific Hydro Crowlands Pty Ltd ,Crowlands Wind Farm,Wind,79.0,14.53,Crowlands Wind Farm,-37.13,143.16,2026-02-27T10:51:51.315291
2026/02/27 20:55:00,CRURWF1,104.3,CRWF Nominees Pty Ltd As Trustee For The CRWF Trust,Crudine Ridge Wind Farm,Wind,138.0,75.58,Crudine Ridge Wind Farm,-32.97,149.64,2026-02-27T10:51:51.315291
2026/02/27 20:55:00,CTHLWF1,39.19,Wild Cattle Hill Pty Ltd,Cattle Hill Wind Farm,Wind,144.0,27.22,Cattle Hill Wind Farm,-42.15,146.69,2026-02-27T10:51:51.315291
2026/02/27 20:55:00,DULAWF1,128.0,Dulacca Energy Project Co Pty Ltd,Dulacca Wind Farm,Wind,173.0,73.99,Dulacca Wind Farm,-26.63,149.87,2026-02-27T10:51:51.315291
2026/02/27 20:55:00,DUNDWF1,106.44,Dundonnell Wind Farm Pty Ltd,Dundonnell Wind Farm,Wind,168.0,63.36,Dundonnell Wind Farm,-37.52,142.58,2026-02-27T10:51:51.315291
2026/02/27 20:55:00,DUNDWF2,31.42,Dundonnell Wind Farm Pty Ltd,Dundonnell Wind Farm,Wind,46.0,68.3,Dundonnell Wind Farm,-37.52,142.58,2026-02-27T10:51:51.315291
2026/02/27 20:55:00,DUNDWF3,85.83,Dundonnell Wind Farm Pty Ltd,Dundonnell Wind Farm,Wind,122.0,70.35,Dundonnell Wind Farm,-37.52,142.58,2026-02-27T10:51:51.315291
2026/02/27 20:55:00,ELAINWF1,14.97,Lal Lal Wind Farms Nom Co Pty Ltd,Elaine Wind Farm,Wind,82.0,18.26,Elaine Wind Farm,-37.36,144.0,2026-02-27T10:51:51.315291
2026/02/27 20:55:00,FLYCRKWF,71.68,Iberdrola Australia Energy Markets Pty Limited,Flyers Creek Wind Farm,Wind,140.0,51.2,Flyers Creek Wind Farm,-33.365556,148.981944,2026-02-27T10:51:51.315291
2026/02/27 20:55:00,GPWFEST1,26.96,Golden Plains WF1 Pty Ltd as Trustee for the Golden Plains WF1 Unit Trust,Golden Plains Wind Farm East,Wind,240.0,11.23,Golden Plains Wind Farm East,-37.945091,143.752614,2026-02-27T10:51:51.315291
2026/02/27 20:55:00,GPWFEST2,32.74,Golden Plains WF1 Pty Ltd as Trustee for the Golden Plains WF1 Unit Trust,Golden Plains Wind Farm East,Wind,253.0,12.94,Golden Plains Wind Farm East,-37.945091,143.752614,2026-02-27T10:51:51.315291
2026/02/27 20:55:00,GPWFEST3,45.48,Golden Plains WF1 Pty Ltd as Trustee for the Golden Plains WF1 Unit Trust,Golden Plains Wind Farm East,Wind,240.0,18.95,Golden Plains Wind Farm East,-37.945091,143.752614,2026-02-27T10:51:51.315291
2026/02/27 20:55:00,GRANWF1,4.07,Granville Harbour Operations Pty Ltd as The Trustee for Granville Harbour Operations Trust,Granville Harbour Wind Farm,Wind,111.0,3.67,Granville Harbour Wind Farm,-41.8,145.06,2026-02-27T10:51:51.315291
2026/02/27 20:55:00,GSWF1A,27.85,Goyder Wind Farm 1 Pty Ltd as the Trustee for Goyder Wind Farm 1 Trust,Goyder South Wind Farm 1A,Wind,201.0,13.86,Goyder South Wind Farm 1A,-33.679758,138.937597,2026-02-27T10:51:51.315291
2026/02/27 20:55:00,GSWF1B1,18.82,Goyder Wind Farm 1B Pty Ltd as the Trustee for the Goyder Wind Farm 1B Trust,Goyder South Wind Farm 1B,Wind,196.0,9.6,Goyder South Wind Farm 1B,-33.679758,138.937597,2026-02-27T10:51:51.315291
2026/02/27 20:55:00,GULLRWF1,72.69,New Gullen Range Wind Farm Pty Ltd,Gullen Range Wind Farm,Wind,161.0,45.15,Gullen Range Wind Farm,-34.34,149.27,2026-02-27T10:51:51.315291
2026/02/27 20:55:00,GULLRWF2,92.03,New Gullen Range Wind Farm Pty Ltd,Gullen Range Wind Farm,Wind,107.0,86.01,Gullen Range Wind Farm,-34.34,149.27,2026-02-27T10:51:51.315291
2026/02/27 20:55:00,GUNNING1,23.63,Gunning Wind Energy Developments Pty Ltd,Gunning Wind Farm,Wind,47.0,50.28,Gunning Wind Farm,-34.813333,149.4,2026-02-27T10:51:51.315291
2026/02/27 20:55:00,HALLWF1,6.91,AGL SA Generation Pty Limited,Hallett 1 Wind Farm,Wind,95.0,7.27,Hallett 1 Wind Farm,-33.367778,138.728611,2026-02-27T10:51:51.315291
2026/02/27 20:55:00,HALLWF2,8.77,AGL SA Generation Pty Limited,Hallett 2 Wind Farm,Wind,71.0,12.35,Hallett 2 Wind Farm,-33.367778,138.728611,2026-02-27T10:51:51.315291
2026/02/27 20:55:00,HD1WF1,73.5,Hawkesdale Asset Pty Ltd as trustee for Hawkesdale Asset Trust,Hawkesdale Wind Farm,Wind,89.0,82.58,Hawkesdale Wind Farm,-38.147894,142.361381,2026-02-27T10:51:51.315291
2026/02/27 20:55:00,HDWF1,0.0,HWF1 Pty Ltd,Hornsdale Wind Farm,Wind,102.0,0.0,Hornsdale Wind Farm,-33.050556,138.543611,2026-02-27T10:51:51.315291
2026/02/27 20:55:00,HDWF2,0.1,HWF 2 Pty Ltd,Hornsdale Wind Farm 2,Wind,102.0,0.1,Hornsdale Wind Farm 2,-33.06,138.54,2026-02-27T10:51:51.315291
2026/02/27 20:55:00,HDWF3,1.0,HWF3 Pty Ltd,Hornsdale Wind Farm 3,Wind,109.0,0.92,Hornsdale Wind Farm 3,-33.06,138.54,2026-02-27T10:51:51.315291
2026/02/27 20:55:00,KABANWF1,23.4,Kaban Wind Farm Pty Ltd as trustee for Kaban Wind Farm Trust,Kaban Wind Farm,Wind,152.0,15.39,Kaban Wind Farm,-17.56,145.41,2026-02-27T10:51:51.315291
2026/02/27 20:55:00,KEPWF1,27.0,Kennedy Energy Park Pty Ltd,Kennedy Energy Park,Wind,43.0,62.79,Kennedy Energy Park,-20.88,144.42,2026-02-27T10:51:51.315291
2026/02/27 20:55:00,KIATAWF1,30.9,Kiata ProjectCo Pty Ltd Atf Kiata Project Trust,Kiata Wind Farm,Wind,31.0,99.68,Kiata Wind Farm,-36.4,141.75,2026-02-27T10:51:51.315291
2026/02/27 20:55:00,LGAPWF1,0.0,Lincoln Gap Wind Farm (Operations) Pty Ltd,Lincoln Gap Wind Farm,Wind,123.0,0.0,Lincoln Gap Wind Farm,-32.564279,137.557328,2026-02-27T10:51:51.315291
2026/02/27 20:55:00,LGAPWF1,0.0,Lincoln Gap Wind Farm (Operations) Pty Ltd,Lincoln Gap Wind Farm,Wind,123.0,0.0,Lincoln Gap Wind Farm,-32.564279,137.557328,2026-02-27T10:51:51.315291
2026/02/27 20:55:00,LGAPWF2,0.0,Lincoln Gap Wind Farm (Operations) Pty Ltd,Lincoln Gap Wind Farm,Wind,85.0,0.0,Lincoln Gap Wind Farm,-32.564279,137.557328,2026-02-27T10:51:51.315291
2026/02/27 20:55:00,LGAPWF2,0.0,Lincoln Gap Wind Farm (Operations) Pty Ltd,Lincoln Gap Wind Farm,Wind,85.0,0.0,Lincoln Gap Wind Farm,-32.564279,137.557328,2026-02-27T10:51:51.315291
2026/02/27 20:55:00,LKBONNY1,21.52,Lake Bonney Wind Power Pty Ltd,Lake Bonney Wind Farm Stage 1,Wind,81.0,26.57,Lake Bonney Wind Farm Stage 1,-37.76,140.4,2026-02-27T10:51:51.315291
2026/02/27 20:55:00,LKBONNY2,59.91,Lake Bonney Wind Power Pty Ltd,Lake Bonney Stage 2 Windfarm,Wind,159.0,37.68,Lake Bonney Stage 2 Windfarm,-37.76,140.4,2026-02-27T10:51:51.315291
2026/02/27 20:55:00,LKBONNY3,22.05,Lake Bonney Wind Power Pty Ltd,Lake Bonney Stage 3 Wind Farm,Wind,39.0,56.54,Lake Bonney Stage 3 Wind Farm,-37.737781,140.388137,2026-02-27T10:51:51.315291
2026/02/27 20:55:00,MACARTH1,171.4,AGL Hydro Partnership,Macarthur Wind Farm,Wind,420.0,40.81,Macarthur Wind Farm,-38.048957,142.192112,2026-02-27T10:51:51.315291
2026/02/27 20:55:00,MCINTYR1,387.11,MacIntyre UJV Operator Pty Ltd,MacIntyre Wind Farm,Wind,890.0,43.5,MacIntyre Wind Farm,-28.32,151.54,2026-02-27T10:51:51.315291
2026/02/27 20:55:00,MERCER01,17.2,Mt Mercer Windfarm Pty Ltd,Mt Mercer Wind Farm,Wind,131.0,13.13,Mt Mercer Wind Farm,-37.841111,143.871111,2026-02-27T10:51:51.315291
2026/02/27 20:55:00,MEWF1,45.0,Ergon Energy Queensland Pty Ltd ,Mount Emerald Wind Farm,Wind,178.0,25.28,Mount Emerald Wind Farm,-17.133007,145.380644,2026-02-27T10:51:51.315291
2026/02/27 20:55:00,MRTLSWF1,120.54,Mortlake South Wind Farm Pty Ltd,Mortlake South Wind Farm,Wind,153.0,78.78,Mortlake South Wind Farm,-38.127337,142.857801,2026-02-27T10:51:51.315291
2026/02/27 20:55:00,MTGELWF1,98.47,Mt. Gellibrand Wind Farm Pty Ltd,Mt Gellibrand Wind Farm,Wind,132.0,74.6,Mt Gellibrand Wind Farm,-38.23,143.77,2026-02-27T10:51:51.315291
2026/02/27 20:55:00,MTMILLAR,8.6,Mt Millar Wind Farm Pty Ltd,Mt Millar Wind Farm,Wind,70.0,12.29,Mt Millar Wind Farm,-33.624444,136.703611,2026-02-27T10:51:51.315291
2026/02/27 20:55:00,MUSSELR1,41.4,Hydro-Electric Corporation,Musselroe Wind Farm,Wind,168.0,24.64,Musselroe Wind Farm,-40.780225,148.010799,2026-02-27T10:51:51.315291
2026/02/27 20:55:00,MUWAWF1,161.65,Telstra Energy (Generation) Pty Ltd,Murra Warra Wind Farm,Wind,225.7,71.62,Murra Warra Wind Farm,-36.432404,142.317853,2026-02-27T10:51:51.315291
2026/02/27 20:55:00,MUWAWF2,36.5,Murra Warra II Project Co Pty Ltd ATF The Murra Warra II Project Trust,Murra Warra Wind Farm Stage 2,Wind,203.0,17.98,Murra Warra Wind Farm Stage 2,-36.43,142.32,2026-02-27T10:51:51.315291
2026/02/27 20:55:00,NBHWF1,14.8,AGL SA Generation Pty Limited,North Brown Hill Wind Farm,Wind,132.0,11.21,North Brown Hill Wind Farm,-33.367778,138.728611,2026-02-27T10:51:51.315291
2026/02/27 20:55:00,OAKLAND1,15.7,AGL Hydro Partnership,Oaklands Hill Wind Farm,Wind,63.0,24.92,Oaklands Hill Wind Farm,-37.683078,142.551678,2026-02-27T10:51:51.315291
2026/02/27 20:55:00,PAREPW1,3.2,Iberdrola Australia Energy Markets Pty Limited,Port Augusta Renewable Energy Park,Wind,201.0,1.59,Port Augusta Renewable Energy Park,-32.566944,137.856111,2026-02-27T10:51:51.315291
2026/02/27 20:55:00,RYANCWF1,79.26,Ryan Corner Development Pty Ltd,Ryan Corner Wind Farm,Wind,205.0,38.66,Ryan Corner Wind Farm,-38.271017,142.140647,2026-02-27T10:51:51.315291
2026/02/27 20:55:00,RYEPARK1,247.42,Rye Park Renewable Energy Pty Ltd as trustee for Rye Park Wind Farm Trust,Rye Park Renewable Energy,Wind,384.0,64.43,Rye Park Renewable Energy,-32.138333,148.972778,2026-02-27T10:51:51.315291
2026/02/27 20:55:00,SALTCRK1,18.61,Salt Creek Wind Farm Pty Ltd,Salt Creek Wind Farm,Wind,54.0,34.46,Salt Creek Wind Farm,-37.95,142.63,2026-02-27T10:51:51.315291
2026/02/27 20:55:00,SAPHWF1,261.65,The Trustee For The SWF1 Operations Trust,Sapphire Wind Farm,Wind,270.0,96.91,Sapphire Wind Farm,-29.7,151.41,2026-02-27T10:51:51.315291
2026/02/27 20:55:00,SNOWNTH1,5.4,Snowtown Wind Farm Stage 2 Pty Ltd,Snowtown Wind Farm Stage 2 North,Wind,144.0,3.75,Snowtown Wind Farm Stage 2 North,-33.83,138.118611,2026-02-27T10:51:51.315291
2026/02/27 20:55:00,SNOWSTH1,11.5,Snowtown Wind Farm Stage 2 Pty Ltd,Snowtown South Wind Farm,Wind,126.0,9.13,Snowtown South Wind Farm,-33.83,138.118611,2026-02-27T10:51:51.315291
2026/02/27 20:55:00,SNOWTWN1,3.5,Snowtown Wind Farm Pty Ltd,Snowtown Wind Farm Units 1 And 47,Wind,99.0,3.54,Snowtown Wind Farm Units 1 And 47,-33.83,138.118611,2026-02-27T10:51:51.315291
2026/02/27 20:55:00,STARHLWF,22.89,Starfish Hill Wind Farm Pty Ltd,Starfish Hill Wind Farm,Wind,35.0,65.4,Starfish Hill Wind Farm,-35.58,138.14,2026-02-27T10:51:51.315291
2026/02/27 20:55:00,STOCKYD1,265.22,Stockyard Hill Wind Farm Pty Ltd,Stockyard Hill Wind Farm,Wind,511.0,51.9,Stockyard Hill Wind Farm,-37.535833,143.251389,2026-02-27T10:51:51.315291
2026/02/27 20:55:00,STWF1,25.63,PARF Company 8 Pty Ltd as The Trustee for Silverton Project Trust,Silverton Wind Farm,Wind,198.0,12.94,Silverton Wind Farm,-37.683168,142.551678,2026-02-27T10:51:51.315291
2026/02/27 20:55:00,TARALGA1,14.4,Taralga Wind Farm Nominees No 2 Pty Ltd (ATF Taralga Wind Farm Operating Trust),Taralga Wind Farm,Wind,106.0,13.58,Taralga Wind Farm,-34.42352,149.826267,2026-02-27T10:51:51.315291
2026/02/27 20:55:00,WAMBOWF1,139.96,Stanwell Corporation Limited,Wambo Wind Farm 1,Wind,245.0,57.13,Wambo Wind Farm 1,-35.187301,149.524945,2026-02-27T10:51:51.315291
2026/02/27 20:55:00,WATERLWF,11.0,Waterloo Wind Farm Pty Ltd,Waterloo Wind Farm,Wind,130.0,8.46,Waterloo Wind Farm,-34.00094,138.911567,2026-02-27T10:51:51.315291
2026/02/27 20:55:00,WGWF1,19.8,Willogoleche Power Pty Ltd As The Trustee For The Willogoleche Operating Trust,Willogoleche Wind Farm,Wind,119.0,16.64,Willogoleche Wind Farm,-33.39,138.85,2026-02-27T10:51:51.315291
2026/02/27 20:55:00,WOODLWN1,1.67,Woodlawn Wind Pty Ltd,Woodlawn Wind Farm,Wind,48.0,3.48,Woodlawn Wind Farm,-35.08,149.62,2026-02-27T10:51:51.315291
2026/02/27 20:55:00,WPWF,55.31,AGL SA Generation Pty Limited,Wattle Point Wind Farm,Wind,91.0,60.78,Wattle Point Wind Farm,-35.111624,137.7219,2026-02-27T10:51:51.315291
2026/02/27 20:55:00,WRWF1,156.69,White Rock Wind Farm Pty Ltd,White Rock Wind Farm,Wind,172.0,91.1,White Rock Wind Farm,-29.79,151.54,2026-02-27T10:51:51.315291
2026/02/27 20:55:00,YENDWF1,18.95,Lal Lal Wind Farms Nom Co Pty Ltd,Yendon Wind Farm,Wind,142.0,13.35,Yendon Wind Farm,-37.629987,144.022717,2026-02-27T10:51:51.315291
