SETTLEMENTDATE,DUID,SCADAVALUE,Participant,Station Name,Fuel Source - Primary,MAX_CAP,utilisation_pct,Plant,Latitude,Longitude,timestamp_utc
2026/03/30 00:05:00,CAPTL_WF,6.95,Iberdrola Australia Holdings Pty Limited,Capital Wind Farm,Wind,140.0,4.96,Capital Wind Farm,-35.1,149.31,2026-03-29T14:02:39.715634
2026/03/30 00:05:00,CHALLHWF,12.4,Pacific Hydro Challicum Hills Pty Ltd,Challicum Hills Wind Farm,Wind,52.0,23.85,Challicum Hills Wind Farm,-37.38,143.11,2026-03-29T14:02:39.715634
2026/03/30 00:05:00,CULLRGWF,6.84,Cullerin Range Wind Farm Pty Ltd,Cullerin Range Wind Farm,Wind,30.0,22.8,Cullerin Range Wind Farm,-34.81,149.4,2026-03-29T14:02:39.715634
2026/03/30 00:05:00,DIAPURWF1,2.3,Y.E.S. Energy (SA) Pty Ltd,Diapur Wind Farm,Wind,7.0,32.86,Diapur Wind Farm,-36.3425,141.43,2026-03-29T14:02:39.715634
2026/03/30 00:05:00,MLWF1,6.1,Mortons Lane Windfarm Pty Limited,Mortons Lane Wind Farm,Wind,20.0,30.5,Mortons Lane Wind Farm,-37.84,142.45,2026-03-29T14:02:39.715634
2026/03/30 00:05:00,WAUBRAWF,3.41,Pyrenees Wind Energy Developments Pty Ltd,Waubra Wind Farm,Wind,192.0,1.78,Waubra Wind Farm,-37.394498,143.638982,2026-03-29T14:02:39.715634
2026/03/30 00:05:00,WOOLNTH1,-0.48,Hydro-Electric Corporation,Woolnorth Studland Bay / Bluff Point Wind Farm,Wind,140.0,-0.34,Woolnorth Studland Bay / Bluff Point Wind Farm,-40.69,144.72,2026-03-29T14:02:39.715634
2026/03/30 00:05:00,YAMBUKWF,4.6,Energy Pacific (Vic) Pty Ltd,Yambuk Wind Farm,Wind,30.0,15.33,Yambuk Wind Farm,-38.299083,142.027577,2026-03-29T14:02:39.715634
2026/03/30 00:05:00,YSWF1,0.0,Pacific Hydro Yaloak South Pty Ltd,Yaloak South Wind Farm,Wind,28.0,0.0,Yaloak South Wind Farm,-37.7163,144.242853,2026-03-29T14:02:39.715634
2026/03/30 00:05:00,ARWF1,23.8,Ararat Wind Farm Pty Ltd,Ararat Wind Farm,Wind,241.0,9.88,Ararat Wind Farm,-37.232778,143.031389,2026-03-29T14:02:39.715634
2026/03/30 00:05:00,BALDHWF1,0.0,Alinta Energy Retail Sales Pty Ltd,Bald Hills Wind Farm,Wind,106.0,0.0,Bald Hills Wind Farm,-38.79,145.93,2026-03-29T14:02:39.715634
2026/03/30 00:05:00,BANGOWF1,54.9,BWF Nominees Pty Ltd as The Trustee for BWF Trust,Bango 973 Wind Farm,Wind,155.0,35.42,Bango 973 Wind Farm,-34.551582,148.732808,2026-03-29T14:02:39.715634
2026/03/30 00:05:00,BANGOWF2,23.6,BWF Nominees Pty Ltd as The Trustee for BWF Trust,Bango 999 Wind Farm,Wind,82.0,28.78,Bango 999 Wind Farm,-34.551582,148.732808,2026-03-29T14:02:39.715634
2026/03/30 00:05:00,BLUFF1,2.5,AGL SA Generation Pty Limited,The Bluff Wind Farm,Wind,53.0,4.72,The Bluff Wind Farm,-33.367778,138.728611,2026-03-29T14:02:39.715634
2026/03/30 00:05:00,BOCORWF1,0.0,Boco Rock Wind Farm Pty Ltd,Boco Rock Wind Farm,Wind,111.0,0.0,Boco Rock Wind Farm,-36.578611,149.103333,2026-03-29T14:02:39.715634
2026/03/30 00:05:00,BRYB1WF1,71.18,Berrybank Development Pty Ltd,Berrybank Wind Farm,Wind,175.9,40.47,Berrybank Wind Farm,-37.94,143.52,2026-03-29T14:02:39.715634
2026/03/30 00:05:00,BRYB2WF2,47.14,Berrybank 2 Asset Pty Ltd as trustee for Berrybank 2 Asset Trust,Berrybank 2 Wind Farm,Wind,105.0,44.9,Berrybank 2 Wind Farm,-37.94,143.52,2026-03-29T14:02:39.715634
2026/03/30 00:05:00,BULGANA1,30.16,Bulgana Wind Farm Pty Ltd,Bulgana Green Power Hub,Wind,204.0,14.78,Bulgana Green Power Hub,-37.0975,142.973611,2026-03-29T14:02:39.715634
2026/03/30 00:05:00,CATHROCK,26.2,Cathedral Rocks Wind Farm Pty Ltd,Cathedral Rocks,Wind,66.0,39.7,Cathedral Rocks,-34.51,135.35,2026-03-29T14:02:39.715634
2026/03/30 00:05:00,CHYTWF1,0.92,Cherry Tree Wind Farm Pty Ltd as trustee for The Cherry Tree Project trust ,Cherry Tree Wind Farm,Wind,57.0,1.61,Cherry Tree Wind Farm,-37.1,145.26,2026-03-29T14:02:39.715634
2026/03/30 00:05:00,CLEMGPWF,5.33,Pacific Hydro Clements Gap Pty Ltd,Clements Gap Wind Farm,Wind,57.0,9.35,Clements Gap Wind Farm,-33.48,138.1,2026-03-29T14:02:39.715634
2026/03/30 00:05:00,CLRKCWF1,237.23,Stanwell Corporation Limited ,Clarke Creek Wind Farm,Wind,338.0,70.19,Clarke Creek Wind Farm,-22.85,149.45,2026-03-29T14:02:39.715634
2026/03/30 00:05:00,CLRKCWF2,75.34,Stanwell Corporation Limited ,Clarke Creek Wind Farm,Wind,101.0,74.59,Clarke Creek Wind Farm,-22.85,149.45,2026-03-29T14:02:39.715634
2026/03/30 00:05:00,CNUNDAWF,4.31,Canunda Power Pty Ltd,Canunda Wind Farm,Wind,46.0,9.37,Canunda Wind Farm,-37.73,140.39,2026-03-29T14:02:39.715634
2026/03/30 00:05:00,COLWF01,29.29,Collector Wind Farm Pty Ltd,Collector Wind Farm 1,Wind,219.0,13.37,Collector Wind Farm 1,-34.8719,149.3967,2026-03-29T14:02:39.715634
2026/03/30 00:05:00,COOPGWF1,373.78,PARF Company 10 Pty Limited as The Trustee for Coopers Gap Project Trust,Coopers Gap Wind Farm,Wind,440.0,84.95,Coopers Gap Wind Farm,-26.74,151.45,2026-03-29T14:02:39.715634
2026/03/30 00:05:00,CROOKWF2,18.27,Crookwell Development Pty Ltd ,Crookwell 2 Wind Farm,Wind,91.0,20.08,Crookwell 2 Wind Farm,-34.52,149.54,2026-03-29T14:02:39.715634
2026/03/30 00:05:00,CROOKWF3,11.95,Crookwell 3 Development Pty Ltd,Crookwell 3 Wind Farm,Wind,56.0,21.34,Crookwell 3 Wind Farm,-34.52,149.54,2026-03-29T14:02:39.715634
2026/03/30 00:05:00,CROWLWF1,8.46,Pacific Hydro Crowlands Pty Ltd ,Crowlands Wind Farm,Wind,79.0,10.71,Crowlands Wind Farm,-37.13,143.16,2026-03-29T14:02:39.715634
2026/03/30 00:05:00,CRURWF1,59.8,CRWF Nominees Pty Ltd As Trustee For The CRWF Trust,Crudine Ridge Wind Farm,Wind,138.0,43.33,Crudine Ridge Wind Farm,-32.97,149.64,2026-03-29T14:02:39.715634
2026/03/30 00:05:00,CTHLWF1,26.14,Wild Cattle Hill Pty Ltd,Cattle Hill Wind Farm,Wind,144.0,18.15,Cattle Hill Wind Farm,-42.15,146.69,2026-03-29T14:02:39.715634
2026/03/30 00:05:00,DULAWF1,165.7,Dulacca Energy Project Co Pty Ltd,Dulacca Wind Farm,Wind,173.0,95.78,Dulacca Wind Farm,-26.63,149.87,2026-03-29T14:02:39.715634
2026/03/30 00:05:00,DUNDWF1,45.96,Dundonnell Wind Farm Pty Ltd,Dundonnell Wind Farm,Wind,168.0,27.36,Dundonnell Wind Farm,-37.52,142.58,2026-03-29T14:02:39.715634
2026/03/30 00:05:00,DUNDWF2,13.97,Dundonnell Wind Farm Pty Ltd,Dundonnell Wind Farm,Wind,46.0,30.37,Dundonnell Wind Farm,-37.52,142.58,2026-03-29T14:02:39.715634
2026/03/30 00:05:00,DUNDWF3,25.4,Dundonnell Wind Farm Pty Ltd,Dundonnell Wind Farm,Wind,122.0,20.82,Dundonnell Wind Farm,-37.52,142.58,2026-03-29T14:02:39.715634
2026/03/30 00:05:00,ELAINWF1,9.53,Lal Lal Wind Farms Nom Co Pty Ltd,Elaine Wind Farm,Wind,82.0,11.62,Elaine Wind Farm,-37.36,144.0,2026-03-29T14:02:39.715634
2026/03/30 00:05:00,FLYCRKWF,89.72,Iberdrola Australia Energy Markets Pty Limited,Flyers Creek Wind Farm,Wind,140.0,64.09,Flyers Creek Wind Farm,-33.365556,148.981944,2026-03-29T14:02:39.715634
2026/03/30 00:05:00,GPWFEST1,101.08,Golden Plains WF1 Pty Ltd as Trustee for the Golden Plains WF1 Unit Trust,Golden Plains Wind Farm East,Wind,240.0,42.12,Golden Plains Wind Farm East,-37.945091,143.752614,2026-03-29T14:02:39.715634
2026/03/30 00:05:00,GPWFEST2,108.74,Golden Plains WF1 Pty Ltd as Trustee for the Golden Plains WF1 Unit Trust,Golden Plains Wind Farm East,Wind,253.0,42.98,Golden Plains Wind Farm East,-37.945091,143.752614,2026-03-29T14:02:39.715634
2026/03/30 00:05:00,GPWFEST3,113.57,Golden Plains WF1 Pty Ltd as Trustee for the Golden Plains WF1 Unit Trust,Golden Plains Wind Farm East,Wind,240.0,47.32,Golden Plains Wind Farm East,-37.945091,143.752614,2026-03-29T14:02:39.715634
2026/03/30 00:05:00,GRANWF1,0.0,Granville Harbour Operations Pty Ltd as The Trustee for Granville Harbour Operations Trust,Granville Harbour Wind Farm,Wind,111.0,0.0,Granville Harbour Wind Farm,-41.8,145.06,2026-03-29T14:02:39.715634
2026/03/30 00:05:00,GSWF1A,64.94,Goyder Wind Farm 1 Pty Ltd as the Trustee for Goyder Wind Farm 1 Trust,Goyder South Wind Farm 1A,Wind,201.0,32.31,Goyder South Wind Farm 1A,-33.679758,138.937597,2026-03-29T14:02:39.715634
2026/03/30 00:05:00,GSWF1B1,63.73,Goyder Wind Farm 1B Pty Ltd as the Trustee for the Goyder Wind Farm 1B Trust,Goyder South Wind Farm 1B,Wind,196.0,32.52,Goyder South Wind Farm 1B,-33.679758,138.937597,2026-03-29T14:02:39.715634
2026/03/30 00:05:00,GULLRWF1,15.5,New Gullen Range Wind Farm Pty Ltd,Gullen Range Wind Farm,Wind,161.0,9.63,Gullen Range Wind Farm,-34.34,149.27,2026-03-29T14:02:39.715634
2026/03/30 00:05:00,GULLRWF2,41.52,New Gullen Range Wind Farm Pty Ltd,Gullen Range Wind Farm,Wind,107.0,38.8,Gullen Range Wind Farm,-34.34,149.27,2026-03-29T14:02:39.715634
2026/03/30 00:05:00,GUNNING1,17.3,Gunning Wind Energy Developments Pty Ltd,Gunning Wind Farm,Wind,47.0,36.81,Gunning Wind Farm,-34.813333,149.4,2026-03-29T14:02:39.715634
2026/03/30 00:05:00,HALLWF1,18.25,AGL SA Generation Pty Limited,Hallett 1 Wind Farm,Wind,95.0,19.21,Hallett 1 Wind Farm,-33.367778,138.728611,2026-03-29T14:02:39.715634
2026/03/30 00:05:00,HALLWF2,7.55,AGL SA Generation Pty Limited,Hallett 2 Wind Farm,Wind,71.0,10.63,Hallett 2 Wind Farm,-33.367778,138.728611,2026-03-29T14:02:39.715634
2026/03/30 00:05:00,HD1WF1,59.53,Hawkesdale Asset Pty Ltd as trustee for Hawkesdale Asset Trust,Hawkesdale Wind Farm,Wind,89.0,66.89,Hawkesdale Wind Farm,-38.147894,142.361381,2026-03-29T14:02:39.715634
2026/03/30 00:05:00,HDWF1,24.8,HWF1 Pty Ltd,Hornsdale Wind Farm,Wind,102.0,24.31,Hornsdale Wind Farm,-33.050556,138.543611,2026-03-29T14:02:39.715634
2026/03/30 00:05:00,HDWF2,16.2,HWF 2 Pty Ltd,Hornsdale Wind Farm 2,Wind,102.0,15.88,Hornsdale Wind Farm 2,-33.06,138.54,2026-03-29T14:02:39.715634
2026/03/30 00:05:00,HDWF3,15.8,HWF3 Pty Ltd,Hornsdale Wind Farm 3,Wind,109.0,14.5,Hornsdale Wind Farm 3,-33.06,138.54,2026-03-29T14:02:39.715634
2026/03/30 00:05:00,KABANWF1,72.44,Kaban Wind Farm Pty Ltd as trustee for Kaban Wind Farm Trust,Kaban Wind Farm,Wind,152.0,47.66,Kaban Wind Farm,-17.56,145.41,2026-03-29T14:02:39.715634
2026/03/30 00:05:00,KEPWF1,27.2,Kennedy Energy Park Pty Ltd,Kennedy Energy Park,Wind,43.0,63.26,Kennedy Energy Park,-20.88,144.42,2026-03-29T14:02:39.715634
2026/03/30 00:05:00,KIATAWF1,2.6,Kiata ProjectCo Pty Ltd Atf Kiata Project Trust,Kiata Wind Farm,Wind,31.0,8.39,Kiata Wind Farm,-36.4,141.75,2026-03-29T14:02:39.715634
2026/03/30 00:05:00,LGAPWF1,9.95,Lincoln Gap Wind Farm (Operations) Pty Ltd,Lincoln Gap Wind Farm,Wind,123.0,8.09,Lincoln Gap Wind Farm,-32.564279,137.557328,2026-03-29T14:02:39.715634
2026/03/30 00:05:00,LGAPWF1,9.95,Lincoln Gap Wind Farm (Operations) Pty Ltd,Lincoln Gap Wind Farm,Wind,123.0,8.09,Lincoln Gap Wind Farm,-32.564279,137.557328,2026-03-29T14:02:39.715634
2026/03/30 00:05:00,LGAPWF2,12.43,Lincoln Gap Wind Farm (Operations) Pty Ltd,Lincoln Gap Wind Farm,Wind,85.0,14.62,Lincoln Gap Wind Farm,-32.564279,137.557328,2026-03-29T14:02:39.715634
2026/03/30 00:05:00,LGAPWF2,12.43,Lincoln Gap Wind Farm (Operations) Pty Ltd,Lincoln Gap Wind Farm,Wind,85.0,14.62,Lincoln Gap Wind Farm,-32.564279,137.557328,2026-03-29T14:02:39.715634
2026/03/30 00:05:00,LKBONNY1,6.88,Lake Bonney Wind Power Pty Ltd,Lake Bonney Wind Farm Stage 1,Wind,81.0,8.49,Lake Bonney Wind Farm Stage 1,-37.76,140.4,2026-03-29T14:02:39.715634
2026/03/30 00:05:00,LKBONNY2,19.93,Lake Bonney Wind Power Pty Ltd,Lake Bonney Stage 2 Windfarm,Wind,159.0,12.53,Lake Bonney Stage 2 Windfarm,-37.76,140.4,2026-03-29T14:02:39.715634
2026/03/30 00:05:00,LKBONNY3,8.6,Lake Bonney Wind Power Pty Ltd,Lake Bonney Stage 3 Wind Farm,Wind,39.0,22.05,Lake Bonney Stage 3 Wind Farm,-37.737781,140.388137,2026-03-29T14:02:39.715634
2026/03/30 00:05:00,MACARTH1,98.7,AGL Hydro Partnership,Macarthur Wind Farm,Wind,420.0,23.5,Macarthur Wind Farm,-38.048957,142.192112,2026-03-29T14:02:39.715634
2026/03/30 00:05:00,MCINTYR1,382.42,MacIntyre UJV Operator Pty Ltd,MacIntyre Wind Farm,Wind,890.0,42.97,MacIntyre Wind Farm,-28.32,151.54,2026-03-29T14:02:39.715634
2026/03/30 00:05:00,MERCER01,35.2,Mt Mercer Windfarm Pty Ltd,Mt Mercer Wind Farm,Wind,131.0,26.87,Mt Mercer Wind Farm,-37.841111,143.871111,2026-03-29T14:02:39.715634
2026/03/30 00:05:00,MEWF1,59.88,Ergon Energy Queensland Pty Ltd ,Mount Emerald Wind Farm,Wind,178.0,33.64,Mount Emerald Wind Farm,-17.133007,145.380644,2026-03-29T14:02:39.715634
2026/03/30 00:05:00,MRTLSWF1,137.18,Mortlake South Wind Farm Pty Ltd,Mortlake South Wind Farm,Wind,153.0,89.66,Mortlake South Wind Farm,-38.127337,142.857801,2026-03-29T14:02:39.715634
2026/03/30 00:05:00,MTGELWF1,36.0,Mt. Gellibrand Wind Farm Pty Ltd,Mt Gellibrand Wind Farm,Wind,132.0,27.27,Mt Gellibrand Wind Farm,-38.23,143.77,2026-03-29T14:02:39.715634
2026/03/30 00:05:00,MTMILLAR,62.4,Mt Millar Wind Farm Pty Ltd,Mt Millar Wind Farm,Wind,70.0,89.14,Mt Millar Wind Farm,-33.624444,136.703611,2026-03-29T14:02:39.715634
2026/03/30 00:05:00,MUSSELR1,8.2,Hydro-Electric Corporation,Musselroe Wind Farm,Wind,168.0,4.88,Musselroe Wind Farm,-40.780225,148.010799,2026-03-29T14:02:39.715634
2026/03/30 00:05:00,MUWAWF1,8.08,Telstra Energy (Generation) Pty Ltd,Murra Warra Wind Farm,Wind,225.7,3.58,Murra Warra Wind Farm,-36.432404,142.317853,2026-03-29T14:02:39.715634
2026/03/30 00:05:00,MUWAWF2,19.0,Murra Warra II Project Co Pty Ltd ATF The Murra Warra II Project Trust,Murra Warra Wind Farm Stage 2,Wind,203.0,9.36,Murra Warra Wind Farm Stage 2,-36.43,142.32,2026-03-29T14:02:39.715634
2026/03/30 00:05:00,NBHWF1,29.0,AGL SA Generation Pty Limited,North Brown Hill Wind Farm,Wind,132.0,21.97,North Brown Hill Wind Farm,-33.367778,138.728611,2026-03-29T14:02:39.715634
2026/03/30 00:05:00,OAKLAND1,6.0,AGL Hydro Partnership,Oaklands Hill Wind Farm,Wind,63.0,9.52,Oaklands Hill Wind Farm,-37.683078,142.551678,2026-03-29T14:02:39.715634
2026/03/30 00:05:00,PAREPW1,24.54,Iberdrola Australia Energy Markets Pty Limited,Port Augusta Renewable Energy Park,Wind,201.0,12.21,Port Augusta Renewable Energy Park,-32.566944,137.856111,2026-03-29T14:02:39.715634
2026/03/30 00:05:00,RYANCWF1,88.25,Ryan Corner Development Pty Ltd,Ryan Corner Wind Farm,Wind,205.0,43.05,Ryan Corner Wind Farm,-38.271017,142.140647,2026-03-29T14:02:39.715634
2026/03/30 00:05:00,RYEPARK1,110.84,Rye Park Renewable Energy Pty Ltd as trustee for Rye Park Wind Farm Trust,Rye Park Renewable Energy,Wind,384.0,28.86,Rye Park Renewable Energy,-32.138333,148.972778,2026-03-29T14:02:39.715634
2026/03/30 00:05:00,SALTCRK1,19.23,Salt Creek Wind Farm Pty Ltd,Salt Creek Wind Farm,Wind,54.0,35.61,Salt Creek Wind Farm,-37.95,142.63,2026-03-29T14:02:39.715634
2026/03/30 00:05:00,SAPHWF1,230.9,The Trustee For The SWF1 Operations Trust,Sapphire Wind Farm,Wind,270.0,85.52,Sapphire Wind Farm,-29.7,151.41,2026-03-29T14:02:39.715634
2026/03/30 00:05:00,SNOWNTH1,12.0,Snowtown Wind Farm Stage 2 Pty Ltd,Snowtown Wind Farm Stage 2 North,Wind,144.0,8.33,Snowtown Wind Farm Stage 2 North,-33.83,138.118611,2026-03-29T14:02:39.715634
2026/03/30 00:05:00,SNOWSTH1,8.0,Snowtown Wind Farm Stage 2 Pty Ltd,Snowtown South Wind Farm,Wind,126.0,6.35,Snowtown South Wind Farm,-33.83,138.118611,2026-03-29T14:02:39.715634
2026/03/30 00:05:00,SNOWTWN1,6.05,Snowtown Wind Farm Pty Ltd,Snowtown Wind Farm Units 1 And 47,Wind,99.0,6.11,Snowtown Wind Farm Units 1 And 47,-33.83,138.118611,2026-03-29T14:02:39.715634
2026/03/30 00:05:00,STARHLWF,7.4,Starfish Hill Wind Farm Pty Ltd,Starfish Hill Wind Farm,Wind,35.0,21.14,Starfish Hill Wind Farm,-35.58,138.14,2026-03-29T14:02:39.715634
2026/03/30 00:05:00,STOCKYD1,90.11,Stockyard Hill Wind Farm Pty Ltd,Stockyard Hill Wind Farm,Wind,511.0,17.63,Stockyard Hill Wind Farm,-37.535833,143.251389,2026-03-29T14:02:39.715634
2026/03/30 00:05:00,STWF1,24.23,PARF Company 8 Pty Ltd as The Trustee for Silverton Project Trust,Silverton Wind Farm,Wind,198.0,12.24,Silverton Wind Farm,-37.683168,142.551678,2026-03-29T14:02:39.715634
2026/03/30 00:05:00,TARALGA1,10.36,Taralga Wind Farm Nominees No 2 Pty Ltd (ATF Taralga Wind Farm Operating Trust),Taralga Wind Farm,Wind,106.0,9.77,Taralga Wind Farm,-34.42352,149.826267,2026-03-29T14:02:39.715634
2026/03/30 00:05:00,WAMBOWF1,239.36,Stanwell Corporation Limited,Wambo Wind Farm 1,Wind,245.0,97.7,Wambo Wind Farm 1,-35.187301,149.524945,2026-03-29T14:02:39.715634
2026/03/30 00:05:00,WATERLWF,27.5,Waterloo Wind Farm Pty Ltd,Waterloo Wind Farm,Wind,130.0,21.15,Waterloo Wind Farm,-34.00094,138.911567,2026-03-29T14:02:39.715634
2026/03/30 00:05:00,WGWF1,15.1,Willogoleche Power Pty Ltd As The Trustee For The Willogoleche Operating Trust,Willogoleche Wind Farm,Wind,119.0,12.69,Willogoleche Wind Farm,-33.39,138.85,2026-03-29T14:02:39.715634
2026/03/30 00:05:00,WOODLWN1,7.22,Woodlawn Wind Pty Ltd,Woodlawn Wind Farm,Wind,48.0,15.04,Woodlawn Wind Farm,-35.08,149.62,2026-03-29T14:02:39.715634
2026/03/30 00:05:00,WPWF,24.14,AGL SA Generation Pty Limited,Wattle Point Wind Farm,Wind,91.0,26.53,Wattle Point Wind Farm,-35.111624,137.7219,2026-03-29T14:02:39.715634
2026/03/30 00:05:00,WRWF1,105.26,White Rock Wind Farm Pty Ltd,White Rock Wind Farm,Wind,172.0,61.2,White Rock Wind Farm,-29.79,151.54,2026-03-29T14:02:39.715634
2026/03/30 00:05:00,YENDWF1,0.26,Lal Lal Wind Farms Nom Co Pty Ltd,Yendon Wind Farm,Wind,142.0,0.18,Yendon Wind Farm,-37.629987,144.022717,2026-03-29T14:02:39.715634
