SETTLEMENTDATE,DUID,SCADAVALUE,Participant,Station Name,Fuel Source - Primary,MAX_CAP,utilisation_pct,Plant,Latitude,Longitude,timestamp_utc
2026/02/15 06:55:00,CAPTL_WF,8.06,Iberdrola Australia Holdings Pty Limited,Capital Wind Farm,Wind,140.0,5.76,Capital Wind Farm,-35.1,149.31,2026-02-14T20:58:18.796653
2026/02/15 06:55:00,CHALLHWF,1.0,Pacific Hydro Challicum Hills Pty Ltd,Challicum Hills Wind Farm,Wind,52.0,1.92,Challicum Hills Wind Farm,-37.38,143.11,2026-02-14T20:58:18.796653
2026/02/15 06:55:00,CULLRGWF,9.8,Cullerin Range Wind Farm Pty Ltd,Cullerin Range Wind Farm,Wind,30.0,32.67,Cullerin Range Wind Farm,-34.81,149.4,2026-02-14T20:58:18.796653
2026/02/15 06:55:00,DIAPURWF1,8.2,Y.E.S. Energy (SA) Pty Ltd,Diapur Wind Farm,Wind,7.0,117.14,Diapur Wind Farm,-36.3425,141.43,2026-02-14T20:58:18.796653
2026/02/15 06:55:00,MLWF1,2.72,Mortons Lane Windfarm Pty Limited,Mortons Lane Wind Farm,Wind,20.0,13.6,Mortons Lane Wind Farm,-37.84,142.45,2026-02-14T20:58:18.796653
2026/02/15 06:55:00,WAUBRAWF,62.7,Pyrenees Wind Energy Developments Pty Ltd,Waubra Wind Farm,Wind,192.0,32.66,Waubra Wind Farm,-37.394498,143.638982,2026-02-14T20:58:18.796653
2026/02/15 06:55:00,WOOLNTH1,41.0,Hydro-Electric Corporation,Woolnorth Studland Bay / Bluff Point Wind Farm,Wind,140.0,29.29,Woolnorth Studland Bay / Bluff Point Wind Farm,-40.69,144.72,2026-02-14T20:58:18.796653
2026/02/15 06:55:00,YAMBUKWF,5.6,Energy Pacific (Vic) Pty Ltd,Yambuk Wind Farm,Wind,30.0,18.67,Yambuk Wind Farm,-38.299083,142.027577,2026-02-14T20:58:18.796653
2026/02/15 06:55:00,YSWF1,0.0,Pacific Hydro Yaloak South Pty Ltd,Yaloak South Wind Farm,Wind,28.0,0.0,Yaloak South Wind Farm,-37.7163,144.242853,2026-02-14T20:58:18.796653
2026/02/15 06:55:00,ARWF1,5.1,Ararat Wind Farm Pty Ltd,Ararat Wind Farm,Wind,241.0,2.12,Ararat Wind Farm,-37.232778,143.031389,2026-02-14T20:58:18.796653
2026/02/15 06:55:00,BALDHWF1,37.45,Alinta Energy Retail Sales Pty Ltd,Bald Hills Wind Farm,Wind,106.0,35.33,Bald Hills Wind Farm,-38.79,145.93,2026-02-14T20:58:18.796653
2026/02/15 06:55:00,BANGOWF1,45.3,BWF Nominees Pty Ltd as The Trustee for BWF Trust,Bango 973 Wind Farm,Wind,155.0,29.23,Bango 973 Wind Farm,-34.551582,148.732808,2026-02-14T20:58:18.796653
2026/02/15 06:55:00,BANGOWF2,31.8,BWF Nominees Pty Ltd as The Trustee for BWF Trust,Bango 999 Wind Farm,Wind,82.0,38.78,Bango 999 Wind Farm,-34.551582,148.732808,2026-02-14T20:58:18.796653
2026/02/15 06:55:00,BLUFF1,1.2,AGL SA Generation Pty Limited,The Bluff Wind Farm,Wind,53.0,2.26,The Bluff Wind Farm,-33.367778,138.728611,2026-02-14T20:58:18.796653
2026/02/15 06:55:00,BOCORWF1,28.39,Boco Rock Wind Farm Pty Ltd,Boco Rock Wind Farm,Wind,111.0,25.58,Boco Rock Wind Farm,-36.578611,149.103333,2026-02-14T20:58:18.796653
2026/02/15 06:55:00,BRYB1WF1,28.25,Berrybank Development Pty Ltd,Berrybank Wind Farm,Wind,175.9,16.06,Berrybank Wind Farm,-37.94,143.52,2026-02-14T20:58:18.796653
2026/02/15 06:55:00,BRYB2WF2,22.61,Berrybank 2 Asset Pty Ltd as trustee for Berrybank 2 Asset Trust,Berrybank 2 Wind Farm,Wind,105.0,21.53,Berrybank 2 Wind Farm,-37.94,143.52,2026-02-14T20:58:18.796653
2026/02/15 06:55:00,BULGANA1,0.12,Bulgana Wind Farm Pty Ltd,Bulgana Green Power Hub,Wind,204.0,0.06,Bulgana Green Power Hub,-37.0975,142.973611,2026-02-14T20:58:18.796653
2026/02/15 06:55:00,CATHROCK,54.2,Cathedral Rocks Wind Farm Pty Ltd,Cathedral Rocks,Wind,66.0,82.12,Cathedral Rocks,-34.51,135.35,2026-02-14T20:58:18.796653
2026/02/15 06:55:00,CHYTWF1,5.13,Cherry Tree Wind Farm Pty Ltd as trustee for The Cherry Tree Project trust ,Cherry Tree Wind Farm,Wind,57.0,9.0,Cherry Tree Wind Farm,-37.1,145.26,2026-02-14T20:58:18.796653
2026/02/15 06:55:00,CLEMGPWF,36.38,Pacific Hydro Clements Gap Pty Ltd,Clements Gap Wind Farm,Wind,57.0,63.82,Clements Gap Wind Farm,-33.48,138.1,2026-02-14T20:58:18.796653
2026/02/15 06:55:00,CLRKCWF1,110.46,Stanwell Corporation Limited ,Clarke Creek Wind Farm,Wind,338.0,32.68,Clarke Creek Wind Farm,-22.85,149.45,2026-02-14T20:58:18.796653
2026/02/15 06:55:00,CLRKCWF2,29.47,Stanwell Corporation Limited ,Clarke Creek Wind Farm,Wind,101.0,29.18,Clarke Creek Wind Farm,-22.85,149.45,2026-02-14T20:58:18.796653
2026/02/15 06:55:00,CNUNDAWF,28.73,Canunda Power Pty Ltd,Canunda Wind Farm,Wind,46.0,62.46,Canunda Wind Farm,-37.73,140.39,2026-02-14T20:58:18.796653
2026/02/15 06:55:00,COLWF01,50.24,Collector Wind Farm Pty Ltd,Collector Wind Farm 1,Wind,219.0,22.94,Collector Wind Farm 1,-34.8719,149.3967,2026-02-14T20:58:18.796653
2026/02/15 06:55:00,COOPGWF1,347.1,PARF Company 10 Pty Limited as The Trustee for Coopers Gap Project Trust,Coopers Gap Wind Farm,Wind,440.0,78.89,Coopers Gap Wind Farm,-26.74,151.45,2026-02-14T20:58:18.796653
2026/02/15 06:55:00,CROOKWF2,3.18,Crookwell Development Pty Ltd ,Crookwell 2 Wind Farm,Wind,91.0,3.49,Crookwell 2 Wind Farm,-34.52,149.54,2026-02-14T20:58:18.796653
2026/02/15 06:55:00,CROOKWF3,5.93,Crookwell 3 Development Pty Ltd,Crookwell 3 Wind Farm,Wind,56.0,10.59,Crookwell 3 Wind Farm,-34.52,149.54,2026-02-14T20:58:18.796653
2026/02/15 06:55:00,CROWLWF1,28.53,Pacific Hydro Crowlands Pty Ltd ,Crowlands Wind Farm,Wind,79.0,36.11,Crowlands Wind Farm,-37.13,143.16,2026-02-14T20:58:18.796653
2026/02/15 06:55:00,CRURWF1,34.1,CRWF Nominees Pty Ltd As Trustee For The CRWF Trust,Crudine Ridge Wind Farm,Wind,138.0,24.71,Crudine Ridge Wind Farm,-32.97,149.64,2026-02-14T20:58:18.796653
2026/02/15 06:55:00,CTHLWF1,0.0,Wild Cattle Hill Pty Ltd,Cattle Hill Wind Farm,Wind,144.0,0.0,Cattle Hill Wind Farm,-42.15,146.69,2026-02-14T20:58:18.796653
2026/02/15 06:55:00,DULAWF1,86.7,Dulacca Energy Project Co Pty Ltd,Dulacca Wind Farm,Wind,173.0,50.12,Dulacca Wind Farm,-26.63,149.87,2026-02-14T20:58:18.796653
2026/02/15 06:55:00,DUNDWF1,45.34,Dundonnell Wind Farm Pty Ltd,Dundonnell Wind Farm,Wind,168.0,26.99,Dundonnell Wind Farm,-37.52,142.58,2026-02-14T20:58:18.796653
2026/02/15 06:55:00,DUNDWF2,14.43,Dundonnell Wind Farm Pty Ltd,Dundonnell Wind Farm,Wind,46.0,31.37,Dundonnell Wind Farm,-37.52,142.58,2026-02-14T20:58:18.796653
2026/02/15 06:55:00,DUNDWF3,35.86,Dundonnell Wind Farm Pty Ltd,Dundonnell Wind Farm,Wind,122.0,29.39,Dundonnell Wind Farm,-37.52,142.58,2026-02-14T20:58:18.796653
2026/02/15 06:55:00,ELAINWF1,0.58,Lal Lal Wind Farms Nom Co Pty Ltd,Elaine Wind Farm,Wind,82.0,0.71,Elaine Wind Farm,-37.36,144.0,2026-02-14T20:58:18.796653
2026/02/15 06:55:00,FLYCRKWF,43.29,Iberdrola Australia Energy Markets Pty Limited,Flyers Creek Wind Farm,Wind,140.0,30.92,Flyers Creek Wind Farm,-33.365556,148.981944,2026-02-14T20:58:18.796653
2026/02/15 06:55:00,GPWFEST1,11.44,Golden Plains WF1 Pty Ltd as Trustee for the Golden Plains WF1 Unit Trust,Golden Plains Wind Farm East,Wind,240.0,4.77,Golden Plains Wind Farm East,-37.945091,143.752614,2026-02-14T20:58:18.796653
2026/02/15 06:55:00,GPWFEST2,37.64,Golden Plains WF1 Pty Ltd as Trustee for the Golden Plains WF1 Unit Trust,Golden Plains Wind Farm East,Wind,253.0,14.88,Golden Plains Wind Farm East,-37.945091,143.752614,2026-02-14T20:58:18.796653
2026/02/15 06:55:00,GPWFEST3,33.1,Golden Plains WF1 Pty Ltd as Trustee for the Golden Plains WF1 Unit Trust,Golden Plains Wind Farm East,Wind,240.0,13.79,Golden Plains Wind Farm East,-37.945091,143.752614,2026-02-14T20:58:18.796653
2026/02/15 06:55:00,GRANWF1,1.05,Granville Harbour Operations Pty Ltd as The Trustee for Granville Harbour Operations Trust,Granville Harbour Wind Farm,Wind,111.0,0.95,Granville Harbour Wind Farm,-41.8,145.06,2026-02-14T20:58:18.796653
2026/02/15 06:55:00,GSWF1A,105.68,Goyder Wind Farm 1 Pty Ltd as the Trustee for Goyder Wind Farm 1 Trust,Goyder South Wind Farm 1A,Wind,201.0,52.58,Goyder South Wind Farm 1A,-33.679758,138.937597,2026-02-14T20:58:18.796653
2026/02/15 06:55:00,GSWF1B1,60.85,Goyder Wind Farm 1B Pty Ltd as the Trustee for the Goyder Wind Farm 1B Trust,Goyder South Wind Farm 1B,Wind,196.0,31.05,Goyder South Wind Farm 1B,-33.679758,138.937597,2026-02-14T20:58:18.796653
2026/02/15 06:55:00,GULLRWF1,21.32,New Gullen Range Wind Farm Pty Ltd,Gullen Range Wind Farm,Wind,161.0,13.24,Gullen Range Wind Farm,-34.34,149.27,2026-02-14T20:58:18.796653
2026/02/15 06:55:00,GULLRWF2,71.3,New Gullen Range Wind Farm Pty Ltd,Gullen Range Wind Farm,Wind,107.0,66.64,Gullen Range Wind Farm,-34.34,149.27,2026-02-14T20:58:18.796653
2026/02/15 06:55:00,GUNNING1,17.57,Gunning Wind Energy Developments Pty Ltd,Gunning Wind Farm,Wind,47.0,37.38,Gunning Wind Farm,-34.813333,149.4,2026-02-14T20:58:18.796653
2026/02/15 06:55:00,HALLWF1,43.59,AGL SA Generation Pty Limited,Hallett 1 Wind Farm,Wind,95.0,45.88,Hallett 1 Wind Farm,-33.367778,138.728611,2026-02-14T20:58:18.796653
2026/02/15 06:55:00,HALLWF2,17.09,AGL SA Generation Pty Limited,Hallett 2 Wind Farm,Wind,71.0,24.07,Hallett 2 Wind Farm,-33.367778,138.728611,2026-02-14T20:58:18.796653
2026/02/15 06:55:00,HD1WF1,40.64,Hawkesdale Asset Pty Ltd as trustee for Hawkesdale Asset Trust,Hawkesdale Wind Farm,Wind,89.0,45.66,Hawkesdale Wind Farm,-38.147894,142.361381,2026-02-14T20:58:18.796653
2026/02/15 06:55:00,HDWF1,82.8,HWF1 Pty Ltd,Hornsdale Wind Farm,Wind,102.0,81.18,Hornsdale Wind Farm,-33.050556,138.543611,2026-02-14T20:58:18.796653
2026/02/15 06:55:00,HDWF2,68.1,HWF 2 Pty Ltd,Hornsdale Wind Farm 2,Wind,102.0,66.76,Hornsdale Wind Farm 2,-33.06,138.54,2026-02-14T20:58:18.796653
2026/02/15 06:55:00,HDWF3,76.2,HWF3 Pty Ltd,Hornsdale Wind Farm 3,Wind,109.0,69.91,Hornsdale Wind Farm 3,-33.06,138.54,2026-02-14T20:58:18.796653
2026/02/15 06:55:00,KABANWF1,6.53,Kaban Wind Farm Pty Ltd as trustee for Kaban Wind Farm Trust,Kaban Wind Farm,Wind,152.0,4.3,Kaban Wind Farm,-17.56,145.41,2026-02-14T20:58:18.796653
2026/02/15 06:55:00,KEPWF1,17.9,Kennedy Energy Park Pty Ltd,Kennedy Energy Park,Wind,43.0,41.63,Kennedy Energy Park,-20.88,144.42,2026-02-14T20:58:18.796653
2026/02/15 06:55:00,KIATAWF1,30.8,Kiata ProjectCo Pty Ltd Atf Kiata Project Trust,Kiata Wind Farm,Wind,31.0,99.35,Kiata Wind Farm,-36.4,141.75,2026-02-14T20:58:18.796653
2026/02/15 06:55:00,LGAPWF1,21.0,Lincoln Gap Wind Farm (Operations) Pty Ltd,Lincoln Gap Wind Farm,Wind,123.0,17.07,Lincoln Gap Wind Farm,-32.564279,137.557328,2026-02-14T20:58:18.796653
2026/02/15 06:55:00,LGAPWF1,21.0,Lincoln Gap Wind Farm (Operations) Pty Ltd,Lincoln Gap Wind Farm,Wind,123.0,17.07,Lincoln Gap Wind Farm,-32.564279,137.557328,2026-02-14T20:58:18.796653
2026/02/15 06:55:00,LGAPWF2,14.66,Lincoln Gap Wind Farm (Operations) Pty Ltd,Lincoln Gap Wind Farm,Wind,85.0,17.25,Lincoln Gap Wind Farm,-32.564279,137.557328,2026-02-14T20:58:18.796653
2026/02/15 06:55:00,LGAPWF2,14.66,Lincoln Gap Wind Farm (Operations) Pty Ltd,Lincoln Gap Wind Farm,Wind,85.0,17.25,Lincoln Gap Wind Farm,-32.564279,137.557328,2026-02-14T20:58:18.796653
2026/02/15 06:55:00,LKBONNY1,40.46,Lake Bonney Wind Power Pty Ltd,Lake Bonney Wind Farm Stage 1,Wind,81.0,49.95,Lake Bonney Wind Farm Stage 1,-37.76,140.4,2026-02-14T20:58:18.796653
2026/02/15 06:55:00,LKBONNY2,103.8,Lake Bonney Wind Power Pty Ltd,Lake Bonney Stage 2 Windfarm,Wind,159.0,65.28,Lake Bonney Stage 2 Windfarm,-37.76,140.4,2026-02-14T20:58:18.796653
2026/02/15 06:55:00,LKBONNY3,27.3,Lake Bonney Wind Power Pty Ltd,Lake Bonney Stage 3 Wind Farm,Wind,39.0,70.0,Lake Bonney Stage 3 Wind Farm,-37.737781,140.388137,2026-02-14T20:58:18.796653
2026/02/15 06:55:00,MACARTH1,121.8,AGL Hydro Partnership,Macarthur Wind Farm,Wind,420.0,29.0,Macarthur Wind Farm,-38.048957,142.192112,2026-02-14T20:58:18.796653
2026/02/15 06:55:00,MCINTYR1,360.45,MacIntyre UJV Operator Pty Ltd,MacIntyre Wind Farm,Wind,890.0,40.5,MacIntyre Wind Farm,-28.32,151.54,2026-02-14T20:58:18.796653
2026/02/15 06:55:00,MERCER01,8.4,Mt Mercer Windfarm Pty Ltd,Mt Mercer Wind Farm,Wind,131.0,6.41,Mt Mercer Wind Farm,-37.841111,143.871111,2026-02-14T20:58:18.796653
2026/02/15 06:55:00,MEWF1,0.0,Ergon Energy Queensland Pty Ltd ,Mount Emerald Wind Farm,Wind,178.0,0.0,Mount Emerald Wind Farm,-17.133007,145.380644,2026-02-14T20:58:18.796653
2026/02/15 06:55:00,MRTLSWF1,49.1,Mortlake South Wind Farm Pty Ltd,Mortlake South Wind Farm,Wind,153.0,32.09,Mortlake South Wind Farm,-38.127337,142.857801,2026-02-14T20:58:18.796653
2026/02/15 06:55:00,MTGELWF1,47.19,Mt. Gellibrand Wind Farm Pty Ltd,Mt Gellibrand Wind Farm,Wind,132.0,35.75,Mt Gellibrand Wind Farm,-38.23,143.77,2026-02-14T20:58:18.796653
2026/02/15 06:55:00,MTMILLAR,14.8,Mt Millar Wind Farm Pty Ltd,Mt Millar Wind Farm,Wind,70.0,21.14,Mt Millar Wind Farm,-33.624444,136.703611,2026-02-14T20:58:18.796653
2026/02/15 06:55:00,MUSSELR1,15.7,Hydro-Electric Corporation,Musselroe Wind Farm,Wind,168.0,9.35,Musselroe Wind Farm,-40.780225,148.010799,2026-02-14T20:58:18.796653
2026/02/15 06:55:00,MUWAWF1,132.19,Telstra Energy (Generation) Pty Ltd,Murra Warra Wind Farm,Wind,225.7,58.57,Murra Warra Wind Farm,-36.432404,142.317853,2026-02-14T20:58:18.796653
2026/02/15 06:55:00,MUWAWF2,133.1,Murra Warra II Project Co Pty Ltd ATF The Murra Warra II Project Trust,Murra Warra Wind Farm Stage 2,Wind,203.0,65.57,Murra Warra Wind Farm Stage 2,-36.43,142.32,2026-02-14T20:58:18.796653
2026/02/15 06:55:00,NBHWF1,81.2,AGL SA Generation Pty Limited,North Brown Hill Wind Farm,Wind,132.0,61.52,North Brown Hill Wind Farm,-33.367778,138.728611,2026-02-14T20:58:18.796653
2026/02/15 06:55:00,OAKLAND1,0.0,AGL Hydro Partnership,Oaklands Hill Wind Farm,Wind,63.0,0.0,Oaklands Hill Wind Farm,-37.683078,142.551678,2026-02-14T20:58:18.796653
2026/02/15 06:55:00,PAREPW1,61.26,Iberdrola Australia Energy Markets Pty Limited,Port Augusta Renewable Energy Park,Wind,201.0,30.48,Port Augusta Renewable Energy Park,-32.566944,137.856111,2026-02-14T20:58:18.796653
2026/02/15 06:55:00,RYANCWF1,73.92,Ryan Corner Development Pty Ltd,Ryan Corner Wind Farm,Wind,205.0,36.06,Ryan Corner Wind Farm,-38.271017,142.140647,2026-02-14T20:58:18.796653
2026/02/15 06:55:00,RYEPARK1,116.9,Rye Park Renewable Energy Pty Ltd as trustee for Rye Park Wind Farm Trust,Rye Park Renewable Energy,Wind,384.0,30.44,Rye Park Renewable Energy,-32.138333,148.972778,2026-02-14T20:58:18.796653
2026/02/15 06:55:00,SALTCRK1,10.45,Salt Creek Wind Farm Pty Ltd,Salt Creek Wind Farm,Wind,54.0,19.35,Salt Creek Wind Farm,-37.95,142.63,2026-02-14T20:58:18.796653
2026/02/15 06:55:00,SAPHWF1,226.07,The Trustee For The SWF1 Operations Trust,Sapphire Wind Farm,Wind,270.0,83.73,Sapphire Wind Farm,-29.7,151.41,2026-02-14T20:58:18.796653
2026/02/15 06:55:00,SNOWNTH1,42.4,Snowtown Wind Farm Stage 2 Pty Ltd,Snowtown Wind Farm Stage 2 North,Wind,144.0,29.44,Snowtown Wind Farm Stage 2 North,-33.83,138.118611,2026-02-14T20:58:18.796653
2026/02/15 06:55:00,SNOWSTH1,67.5,Snowtown Wind Farm Stage 2 Pty Ltd,Snowtown South Wind Farm,Wind,126.0,53.57,Snowtown South Wind Farm,-33.83,138.118611,2026-02-14T20:58:18.796653
2026/02/15 06:55:00,SNOWTWN1,65.94,Snowtown Wind Farm Pty Ltd,Snowtown Wind Farm Units 1 And 47,Wind,99.0,66.61,Snowtown Wind Farm Units 1 And 47,-33.83,138.118611,2026-02-14T20:58:18.796653
2026/02/15 06:55:00,STARHLWF,13.0,Starfish Hill Wind Farm Pty Ltd,Starfish Hill Wind Farm,Wind,35.0,37.14,Starfish Hill Wind Farm,-35.58,138.14,2026-02-14T20:58:18.796653
2026/02/15 06:55:00,STOCKYD1,101.58,Stockyard Hill Wind Farm Pty Ltd,Stockyard Hill Wind Farm,Wind,511.0,19.88,Stockyard Hill Wind Farm,-37.535833,143.251389,2026-02-14T20:58:18.796653
2026/02/15 06:55:00,STWF1,64.16,PARF Company 8 Pty Ltd as The Trustee for Silverton Project Trust,Silverton Wind Farm,Wind,198.0,32.4,Silverton Wind Farm,-37.683168,142.551678,2026-02-14T20:58:18.796653
2026/02/15 06:55:00,TARALGA1,11.44,Taralga Wind Farm Nominees No 2 Pty Ltd (ATF Taralga Wind Farm Operating Trust),Taralga Wind Farm,Wind,106.0,10.79,Taralga Wind Farm,-34.42352,149.826267,2026-02-14T20:58:18.796653
2026/02/15 06:55:00,WAMBOWF1,174.81,Stanwell Corporation Limited,Wambo Wind Farm 1,Wind,245.0,71.35,Wambo Wind Farm 1,-35.187301,149.524945,2026-02-14T20:58:18.796653
2026/02/15 06:55:00,WATERLWF,87.9,Waterloo Wind Farm Pty Ltd,Waterloo Wind Farm,Wind,130.0,67.62,Waterloo Wind Farm,-34.00094,138.911567,2026-02-14T20:58:18.796653
2026/02/15 06:55:00,WGWF1,13.7,Willogoleche Power Pty Ltd As The Trustee For The Willogoleche Operating Trust,Willogoleche Wind Farm,Wind,119.0,11.51,Willogoleche Wind Farm,-33.39,138.85,2026-02-14T20:58:18.796653
2026/02/15 06:55:00,WOODLWN1,12.02,Woodlawn Wind Pty Ltd,Woodlawn Wind Farm,Wind,48.0,25.04,Woodlawn Wind Farm,-35.08,149.62,2026-02-14T20:58:18.796653
2026/02/15 06:55:00,WPWF,12.22,AGL SA Generation Pty Limited,Wattle Point Wind Farm,Wind,91.0,13.43,Wattle Point Wind Farm,-35.111624,137.7219,2026-02-14T20:58:18.796653
2026/02/15 06:55:00,WRWF1,148.78,White Rock Wind Farm Pty Ltd,White Rock Wind Farm,Wind,172.0,86.5,White Rock Wind Farm,-29.79,151.54,2026-02-14T20:58:18.796653
2026/02/15 06:55:00,YENDWF1,2.33,Lal Lal Wind Farms Nom Co Pty Ltd,Yendon Wind Farm,Wind,142.0,1.64,Yendon Wind Farm,-37.629987,144.022717,2026-02-14T20:58:18.796653
