SETTLEMENTDATE,DUID,SCADAVALUE,Participant,Station Name,Fuel Source - Primary,MAX_CAP,utilisation_pct,Plant,Latitude,Longitude,timestamp_utc
2026/02/16 02:45:00,CAPTL_WF,19.33,Iberdrola Australia Holdings Pty Limited,Capital Wind Farm,Wind,140.0,13.81,Capital Wind Farm,-35.1,149.31,2026-02-15T16:42:39.037013
2026/02/16 02:45:00,CHALLHWF,14.3,Pacific Hydro Challicum Hills Pty Ltd,Challicum Hills Wind Farm,Wind,52.0,27.5,Challicum Hills Wind Farm,-37.38,143.11,2026-02-15T16:42:39.037013
2026/02/16 02:45:00,CULLRGWF,18.14,Cullerin Range Wind Farm Pty Ltd,Cullerin Range Wind Farm,Wind,30.0,60.47,Cullerin Range Wind Farm,-34.81,149.4,2026-02-15T16:42:39.037013
2026/02/16 02:45:00,DIAPURWF1,8.1,Y.E.S. Energy (SA) Pty Ltd,Diapur Wind Farm,Wind,7.0,115.71,Diapur Wind Farm,-36.3425,141.43,2026-02-15T16:42:39.037013
2026/02/16 02:45:00,MLWF1,6.42,Mortons Lane Windfarm Pty Limited,Mortons Lane Wind Farm,Wind,20.0,32.1,Mortons Lane Wind Farm,-37.84,142.45,2026-02-15T16:42:39.037013
2026/02/16 02:45:00,WAUBRAWF,95.34,Pyrenees Wind Energy Developments Pty Ltd,Waubra Wind Farm,Wind,192.0,49.66,Waubra Wind Farm,-37.394498,143.638982,2026-02-15T16:42:39.037013
2026/02/16 02:45:00,WOOLNTH1,97.92,Hydro-Electric Corporation,Woolnorth Studland Bay / Bluff Point Wind Farm,Wind,140.0,69.94,Woolnorth Studland Bay / Bluff Point Wind Farm,-40.69,144.72,2026-02-15T16:42:39.037013
2026/02/16 02:45:00,YAMBUKWF,7.8,Energy Pacific (Vic) Pty Ltd,Yambuk Wind Farm,Wind,30.0,26.0,Yambuk Wind Farm,-38.299083,142.027577,2026-02-15T16:42:39.037013
2026/02/16 02:45:00,YSWF1,3.0,Pacific Hydro Yaloak South Pty Ltd,Yaloak South Wind Farm,Wind,28.0,10.71,Yaloak South Wind Farm,-37.7163,144.242853,2026-02-15T16:42:39.037013
2026/02/16 02:45:00,ARWF1,40.3,Ararat Wind Farm Pty Ltd,Ararat Wind Farm,Wind,241.0,16.72,Ararat Wind Farm,-37.232778,143.031389,2026-02-15T16:42:39.037013
2026/02/16 02:45:00,BALDHWF1,98.92,Alinta Energy Retail Sales Pty Ltd,Bald Hills Wind Farm,Wind,106.0,93.32,Bald Hills Wind Farm,-38.79,145.93,2026-02-15T16:42:39.037013
2026/02/16 02:45:00,BANGOWF1,95.2,BWF Nominees Pty Ltd as The Trustee for BWF Trust,Bango 973 Wind Farm,Wind,155.0,61.42,Bango 973 Wind Farm,-34.551582,148.732808,2026-02-15T16:42:39.037013
2026/02/16 02:45:00,BANGOWF2,49.8,BWF Nominees Pty Ltd as The Trustee for BWF Trust,Bango 999 Wind Farm,Wind,82.0,60.73,Bango 999 Wind Farm,-34.551582,148.732808,2026-02-15T16:42:39.037013
2026/02/16 02:45:00,BLUFF1,30.0,AGL SA Generation Pty Limited,The Bluff Wind Farm,Wind,53.0,56.6,The Bluff Wind Farm,-33.367778,138.728611,2026-02-15T16:42:39.037013
2026/02/16 02:45:00,BOCORWF1,15.54,Boco Rock Wind Farm Pty Ltd,Boco Rock Wind Farm,Wind,111.0,14.0,Boco Rock Wind Farm,-36.578611,149.103333,2026-02-15T16:42:39.037013
2026/02/16 02:45:00,BRYB1WF1,24.52,Berrybank Development Pty Ltd,Berrybank Wind Farm,Wind,175.9,13.94,Berrybank Wind Farm,-37.94,143.52,2026-02-15T16:42:39.037013
2026/02/16 02:45:00,BRYB2WF2,24.49,Berrybank 2 Asset Pty Ltd as trustee for Berrybank 2 Asset Trust,Berrybank 2 Wind Farm,Wind,105.0,23.32,Berrybank 2 Wind Farm,-37.94,143.52,2026-02-15T16:42:39.037013
2026/02/16 02:45:00,BULGANA1,42.13,Bulgana Wind Farm Pty Ltd,Bulgana Green Power Hub,Wind,204.0,20.65,Bulgana Green Power Hub,-37.0975,142.973611,2026-02-15T16:42:39.037013
2026/02/16 02:45:00,CATHROCK,58.9,Cathedral Rocks Wind Farm Pty Ltd,Cathedral Rocks,Wind,66.0,89.24,Cathedral Rocks,-34.51,135.35,2026-02-15T16:42:39.037013
2026/02/16 02:45:00,CHYTWF1,13.0,Cherry Tree Wind Farm Pty Ltd as trustee for The Cherry Tree Project trust ,Cherry Tree Wind Farm,Wind,57.0,22.81,Cherry Tree Wind Farm,-37.1,145.26,2026-02-15T16:42:39.037013
2026/02/16 02:45:00,CLEMGPWF,18.01,Pacific Hydro Clements Gap Pty Ltd,Clements Gap Wind Farm,Wind,57.0,31.6,Clements Gap Wind Farm,-33.48,138.1,2026-02-15T16:42:39.037013
2026/02/16 02:45:00,CLRKCWF1,135.65,Stanwell Corporation Limited ,Clarke Creek Wind Farm,Wind,338.0,40.13,Clarke Creek Wind Farm,-22.85,149.45,2026-02-15T16:42:39.037013
2026/02/16 02:45:00,CLRKCWF2,40.7,Stanwell Corporation Limited ,Clarke Creek Wind Farm,Wind,101.0,40.3,Clarke Creek Wind Farm,-22.85,149.45,2026-02-15T16:42:39.037013
2026/02/16 02:45:00,CNUNDAWF,13.72,Canunda Power Pty Ltd,Canunda Wind Farm,Wind,46.0,29.83,Canunda Wind Farm,-37.73,140.39,2026-02-15T16:42:39.037013
2026/02/16 02:45:00,COLWF01,57.85,Collector Wind Farm Pty Ltd,Collector Wind Farm 1,Wind,219.0,26.42,Collector Wind Farm 1,-34.8719,149.3967,2026-02-15T16:42:39.037013
2026/02/16 02:45:00,COOPGWF1,242.87,PARF Company 10 Pty Limited as The Trustee for Coopers Gap Project Trust,Coopers Gap Wind Farm,Wind,440.0,55.2,Coopers Gap Wind Farm,-26.74,151.45,2026-02-15T16:42:39.037013
2026/02/16 02:45:00,CROOKWF2,20.47,Crookwell Development Pty Ltd ,Crookwell 2 Wind Farm,Wind,91.0,22.49,Crookwell 2 Wind Farm,-34.52,149.54,2026-02-15T16:42:39.037013
2026/02/16 02:45:00,CROOKWF3,22.73,Crookwell 3 Development Pty Ltd,Crookwell 3 Wind Farm,Wind,56.0,40.59,Crookwell 3 Wind Farm,-34.52,149.54,2026-02-15T16:42:39.037013
2026/02/16 02:45:00,CROWLWF1,38.17,Pacific Hydro Crowlands Pty Ltd ,Crowlands Wind Farm,Wind,79.0,48.32,Crowlands Wind Farm,-37.13,143.16,2026-02-15T16:42:39.037013
2026/02/16 02:45:00,CRURWF1,57.3,CRWF Nominees Pty Ltd As Trustee For The CRWF Trust,Crudine Ridge Wind Farm,Wind,138.0,41.52,Crudine Ridge Wind Farm,-32.97,149.64,2026-02-15T16:42:39.037013
2026/02/16 02:45:00,CTHLWF1,0.55,Wild Cattle Hill Pty Ltd,Cattle Hill Wind Farm,Wind,144.0,0.38,Cattle Hill Wind Farm,-42.15,146.69,2026-02-15T16:42:39.037013
2026/02/16 02:45:00,DULAWF1,88.3,Dulacca Energy Project Co Pty Ltd,Dulacca Wind Farm,Wind,173.0,51.04,Dulacca Wind Farm,-26.63,149.87,2026-02-15T16:42:39.037013
2026/02/16 02:45:00,DUNDWF1,22.82,Dundonnell Wind Farm Pty Ltd,Dundonnell Wind Farm,Wind,168.0,13.58,Dundonnell Wind Farm,-37.52,142.58,2026-02-15T16:42:39.037013
2026/02/16 02:45:00,DUNDWF2,6.02,Dundonnell Wind Farm Pty Ltd,Dundonnell Wind Farm,Wind,46.0,13.09,Dundonnell Wind Farm,-37.52,142.58,2026-02-15T16:42:39.037013
2026/02/16 02:45:00,DUNDWF3,16.63,Dundonnell Wind Farm Pty Ltd,Dundonnell Wind Farm,Wind,122.0,13.63,Dundonnell Wind Farm,-37.52,142.58,2026-02-15T16:42:39.037013
2026/02/16 02:45:00,ELAINWF1,19.74,Lal Lal Wind Farms Nom Co Pty Ltd,Elaine Wind Farm,Wind,82.0,24.07,Elaine Wind Farm,-37.36,144.0,2026-02-15T16:42:39.037013
2026/02/16 02:45:00,FLYCRKWF,63.63,Iberdrola Australia Energy Markets Pty Limited,Flyers Creek Wind Farm,Wind,140.0,45.45,Flyers Creek Wind Farm,-33.365556,148.981944,2026-02-15T16:42:39.037013
2026/02/16 02:45:00,GPWFEST1,53.65,Golden Plains WF1 Pty Ltd as Trustee for the Golden Plains WF1 Unit Trust,Golden Plains Wind Farm East,Wind,240.0,22.35,Golden Plains Wind Farm East,-37.945091,143.752614,2026-02-15T16:42:39.037013
2026/02/16 02:45:00,GPWFEST2,43.69,Golden Plains WF1 Pty Ltd as Trustee for the Golden Plains WF1 Unit Trust,Golden Plains Wind Farm East,Wind,253.0,17.27,Golden Plains Wind Farm East,-37.945091,143.752614,2026-02-15T16:42:39.037013
2026/02/16 02:45:00,GPWFEST3,28.62,Golden Plains WF1 Pty Ltd as Trustee for the Golden Plains WF1 Unit Trust,Golden Plains Wind Farm East,Wind,240.0,11.92,Golden Plains Wind Farm East,-37.945091,143.752614,2026-02-15T16:42:39.037013
2026/02/16 02:45:00,GRANWF1,23.14,Granville Harbour Operations Pty Ltd as The Trustee for Granville Harbour Operations Trust,Granville Harbour Wind Farm,Wind,111.0,20.85,Granville Harbour Wind Farm,-41.8,145.06,2026-02-15T16:42:39.037013
2026/02/16 02:45:00,GSWF1A,109.05,Goyder Wind Farm 1 Pty Ltd as the Trustee for Goyder Wind Farm 1 Trust,Goyder South Wind Farm 1A,Wind,201.0,54.25,Goyder South Wind Farm 1A,-33.679758,138.937597,2026-02-15T16:42:39.037013
2026/02/16 02:45:00,GSWF1B1,117.3,Goyder Wind Farm 1B Pty Ltd as the Trustee for the Goyder Wind Farm 1B Trust,Goyder South Wind Farm 1B,Wind,196.0,59.85,Goyder South Wind Farm 1B,-33.679758,138.937597,2026-02-15T16:42:39.037013
2026/02/16 02:45:00,GULLRWF1,56.43,New Gullen Range Wind Farm Pty Ltd,Gullen Range Wind Farm,Wind,161.0,35.05,Gullen Range Wind Farm,-34.34,149.27,2026-02-15T16:42:39.037013
2026/02/16 02:45:00,GULLRWF2,55.8,New Gullen Range Wind Farm Pty Ltd,Gullen Range Wind Farm,Wind,107.0,52.15,Gullen Range Wind Farm,-34.34,149.27,2026-02-15T16:42:39.037013
2026/02/16 02:45:00,GUNNING1,23.16,Gunning Wind Energy Developments Pty Ltd,Gunning Wind Farm,Wind,47.0,49.28,Gunning Wind Farm,-34.813333,149.4,2026-02-15T16:42:39.037013
2026/02/16 02:45:00,HALLWF1,61.05,AGL SA Generation Pty Limited,Hallett 1 Wind Farm,Wind,95.0,64.26,Hallett 1 Wind Farm,-33.367778,138.728611,2026-02-15T16:42:39.037013
2026/02/16 02:45:00,HALLWF2,48.06,AGL SA Generation Pty Limited,Hallett 2 Wind Farm,Wind,71.0,67.69,Hallett 2 Wind Farm,-33.367778,138.728611,2026-02-15T16:42:39.037013
2026/02/16 02:45:00,HD1WF1,75.2,Hawkesdale Asset Pty Ltd as trustee for Hawkesdale Asset Trust,Hawkesdale Wind Farm,Wind,89.0,84.49,Hawkesdale Wind Farm,-38.147894,142.361381,2026-02-15T16:42:39.037013
2026/02/16 02:45:00,HDWF1,60.5,HWF1 Pty Ltd,Hornsdale Wind Farm,Wind,102.0,59.31,Hornsdale Wind Farm,-33.050556,138.543611,2026-02-15T16:42:39.037013
2026/02/16 02:45:00,HDWF2,45.5,HWF 2 Pty Ltd,Hornsdale Wind Farm 2,Wind,102.0,44.61,Hornsdale Wind Farm 2,-33.06,138.54,2026-02-15T16:42:39.037013
2026/02/16 02:45:00,HDWF3,49.8,HWF3 Pty Ltd,Hornsdale Wind Farm 3,Wind,109.0,45.69,Hornsdale Wind Farm 3,-33.06,138.54,2026-02-15T16:42:39.037013
2026/02/16 02:45:00,KABANWF1,8.5,Kaban Wind Farm Pty Ltd as trustee for Kaban Wind Farm Trust,Kaban Wind Farm,Wind,152.0,5.59,Kaban Wind Farm,-17.56,145.41,2026-02-15T16:42:39.037013
2026/02/16 02:45:00,KEPWF1,19.1,Kennedy Energy Park Pty Ltd,Kennedy Energy Park,Wind,43.0,44.42,Kennedy Energy Park,-20.88,144.42,2026-02-15T16:42:39.037013
2026/02/16 02:45:00,KIATAWF1,30.9,Kiata ProjectCo Pty Ltd Atf Kiata Project Trust,Kiata Wind Farm,Wind,31.0,99.68,Kiata Wind Farm,-36.4,141.75,2026-02-15T16:42:39.037013
2026/02/16 02:45:00,LGAPWF1,64.23,Lincoln Gap Wind Farm (Operations) Pty Ltd,Lincoln Gap Wind Farm,Wind,123.0,52.22,Lincoln Gap Wind Farm,-32.564279,137.557328,2026-02-15T16:42:39.037013
2026/02/16 02:45:00,LGAPWF1,64.23,Lincoln Gap Wind Farm (Operations) Pty Ltd,Lincoln Gap Wind Farm,Wind,123.0,52.22,Lincoln Gap Wind Farm,-32.564279,137.557328,2026-02-15T16:42:39.037013
2026/02/16 02:45:00,LGAPWF2,72.82,Lincoln Gap Wind Farm (Operations) Pty Ltd,Lincoln Gap Wind Farm,Wind,85.0,85.67,Lincoln Gap Wind Farm,-32.564279,137.557328,2026-02-15T16:42:39.037013
2026/02/16 02:45:00,LGAPWF2,72.82,Lincoln Gap Wind Farm (Operations) Pty Ltd,Lincoln Gap Wind Farm,Wind,85.0,85.67,Lincoln Gap Wind Farm,-32.564279,137.557328,2026-02-15T16:42:39.037013
2026/02/16 02:45:00,LKBONNY1,25.9,Lake Bonney Wind Power Pty Ltd,Lake Bonney Wind Farm Stage 1,Wind,81.0,31.98,Lake Bonney Wind Farm Stage 1,-37.76,140.4,2026-02-15T16:42:39.037013
2026/02/16 02:45:00,LKBONNY2,44.24,Lake Bonney Wind Power Pty Ltd,Lake Bonney Stage 2 Windfarm,Wind,159.0,27.82,Lake Bonney Stage 2 Windfarm,-37.76,140.4,2026-02-15T16:42:39.037013
2026/02/16 02:45:00,LKBONNY3,15.46,Lake Bonney Wind Power Pty Ltd,Lake Bonney Stage 3 Wind Farm,Wind,39.0,39.64,Lake Bonney Stage 3 Wind Farm,-37.737781,140.388137,2026-02-15T16:42:39.037013
2026/02/16 02:45:00,MACARTH1,113.9,AGL Hydro Partnership,Macarthur Wind Farm,Wind,420.0,27.12,Macarthur Wind Farm,-38.048957,142.192112,2026-02-15T16:42:39.037013
2026/02/16 02:45:00,MCINTYR1,367.48,MacIntyre UJV Operator Pty Ltd,MacIntyre Wind Farm,Wind,890.0,41.29,MacIntyre Wind Farm,-28.32,151.54,2026-02-15T16:42:39.037013
2026/02/16 02:45:00,MERCER01,25.5,Mt Mercer Windfarm Pty Ltd,Mt Mercer Wind Farm,Wind,131.0,19.47,Mt Mercer Wind Farm,-37.841111,143.871111,2026-02-15T16:42:39.037013
2026/02/16 02:45:00,MEWF1,0.0,Ergon Energy Queensland Pty Ltd ,Mount Emerald Wind Farm,Wind,178.0,0.0,Mount Emerald Wind Farm,-17.133007,145.380644,2026-02-15T16:42:39.037013
2026/02/16 02:45:00,MRTLSWF1,92.04,Mortlake South Wind Farm Pty Ltd,Mortlake South Wind Farm,Wind,153.0,60.16,Mortlake South Wind Farm,-38.127337,142.857801,2026-02-15T16:42:39.037013
2026/02/16 02:45:00,MTGELWF1,52.59,Mt. Gellibrand Wind Farm Pty Ltd,Mt Gellibrand Wind Farm,Wind,132.0,39.84,Mt Gellibrand Wind Farm,-38.23,143.77,2026-02-15T16:42:39.037013
2026/02/16 02:45:00,MTMILLAR,58.5,Mt Millar Wind Farm Pty Ltd,Mt Millar Wind Farm,Wind,70.0,83.57,Mt Millar Wind Farm,-33.624444,136.703611,2026-02-15T16:42:39.037013
2026/02/16 02:45:00,MUSSELR1,48.5,Hydro-Electric Corporation,Musselroe Wind Farm,Wind,168.0,28.87,Musselroe Wind Farm,-40.780225,148.010799,2026-02-15T16:42:39.037013
2026/02/16 02:45:00,MUWAWF1,104.75,Telstra Energy (Generation) Pty Ltd,Murra Warra Wind Farm,Wind,225.7,46.41,Murra Warra Wind Farm,-36.432404,142.317853,2026-02-15T16:42:39.037013
2026/02/16 02:45:00,MUWAWF2,91.7,Murra Warra II Project Co Pty Ltd ATF The Murra Warra II Project Trust,Murra Warra Wind Farm Stage 2,Wind,203.0,45.17,Murra Warra Wind Farm Stage 2,-36.43,142.32,2026-02-15T16:42:39.037013
2026/02/16 02:45:00,NBHWF1,92.4,AGL SA Generation Pty Limited,North Brown Hill Wind Farm,Wind,132.0,70.0,North Brown Hill Wind Farm,-33.367778,138.728611,2026-02-15T16:42:39.037013
2026/02/16 02:45:00,OAKLAND1,25.6,AGL Hydro Partnership,Oaklands Hill Wind Farm,Wind,63.0,40.63,Oaklands Hill Wind Farm,-37.683078,142.551678,2026-02-15T16:42:39.037013
2026/02/16 02:45:00,PAREPW1,103.86,Iberdrola Australia Energy Markets Pty Limited,Port Augusta Renewable Energy Park,Wind,201.0,51.67,Port Augusta Renewable Energy Park,-32.566944,137.856111,2026-02-15T16:42:39.037013
2026/02/16 02:45:00,RYANCWF1,119.77,Ryan Corner Development Pty Ltd,Ryan Corner Wind Farm,Wind,205.0,58.42,Ryan Corner Wind Farm,-38.271017,142.140647,2026-02-15T16:42:39.037013
2026/02/16 02:45:00,RYEPARK1,183.9,Rye Park Renewable Energy Pty Ltd as trustee for Rye Park Wind Farm Trust,Rye Park Renewable Energy,Wind,384.0,47.89,Rye Park Renewable Energy,-32.138333,148.972778,2026-02-15T16:42:39.037013
2026/02/16 02:45:00,SALTCRK1,14.67,Salt Creek Wind Farm Pty Ltd,Salt Creek Wind Farm,Wind,54.0,27.17,Salt Creek Wind Farm,-37.95,142.63,2026-02-15T16:42:39.037013
2026/02/16 02:45:00,SAPHWF1,262.16,The Trustee For The SWF1 Operations Trust,Sapphire Wind Farm,Wind,270.0,97.1,Sapphire Wind Farm,-29.7,151.41,2026-02-15T16:42:39.037013
2026/02/16 02:45:00,SNOWNTH1,82.3,Snowtown Wind Farm Stage 2 Pty Ltd,Snowtown Wind Farm Stage 2 North,Wind,144.0,57.15,Snowtown Wind Farm Stage 2 North,-33.83,138.118611,2026-02-15T16:42:39.037013
2026/02/16 02:45:00,SNOWSTH1,85.2,Snowtown Wind Farm Stage 2 Pty Ltd,Snowtown South Wind Farm,Wind,126.0,67.62,Snowtown South Wind Farm,-33.83,138.118611,2026-02-15T16:42:39.037013
2026/02/16 02:45:00,SNOWTWN1,72.25,Snowtown Wind Farm Pty Ltd,Snowtown Wind Farm Units 1 And 47,Wind,99.0,72.98,Snowtown Wind Farm Units 1 And 47,-33.83,138.118611,2026-02-15T16:42:39.037013
2026/02/16 02:45:00,STARHLWF,13.1,Starfish Hill Wind Farm Pty Ltd,Starfish Hill Wind Farm,Wind,35.0,37.43,Starfish Hill Wind Farm,-35.58,138.14,2026-02-15T16:42:39.037013
2026/02/16 02:45:00,STOCKYD1,307.23,Stockyard Hill Wind Farm Pty Ltd,Stockyard Hill Wind Farm,Wind,511.0,60.12,Stockyard Hill Wind Farm,-37.535833,143.251389,2026-02-15T16:42:39.037013
2026/02/16 02:45:00,STWF1,31.05,PARF Company 8 Pty Ltd as The Trustee for Silverton Project Trust,Silverton Wind Farm,Wind,198.0,15.68,Silverton Wind Farm,-37.683168,142.551678,2026-02-15T16:42:39.037013
2026/02/16 02:45:00,TARALGA1,27.32,Taralga Wind Farm Nominees No 2 Pty Ltd (ATF Taralga Wind Farm Operating Trust),Taralga Wind Farm,Wind,106.0,25.77,Taralga Wind Farm,-34.42352,149.826267,2026-02-15T16:42:39.037013
2026/02/16 02:45:00,WAMBOWF1,119.68,Stanwell Corporation Limited,Wambo Wind Farm 1,Wind,245.0,48.85,Wambo Wind Farm 1,-35.187301,149.524945,2026-02-15T16:42:39.037013
2026/02/16 02:45:00,WATERLWF,33.9,Waterloo Wind Farm Pty Ltd,Waterloo Wind Farm,Wind,130.0,26.08,Waterloo Wind Farm,-34.00094,138.911567,2026-02-15T16:42:39.037013
2026/02/16 02:45:00,WGWF1,62.6,Willogoleche Power Pty Ltd As The Trustee For The Willogoleche Operating Trust,Willogoleche Wind Farm,Wind,119.0,52.61,Willogoleche Wind Farm,-33.39,138.85,2026-02-15T16:42:39.037013
2026/02/16 02:45:00,WOODLWN1,14.38,Woodlawn Wind Pty Ltd,Woodlawn Wind Farm,Wind,48.0,29.96,Woodlawn Wind Farm,-35.08,149.62,2026-02-15T16:42:39.037013
2026/02/16 02:45:00,WPWF,13.25,AGL SA Generation Pty Limited,Wattle Point Wind Farm,Wind,91.0,14.56,Wattle Point Wind Farm,-35.111624,137.7219,2026-02-15T16:42:39.037013
2026/02/16 02:45:00,WRWF1,165.21,White Rock Wind Farm Pty Ltd,White Rock Wind Farm,Wind,172.0,96.05,White Rock Wind Farm,-29.79,151.54,2026-02-15T16:42:39.037013
2026/02/16 02:45:00,YENDWF1,77.95,Lal Lal Wind Farms Nom Co Pty Ltd,Yendon Wind Farm,Wind,142.0,54.89,Yendon Wind Farm,-37.629987,144.022717,2026-02-15T16:42:39.037013
