SETTLEMENTDATE,DUID,SCADAVALUE,Participant,Station Name,Fuel Source - Primary,MAX_CAP,utilisation_pct,Plant,Latitude,Longitude,timestamp_utc
2026/02/21 05:40:00,CAPTL_WF,0.0,Iberdrola Australia Holdings Pty Limited,Capital Wind Farm,Wind,140.0,0.0,Capital Wind Farm,-35.1,149.31,2026-02-20T19:42:14.242398
2026/02/21 05:40:00,CHALLHWF,6.9,Pacific Hydro Challicum Hills Pty Ltd,Challicum Hills Wind Farm,Wind,52.0,13.27,Challicum Hills Wind Farm,-37.38,143.11,2026-02-20T19:42:14.242398
2026/02/21 05:40:00,CULLRGWF,6.23,Cullerin Range Wind Farm Pty Ltd,Cullerin Range Wind Farm,Wind,30.0,20.77,Cullerin Range Wind Farm,-34.81,149.4,2026-02-20T19:42:14.242398
2026/02/21 05:40:00,DIAPURWF1,3.8,Y.E.S. Energy (SA) Pty Ltd,Diapur Wind Farm,Wind,7.0,54.29,Diapur Wind Farm,-36.3425,141.43,2026-02-20T19:42:14.242398
2026/02/21 05:40:00,MLWF1,0.56,Mortons Lane Windfarm Pty Limited,Mortons Lane Wind Farm,Wind,20.0,2.8,Mortons Lane Wind Farm,-37.84,142.45,2026-02-20T19:42:14.242398
2026/02/21 05:40:00,WAUBRAWF,8.79,Pyrenees Wind Energy Developments Pty Ltd,Waubra Wind Farm,Wind,192.0,4.58,Waubra Wind Farm,-37.394498,143.638982,2026-02-20T19:42:14.242398
2026/02/21 05:40:00,WOOLNTH1,2.26,Hydro-Electric Corporation,Woolnorth Studland Bay / Bluff Point Wind Farm,Wind,140.0,1.61,Woolnorth Studland Bay / Bluff Point Wind Farm,-40.69,144.72,2026-02-20T19:42:14.242398
2026/02/21 05:40:00,YAMBUKWF,0.0,Energy Pacific (Vic) Pty Ltd,Yambuk Wind Farm,Wind,30.0,0.0,Yambuk Wind Farm,-38.299083,142.027577,2026-02-20T19:42:14.242398
2026/02/21 05:40:00,YSWF1,0.3,Pacific Hydro Yaloak South Pty Ltd,Yaloak South Wind Farm,Wind,28.0,1.07,Yaloak South Wind Farm,-37.7163,144.242853,2026-02-20T19:42:14.242398
2026/02/21 05:40:00,ARWF1,9.6,Ararat Wind Farm Pty Ltd,Ararat Wind Farm,Wind,241.0,3.98,Ararat Wind Farm,-37.232778,143.031389,2026-02-20T19:42:14.242398
2026/02/21 05:40:00,BALDHWF1,0.0,Alinta Energy Retail Sales Pty Ltd,Bald Hills Wind Farm,Wind,106.0,0.0,Bald Hills Wind Farm,-38.79,145.93,2026-02-20T19:42:14.242398
2026/02/21 05:40:00,BANGOWF1,58.2,BWF Nominees Pty Ltd as The Trustee for BWF Trust,Bango 973 Wind Farm,Wind,155.0,37.55,Bango 973 Wind Farm,-34.551582,148.732808,2026-02-20T19:42:14.242398
2026/02/21 05:40:00,BANGOWF2,39.0,BWF Nominees Pty Ltd as The Trustee for BWF Trust,Bango 999 Wind Farm,Wind,82.0,47.56,Bango 999 Wind Farm,-34.551582,148.732808,2026-02-20T19:42:14.242398
2026/02/21 05:40:00,BLUFF1,2.8,AGL SA Generation Pty Limited,The Bluff Wind Farm,Wind,53.0,5.28,The Bluff Wind Farm,-33.367778,138.728611,2026-02-20T19:42:14.242398
2026/02/21 05:40:00,BOCORWF1,0.0,Boco Rock Wind Farm Pty Ltd,Boco Rock Wind Farm,Wind,111.0,0.0,Boco Rock Wind Farm,-36.578611,149.103333,2026-02-20T19:42:14.242398
2026/02/21 05:40:00,BRYB1WF1,2.41,Berrybank Development Pty Ltd,Berrybank Wind Farm,Wind,175.9,1.37,Berrybank Wind Farm,-37.94,143.52,2026-02-20T19:42:14.242398
2026/02/21 05:40:00,BRYB2WF2,1.52,Berrybank 2 Asset Pty Ltd as trustee for Berrybank 2 Asset Trust,Berrybank 2 Wind Farm,Wind,105.0,1.45,Berrybank 2 Wind Farm,-37.94,143.52,2026-02-20T19:42:14.242398
2026/02/21 05:40:00,BULGANA1,35.12,Bulgana Wind Farm Pty Ltd,Bulgana Green Power Hub,Wind,204.0,17.22,Bulgana Green Power Hub,-37.0975,142.973611,2026-02-20T19:42:14.242398
2026/02/21 05:40:00,CATHROCK,47.7,Cathedral Rocks Wind Farm Pty Ltd,Cathedral Rocks,Wind,66.0,72.27,Cathedral Rocks,-34.51,135.35,2026-02-20T19:42:14.242398
2026/02/21 05:40:00,CHYTWF1,14.51,Cherry Tree Wind Farm Pty Ltd as trustee for The Cherry Tree Project trust ,Cherry Tree Wind Farm,Wind,57.0,25.46,Cherry Tree Wind Farm,-37.1,145.26,2026-02-20T19:42:14.242398
2026/02/21 05:40:00,CLEMGPWF,43.29,Pacific Hydro Clements Gap Pty Ltd,Clements Gap Wind Farm,Wind,57.0,75.95,Clements Gap Wind Farm,-33.48,138.1,2026-02-20T19:42:14.242398
2026/02/21 05:40:00,CLRKCWF1,247.74,Stanwell Corporation Limited ,Clarke Creek Wind Farm,Wind,338.0,73.3,Clarke Creek Wind Farm,-22.85,149.45,2026-02-20T19:42:14.242398
2026/02/21 05:40:00,CLRKCWF2,63.94,Stanwell Corporation Limited ,Clarke Creek Wind Farm,Wind,101.0,63.31,Clarke Creek Wind Farm,-22.85,149.45,2026-02-20T19:42:14.242398
2026/02/21 05:40:00,CNUNDAWF,3.7,Canunda Power Pty Ltd,Canunda Wind Farm,Wind,46.0,8.04,Canunda Wind Farm,-37.73,140.39,2026-02-20T19:42:14.242398
2026/02/21 05:40:00,COLWF01,35.76,Collector Wind Farm Pty Ltd,Collector Wind Farm 1,Wind,219.0,16.33,Collector Wind Farm 1,-34.8719,149.3967,2026-02-20T19:42:14.242398
2026/02/21 05:40:00,COOPGWF1,239.05,PARF Company 10 Pty Limited as The Trustee for Coopers Gap Project Trust,Coopers Gap Wind Farm,Wind,440.0,54.33,Coopers Gap Wind Farm,-26.74,151.45,2026-02-20T19:42:14.242398
2026/02/21 05:40:00,CROOKWF2,64.43,Crookwell Development Pty Ltd ,Crookwell 2 Wind Farm,Wind,91.0,70.8,Crookwell 2 Wind Farm,-34.52,149.54,2026-02-20T19:42:14.242398
2026/02/21 05:40:00,CROOKWF3,31.13,Crookwell 3 Development Pty Ltd,Crookwell 3 Wind Farm,Wind,56.0,55.59,Crookwell 3 Wind Farm,-34.52,149.54,2026-02-20T19:42:14.242398
2026/02/21 05:40:00,CROWLWF1,4.12,Pacific Hydro Crowlands Pty Ltd ,Crowlands Wind Farm,Wind,79.0,5.22,Crowlands Wind Farm,-37.13,143.16,2026-02-20T19:42:14.242398
2026/02/21 05:40:00,CRURWF1,94.0,CRWF Nominees Pty Ltd As Trustee For The CRWF Trust,Crudine Ridge Wind Farm,Wind,138.0,68.12,Crudine Ridge Wind Farm,-32.97,149.64,2026-02-20T19:42:14.242398
2026/02/21 05:40:00,CTHLWF1,33.8,Wild Cattle Hill Pty Ltd,Cattle Hill Wind Farm,Wind,144.0,23.47,Cattle Hill Wind Farm,-42.15,146.69,2026-02-20T19:42:14.242398
2026/02/21 05:40:00,DULAWF1,75.9,Dulacca Energy Project Co Pty Ltd,Dulacca Wind Farm,Wind,173.0,43.87,Dulacca Wind Farm,-26.63,149.87,2026-02-20T19:42:14.242398
2026/02/21 05:40:00,DUNDWF1,4.88,Dundonnell Wind Farm Pty Ltd,Dundonnell Wind Farm,Wind,168.0,2.9,Dundonnell Wind Farm,-37.52,142.58,2026-02-20T19:42:14.242398
2026/02/21 05:40:00,DUNDWF2,1.79,Dundonnell Wind Farm Pty Ltd,Dundonnell Wind Farm,Wind,46.0,3.89,Dundonnell Wind Farm,-37.52,142.58,2026-02-20T19:42:14.242398
2026/02/21 05:40:00,DUNDWF3,3.94,Dundonnell Wind Farm Pty Ltd,Dundonnell Wind Farm,Wind,122.0,3.23,Dundonnell Wind Farm,-37.52,142.58,2026-02-20T19:42:14.242398
2026/02/21 05:40:00,ELAINWF1,11.04,Lal Lal Wind Farms Nom Co Pty Ltd,Elaine Wind Farm,Wind,82.0,13.46,Elaine Wind Farm,-37.36,144.0,2026-02-20T19:42:14.242398
2026/02/21 05:40:00,FLYCRKWF,23.05,Iberdrola Australia Energy Markets Pty Limited,Flyers Creek Wind Farm,Wind,140.0,16.46,Flyers Creek Wind Farm,-33.365556,148.981944,2026-02-20T19:42:14.242398
2026/02/21 05:40:00,GPWFEST1,11.2,Golden Plains WF1 Pty Ltd as Trustee for the Golden Plains WF1 Unit Trust,Golden Plains Wind Farm East,Wind,240.0,4.67,Golden Plains Wind Farm East,-37.945091,143.752614,2026-02-20T19:42:14.242398
2026/02/21 05:40:00,GPWFEST2,11.14,Golden Plains WF1 Pty Ltd as Trustee for the Golden Plains WF1 Unit Trust,Golden Plains Wind Farm East,Wind,253.0,4.4,Golden Plains Wind Farm East,-37.945091,143.752614,2026-02-20T19:42:14.242398
2026/02/21 05:40:00,GPWFEST3,4.3,Golden Plains WF1 Pty Ltd as Trustee for the Golden Plains WF1 Unit Trust,Golden Plains Wind Farm East,Wind,240.0,1.79,Golden Plains Wind Farm East,-37.945091,143.752614,2026-02-20T19:42:14.242398
2026/02/21 05:40:00,GRANWF1,3.37,Granville Harbour Operations Pty Ltd as The Trustee for Granville Harbour Operations Trust,Granville Harbour Wind Farm,Wind,111.0,3.04,Granville Harbour Wind Farm,-41.8,145.06,2026-02-20T19:42:14.242398
2026/02/21 05:40:00,GSWF1A,117.54,Goyder Wind Farm 1 Pty Ltd as the Trustee for Goyder Wind Farm 1 Trust,Goyder South Wind Farm 1A,Wind,201.0,58.48,Goyder South Wind Farm 1A,-33.679758,138.937597,2026-02-20T19:42:14.242398
2026/02/21 05:40:00,GSWF1B1,30.56,Goyder Wind Farm 1B Pty Ltd as the Trustee for the Goyder Wind Farm 1B Trust,Goyder South Wind Farm 1B,Wind,196.0,15.59,Goyder South Wind Farm 1B,-33.679758,138.937597,2026-02-20T19:42:14.242398
2026/02/21 05:40:00,GULLRWF1,74.06,New Gullen Range Wind Farm Pty Ltd,Gullen Range Wind Farm,Wind,161.0,46.0,Gullen Range Wind Farm,-34.34,149.27,2026-02-20T19:42:14.242398
2026/02/21 05:40:00,GULLRWF2,18.18,New Gullen Range Wind Farm Pty Ltd,Gullen Range Wind Farm,Wind,107.0,16.99,Gullen Range Wind Farm,-34.34,149.27,2026-02-20T19:42:14.242398
2026/02/21 05:40:00,GUNNING1,9.77,Gunning Wind Energy Developments Pty Ltd,Gunning Wind Farm,Wind,47.0,20.79,Gunning Wind Farm,-34.813333,149.4,2026-02-20T19:42:14.242398
2026/02/21 05:40:00,HALLWF1,29.35,AGL SA Generation Pty Limited,Hallett 1 Wind Farm,Wind,95.0,30.89,Hallett 1 Wind Farm,-33.367778,138.728611,2026-02-20T19:42:14.242398
2026/02/21 05:40:00,HALLWF2,30.79,AGL SA Generation Pty Limited,Hallett 2 Wind Farm,Wind,71.0,43.37,Hallett 2 Wind Farm,-33.367778,138.728611,2026-02-20T19:42:14.242398
2026/02/21 05:40:00,HD1WF1,2.35,Hawkesdale Asset Pty Ltd as trustee for Hawkesdale Asset Trust,Hawkesdale Wind Farm,Wind,89.0,2.64,Hawkesdale Wind Farm,-38.147894,142.361381,2026-02-20T19:42:14.242398
2026/02/21 05:40:00,HDWF1,77.3,HWF1 Pty Ltd,Hornsdale Wind Farm,Wind,102.0,75.78,Hornsdale Wind Farm,-33.050556,138.543611,2026-02-20T19:42:14.242398
2026/02/21 05:40:00,HDWF2,86.2,HWF 2 Pty Ltd,Hornsdale Wind Farm 2,Wind,102.0,84.51,Hornsdale Wind Farm 2,-33.06,138.54,2026-02-20T19:42:14.242398
2026/02/21 05:40:00,HDWF3,87.4,HWF3 Pty Ltd,Hornsdale Wind Farm 3,Wind,109.0,80.18,Hornsdale Wind Farm 3,-33.06,138.54,2026-02-20T19:42:14.242398
2026/02/21 05:40:00,KABANWF1,1.91,Kaban Wind Farm Pty Ltd as trustee for Kaban Wind Farm Trust,Kaban Wind Farm,Wind,152.0,1.26,Kaban Wind Farm,-17.56,145.41,2026-02-20T19:42:14.242398
2026/02/21 05:40:00,KEPWF1,28.4,Kennedy Energy Park Pty Ltd,Kennedy Energy Park,Wind,43.0,66.05,Kennedy Energy Park,-20.88,144.42,2026-02-20T19:42:14.242398
2026/02/21 05:40:00,KIATAWF1,12.9,Kiata ProjectCo Pty Ltd Atf Kiata Project Trust,Kiata Wind Farm,Wind,31.0,41.61,Kiata Wind Farm,-36.4,141.75,2026-02-20T19:42:14.242398
2026/02/21 05:40:00,LGAPWF1,6.19,Lincoln Gap Wind Farm (Operations) Pty Ltd,Lincoln Gap Wind Farm,Wind,123.0,5.03,Lincoln Gap Wind Farm,-32.564279,137.557328,2026-02-20T19:42:14.242398
2026/02/21 05:40:00,LGAPWF1,6.19,Lincoln Gap Wind Farm (Operations) Pty Ltd,Lincoln Gap Wind Farm,Wind,123.0,5.03,Lincoln Gap Wind Farm,-32.564279,137.557328,2026-02-20T19:42:14.242398
2026/02/21 05:40:00,LGAPWF2,18.48,Lincoln Gap Wind Farm (Operations) Pty Ltd,Lincoln Gap Wind Farm,Wind,85.0,21.74,Lincoln Gap Wind Farm,-32.564279,137.557328,2026-02-20T19:42:14.242398
2026/02/21 05:40:00,LGAPWF2,18.48,Lincoln Gap Wind Farm (Operations) Pty Ltd,Lincoln Gap Wind Farm,Wind,85.0,21.74,Lincoln Gap Wind Farm,-32.564279,137.557328,2026-02-20T19:42:14.242398
2026/02/21 05:40:00,LKBONNY1,5.27,Lake Bonney Wind Power Pty Ltd,Lake Bonney Wind Farm Stage 1,Wind,81.0,6.51,Lake Bonney Wind Farm Stage 1,-37.76,140.4,2026-02-20T19:42:14.242398
2026/02/21 05:40:00,LKBONNY2,13.59,Lake Bonney Wind Power Pty Ltd,Lake Bonney Stage 2 Windfarm,Wind,159.0,8.55,Lake Bonney Stage 2 Windfarm,-37.76,140.4,2026-02-20T19:42:14.242398
2026/02/21 05:40:00,LKBONNY3,2.51,Lake Bonney Wind Power Pty Ltd,Lake Bonney Stage 3 Wind Farm,Wind,39.0,6.44,Lake Bonney Stage 3 Wind Farm,-37.737781,140.388137,2026-02-20T19:42:14.242398
2026/02/21 05:40:00,MACARTH1,23.3,AGL Hydro Partnership,Macarthur Wind Farm,Wind,420.0,5.55,Macarthur Wind Farm,-38.048957,142.192112,2026-02-20T19:42:14.242398
2026/02/21 05:40:00,MCINTYR1,125.34,MacIntyre UJV Operator Pty Ltd,MacIntyre Wind Farm,Wind,890.0,14.08,MacIntyre Wind Farm,-28.32,151.54,2026-02-20T19:42:14.242398
2026/02/21 05:40:00,MERCER01,21.1,Mt Mercer Windfarm Pty Ltd,Mt Mercer Wind Farm,Wind,131.0,16.11,Mt Mercer Wind Farm,-37.841111,143.871111,2026-02-20T19:42:14.242398
2026/02/21 05:40:00,MEWF1,2.0,Ergon Energy Queensland Pty Ltd ,Mount Emerald Wind Farm,Wind,178.0,1.12,Mount Emerald Wind Farm,-17.133007,145.380644,2026-02-20T19:42:14.242398
2026/02/21 05:40:00,MRTLSWF1,1.2,Mortlake South Wind Farm Pty Ltd,Mortlake South Wind Farm,Wind,153.0,0.78,Mortlake South Wind Farm,-38.127337,142.857801,2026-02-20T19:42:14.242398
2026/02/21 05:40:00,MTGELWF1,0.0,Mt. Gellibrand Wind Farm Pty Ltd,Mt Gellibrand Wind Farm,Wind,132.0,0.0,Mt Gellibrand Wind Farm,-38.23,143.77,2026-02-20T19:42:14.242398
2026/02/21 05:40:00,MTMILLAR,11.0,Mt Millar Wind Farm Pty Ltd,Mt Millar Wind Farm,Wind,70.0,15.71,Mt Millar Wind Farm,-33.624444,136.703611,2026-02-20T19:42:14.242398
2026/02/21 05:40:00,MUSSELR1,24.3,Hydro-Electric Corporation,Musselroe Wind Farm,Wind,168.0,14.46,Musselroe Wind Farm,-40.780225,148.010799,2026-02-20T19:42:14.242398
2026/02/21 05:40:00,MUWAWF1,85.53,Telstra Energy (Generation) Pty Ltd,Murra Warra Wind Farm,Wind,225.7,37.9,Murra Warra Wind Farm,-36.432404,142.317853,2026-02-20T19:42:14.242398
2026/02/21 05:40:00,MUWAWF2,100.0,Murra Warra II Project Co Pty Ltd ATF The Murra Warra II Project Trust,Murra Warra Wind Farm Stage 2,Wind,203.0,49.26,Murra Warra Wind Farm Stage 2,-36.43,142.32,2026-02-20T19:42:14.242398
2026/02/21 05:40:00,NBHWF1,89.8,AGL SA Generation Pty Limited,North Brown Hill Wind Farm,Wind,132.0,68.03,North Brown Hill Wind Farm,-33.367778,138.728611,2026-02-20T19:42:14.242398
2026/02/21 05:40:00,OAKLAND1,0.0,AGL Hydro Partnership,Oaklands Hill Wind Farm,Wind,63.0,0.0,Oaklands Hill Wind Farm,-37.683078,142.551678,2026-02-20T19:42:14.242398
2026/02/21 05:40:00,PAREPW1,93.28,Iberdrola Australia Energy Markets Pty Limited,Port Augusta Renewable Energy Park,Wind,201.0,46.41,Port Augusta Renewable Energy Park,-32.566944,137.856111,2026-02-20T19:42:14.242398
2026/02/21 05:40:00,RYANCWF1,7.3,Ryan Corner Development Pty Ltd,Ryan Corner Wind Farm,Wind,205.0,3.56,Ryan Corner Wind Farm,-38.271017,142.140647,2026-02-20T19:42:14.242398
2026/02/21 05:40:00,RYEPARK1,176.32,Rye Park Renewable Energy Pty Ltd as trustee for Rye Park Wind Farm Trust,Rye Park Renewable Energy,Wind,384.0,45.92,Rye Park Renewable Energy,-32.138333,148.972778,2026-02-20T19:42:14.242398
2026/02/21 05:40:00,SALTCRK1,1.23,Salt Creek Wind Farm Pty Ltd,Salt Creek Wind Farm,Wind,54.0,2.28,Salt Creek Wind Farm,-37.95,142.63,2026-02-20T19:42:14.242398
2026/02/21 05:40:00,SAPHWF1,57.47,The Trustee For The SWF1 Operations Trust,Sapphire Wind Farm,Wind,270.0,21.29,Sapphire Wind Farm,-29.7,151.41,2026-02-20T19:42:14.242398
2026/02/21 05:40:00,SNOWNTH1,42.3,Snowtown Wind Farm Stage 2 Pty Ltd,Snowtown Wind Farm Stage 2 North,Wind,144.0,29.37,Snowtown Wind Farm Stage 2 North,-33.83,138.118611,2026-02-20T19:42:14.242398
2026/02/21 05:40:00,SNOWSTH1,35.8,Snowtown Wind Farm Stage 2 Pty Ltd,Snowtown South Wind Farm,Wind,126.0,28.41,Snowtown South Wind Farm,-33.83,138.118611,2026-02-20T19:42:14.242398
2026/02/21 05:40:00,SNOWTWN1,55.23,Snowtown Wind Farm Pty Ltd,Snowtown Wind Farm Units 1 And 47,Wind,99.0,55.79,Snowtown Wind Farm Units 1 And 47,-33.83,138.118611,2026-02-20T19:42:14.242398
2026/02/21 05:40:00,STARHLWF,8.1,Starfish Hill Wind Farm Pty Ltd,Starfish Hill Wind Farm,Wind,35.0,23.14,Starfish Hill Wind Farm,-35.58,138.14,2026-02-20T19:42:14.242398
2026/02/21 05:40:00,STOCKYD1,27.4,Stockyard Hill Wind Farm Pty Ltd,Stockyard Hill Wind Farm,Wind,511.0,5.36,Stockyard Hill Wind Farm,-37.535833,143.251389,2026-02-20T19:42:14.242398
2026/02/21 05:40:00,STWF1,102.97,PARF Company 8 Pty Ltd as The Trustee for Silverton Project Trust,Silverton Wind Farm,Wind,198.0,52.01,Silverton Wind Farm,-37.683168,142.551678,2026-02-20T19:42:14.242398
2026/02/21 05:40:00,TARALGA1,80.09,Taralga Wind Farm Nominees No 2 Pty Ltd (ATF Taralga Wind Farm Operating Trust),Taralga Wind Farm,Wind,106.0,75.56,Taralga Wind Farm,-34.42352,149.826267,2026-02-20T19:42:14.242398
2026/02/21 05:40:00,WAMBOWF1,136.54,Stanwell Corporation Limited,Wambo Wind Farm 1,Wind,245.0,55.73,Wambo Wind Farm 1,-35.187301,149.524945,2026-02-20T19:42:14.242398
2026/02/21 05:40:00,WATERLWF,66.8,Waterloo Wind Farm Pty Ltd,Waterloo Wind Farm,Wind,130.0,51.38,Waterloo Wind Farm,-34.00094,138.911567,2026-02-20T19:42:14.242398
2026/02/21 05:40:00,WGWF1,36.5,Willogoleche Power Pty Ltd As The Trustee For The Willogoleche Operating Trust,Willogoleche Wind Farm,Wind,119.0,30.67,Willogoleche Wind Farm,-33.39,138.85,2026-02-20T19:42:14.242398
2026/02/21 05:40:00,WOODLWN1,12.71,Woodlawn Wind Pty Ltd,Woodlawn Wind Farm,Wind,48.0,26.48,Woodlawn Wind Farm,-35.08,149.62,2026-02-20T19:42:14.242398
2026/02/21 05:40:00,WPWF,2.38,AGL SA Generation Pty Limited,Wattle Point Wind Farm,Wind,91.0,2.62,Wattle Point Wind Farm,-35.111624,137.7219,2026-02-20T19:42:14.242398
2026/02/21 05:40:00,WRWF1,20.16,White Rock Wind Farm Pty Ltd,White Rock Wind Farm,Wind,172.0,11.72,White Rock Wind Farm,-29.79,151.54,2026-02-20T19:42:14.242398
2026/02/21 05:40:00,YENDWF1,8.41,Lal Lal Wind Farms Nom Co Pty Ltd,Yendon Wind Farm,Wind,142.0,5.92,Yendon Wind Farm,-37.629987,144.022717,2026-02-20T19:42:14.242398
