SETTLEMENTDATE,DUID,SCADAVALUE,Participant,Station Name,Fuel Source - Primary,MAX_CAP,utilisation_pct,Plant,Latitude,Longitude,timestamp_utc
2026/02/16 02:00:00,CAPTL_WF,16.45,Iberdrola Australia Holdings Pty Limited,Capital Wind Farm,Wind,140.0,11.75,Capital Wind Farm,-35.1,149.31,2026-02-15T15:57:49.834560
2026/02/16 02:00:00,CHALLHWF,17.8,Pacific Hydro Challicum Hills Pty Ltd,Challicum Hills Wind Farm,Wind,52.0,34.23,Challicum Hills Wind Farm,-37.38,143.11,2026-02-15T15:57:49.834560
2026/02/16 02:00:00,CULLRGWF,14.5,Cullerin Range Wind Farm Pty Ltd,Cullerin Range Wind Farm,Wind,30.0,48.33,Cullerin Range Wind Farm,-34.81,149.4,2026-02-15T15:57:49.834560
2026/02/16 02:00:00,DIAPURWF1,8.1,Y.E.S. Energy (SA) Pty Ltd,Diapur Wind Farm,Wind,7.0,115.71,Diapur Wind Farm,-36.3425,141.43,2026-02-15T15:57:49.834560
2026/02/16 02:00:00,MLWF1,10.01,Mortons Lane Windfarm Pty Limited,Mortons Lane Wind Farm,Wind,20.0,50.05,Mortons Lane Wind Farm,-37.84,142.45,2026-02-15T15:57:49.834560
2026/02/16 02:00:00,WAUBRAWF,96.53,Pyrenees Wind Energy Developments Pty Ltd,Waubra Wind Farm,Wind,192.0,50.28,Waubra Wind Farm,-37.394498,143.638982,2026-02-15T15:57:49.834560
2026/02/16 02:00:00,WOOLNTH1,93.55,Hydro-Electric Corporation,Woolnorth Studland Bay / Bluff Point Wind Farm,Wind,140.0,66.82,Woolnorth Studland Bay / Bluff Point Wind Farm,-40.69,144.72,2026-02-15T15:57:49.834560
2026/02/16 02:00:00,YAMBUKWF,13.6,Energy Pacific (Vic) Pty Ltd,Yambuk Wind Farm,Wind,30.0,45.33,Yambuk Wind Farm,-38.299083,142.027577,2026-02-15T15:57:49.834560
2026/02/16 02:00:00,YSWF1,2.6,Pacific Hydro Yaloak South Pty Ltd,Yaloak South Wind Farm,Wind,28.0,9.29,Yaloak South Wind Farm,-37.7163,144.242853,2026-02-15T15:57:49.834560
2026/02/16 02:00:00,ARWF1,45.4,Ararat Wind Farm Pty Ltd,Ararat Wind Farm,Wind,241.0,18.84,Ararat Wind Farm,-37.232778,143.031389,2026-02-15T15:57:49.834560
2026/02/16 02:00:00,BALDHWF1,100.0,Alinta Energy Retail Sales Pty Ltd,Bald Hills Wind Farm,Wind,106.0,94.34,Bald Hills Wind Farm,-38.79,145.93,2026-02-15T15:57:49.834560
2026/02/16 02:00:00,BANGOWF1,87.4,BWF Nominees Pty Ltd as The Trustee for BWF Trust,Bango 973 Wind Farm,Wind,155.0,56.39,Bango 973 Wind Farm,-34.551582,148.732808,2026-02-15T15:57:49.834560
2026/02/16 02:00:00,BANGOWF2,59.2,BWF Nominees Pty Ltd as The Trustee for BWF Trust,Bango 999 Wind Farm,Wind,82.0,72.2,Bango 999 Wind Farm,-34.551582,148.732808,2026-02-15T15:57:49.834560
2026/02/16 02:00:00,BLUFF1,29.4,AGL SA Generation Pty Limited,The Bluff Wind Farm,Wind,53.0,55.47,The Bluff Wind Farm,-33.367778,138.728611,2026-02-15T15:57:49.834560
2026/02/16 02:00:00,BOCORWF1,22.87,Boco Rock Wind Farm Pty Ltd,Boco Rock Wind Farm,Wind,111.0,20.6,Boco Rock Wind Farm,-36.578611,149.103333,2026-02-15T15:57:49.834560
2026/02/16 02:00:00,BRYB1WF1,35.43,Berrybank Development Pty Ltd,Berrybank Wind Farm,Wind,175.9,20.14,Berrybank Wind Farm,-37.94,143.52,2026-02-15T15:57:49.834560
2026/02/16 02:00:00,BRYB2WF2,31.47,Berrybank 2 Asset Pty Ltd as trustee for Berrybank 2 Asset Trust,Berrybank 2 Wind Farm,Wind,105.0,29.97,Berrybank 2 Wind Farm,-37.94,143.52,2026-02-15T15:57:49.834560
2026/02/16 02:00:00,BULGANA1,45.0,Bulgana Wind Farm Pty Ltd,Bulgana Green Power Hub,Wind,204.0,22.06,Bulgana Green Power Hub,-37.0975,142.973611,2026-02-15T15:57:49.834560
2026/02/16 02:00:00,CATHROCK,58.3,Cathedral Rocks Wind Farm Pty Ltd,Cathedral Rocks,Wind,66.0,88.33,Cathedral Rocks,-34.51,135.35,2026-02-15T15:57:49.834560
2026/02/16 02:00:00,CHYTWF1,1.78,Cherry Tree Wind Farm Pty Ltd as trustee for The Cherry Tree Project trust ,Cherry Tree Wind Farm,Wind,57.0,3.12,Cherry Tree Wind Farm,-37.1,145.26,2026-02-15T15:57:49.834560
2026/02/16 02:00:00,CLEMGPWF,30.33,Pacific Hydro Clements Gap Pty Ltd,Clements Gap Wind Farm,Wind,57.0,53.21,Clements Gap Wind Farm,-33.48,138.1,2026-02-15T15:57:49.834560
2026/02/16 02:00:00,CLRKCWF1,120.48,Stanwell Corporation Limited ,Clarke Creek Wind Farm,Wind,338.0,35.64,Clarke Creek Wind Farm,-22.85,149.45,2026-02-15T15:57:49.834560
2026/02/16 02:00:00,CLRKCWF2,42.33,Stanwell Corporation Limited ,Clarke Creek Wind Farm,Wind,101.0,41.91,Clarke Creek Wind Farm,-22.85,149.45,2026-02-15T15:57:49.834560
2026/02/16 02:00:00,CNUNDAWF,14.62,Canunda Power Pty Ltd,Canunda Wind Farm,Wind,46.0,31.78,Canunda Wind Farm,-37.73,140.39,2026-02-15T15:57:49.834560
2026/02/16 02:00:00,COLWF01,64.65,Collector Wind Farm Pty Ltd,Collector Wind Farm 1,Wind,219.0,29.52,Collector Wind Farm 1,-34.8719,149.3967,2026-02-15T15:57:49.834560
2026/02/16 02:00:00,COOPGWF1,359.36,PARF Company 10 Pty Limited as The Trustee for Coopers Gap Project Trust,Coopers Gap Wind Farm,Wind,440.0,81.67,Coopers Gap Wind Farm,-26.74,151.45,2026-02-15T15:57:49.834560
2026/02/16 02:00:00,CROOKWF2,22.1,Crookwell Development Pty Ltd ,Crookwell 2 Wind Farm,Wind,91.0,24.29,Crookwell 2 Wind Farm,-34.52,149.54,2026-02-15T15:57:49.834560
2026/02/16 02:00:00,CROOKWF3,14.15,Crookwell 3 Development Pty Ltd,Crookwell 3 Wind Farm,Wind,56.0,25.27,Crookwell 3 Wind Farm,-34.52,149.54,2026-02-15T15:57:49.834560
2026/02/16 02:00:00,CROWLWF1,43.02,Pacific Hydro Crowlands Pty Ltd ,Crowlands Wind Farm,Wind,79.0,54.46,Crowlands Wind Farm,-37.13,143.16,2026-02-15T15:57:49.834560
2026/02/16 02:00:00,CRURWF1,62.0,CRWF Nominees Pty Ltd As Trustee For The CRWF Trust,Crudine Ridge Wind Farm,Wind,138.0,44.93,Crudine Ridge Wind Farm,-32.97,149.64,2026-02-15T15:57:49.834560
2026/02/16 02:00:00,CTHLWF1,12.89,Wild Cattle Hill Pty Ltd,Cattle Hill Wind Farm,Wind,144.0,8.95,Cattle Hill Wind Farm,-42.15,146.69,2026-02-15T15:57:49.834560
2026/02/16 02:00:00,DULAWF1,77.1,Dulacca Energy Project Co Pty Ltd,Dulacca Wind Farm,Wind,173.0,44.57,Dulacca Wind Farm,-26.63,149.87,2026-02-15T15:57:49.834560
2026/02/16 02:00:00,DUNDWF1,19.76,Dundonnell Wind Farm Pty Ltd,Dundonnell Wind Farm,Wind,168.0,11.76,Dundonnell Wind Farm,-37.52,142.58,2026-02-15T15:57:49.834560
2026/02/16 02:00:00,DUNDWF2,5.47,Dundonnell Wind Farm Pty Ltd,Dundonnell Wind Farm,Wind,46.0,11.89,Dundonnell Wind Farm,-37.52,142.58,2026-02-15T15:57:49.834560
2026/02/16 02:00:00,DUNDWF3,8.97,Dundonnell Wind Farm Pty Ltd,Dundonnell Wind Farm,Wind,122.0,7.35,Dundonnell Wind Farm,-37.52,142.58,2026-02-15T15:57:49.834560
2026/02/16 02:00:00,ELAINWF1,21.2,Lal Lal Wind Farms Nom Co Pty Ltd,Elaine Wind Farm,Wind,82.0,25.85,Elaine Wind Farm,-37.36,144.0,2026-02-15T15:57:49.834560
2026/02/16 02:00:00,FLYCRKWF,63.18,Iberdrola Australia Energy Markets Pty Limited,Flyers Creek Wind Farm,Wind,140.0,45.13,Flyers Creek Wind Farm,-33.365556,148.981944,2026-02-15T15:57:49.834560
2026/02/16 02:00:00,GPWFEST1,58.54,Golden Plains WF1 Pty Ltd as Trustee for the Golden Plains WF1 Unit Trust,Golden Plains Wind Farm East,Wind,240.0,24.39,Golden Plains Wind Farm East,-37.945091,143.752614,2026-02-15T15:57:49.834560
2026/02/16 02:00:00,GPWFEST2,52.6,Golden Plains WF1 Pty Ltd as Trustee for the Golden Plains WF1 Unit Trust,Golden Plains Wind Farm East,Wind,253.0,20.79,Golden Plains Wind Farm East,-37.945091,143.752614,2026-02-15T15:57:49.834560
2026/02/16 02:00:00,GPWFEST3,46.59,Golden Plains WF1 Pty Ltd as Trustee for the Golden Plains WF1 Unit Trust,Golden Plains Wind Farm East,Wind,240.0,19.41,Golden Plains Wind Farm East,-37.945091,143.752614,2026-02-15T15:57:49.834560
2026/02/16 02:00:00,GRANWF1,23.52,Granville Harbour Operations Pty Ltd as The Trustee for Granville Harbour Operations Trust,Granville Harbour Wind Farm,Wind,111.0,21.19,Granville Harbour Wind Farm,-41.8,145.06,2026-02-15T15:57:49.834560
2026/02/16 02:00:00,GSWF1A,111.58,Goyder Wind Farm 1 Pty Ltd as the Trustee for Goyder Wind Farm 1 Trust,Goyder South Wind Farm 1A,Wind,201.0,55.51,Goyder South Wind Farm 1A,-33.679758,138.937597,2026-02-15T15:57:49.834560
2026/02/16 02:00:00,GSWF1B1,121.43,Goyder Wind Farm 1B Pty Ltd as the Trustee for the Goyder Wind Farm 1B Trust,Goyder South Wind Farm 1B,Wind,196.0,61.95,Goyder South Wind Farm 1B,-33.679758,138.937597,2026-02-15T15:57:49.834560
2026/02/16 02:00:00,GULLRWF1,52.32,New Gullen Range Wind Farm Pty Ltd,Gullen Range Wind Farm,Wind,161.0,32.5,Gullen Range Wind Farm,-34.34,149.27,2026-02-15T15:57:49.834560
2026/02/16 02:00:00,GULLRWF2,69.14,New Gullen Range Wind Farm Pty Ltd,Gullen Range Wind Farm,Wind,107.0,64.62,Gullen Range Wind Farm,-34.34,149.27,2026-02-15T15:57:49.834560
2026/02/16 02:00:00,GUNNING1,18.74,Gunning Wind Energy Developments Pty Ltd,Gunning Wind Farm,Wind,47.0,39.87,Gunning Wind Farm,-34.813333,149.4,2026-02-15T15:57:49.834560
2026/02/16 02:00:00,HALLWF1,57.48,AGL SA Generation Pty Limited,Hallett 1 Wind Farm,Wind,95.0,60.51,Hallett 1 Wind Farm,-33.367778,138.728611,2026-02-15T15:57:49.834560
2026/02/16 02:00:00,HALLWF2,52.58,AGL SA Generation Pty Limited,Hallett 2 Wind Farm,Wind,71.0,74.06,Hallett 2 Wind Farm,-33.367778,138.728611,2026-02-15T15:57:49.834560
2026/02/16 02:00:00,HD1WF1,84.61,Hawkesdale Asset Pty Ltd as trustee for Hawkesdale Asset Trust,Hawkesdale Wind Farm,Wind,89.0,95.07,Hawkesdale Wind Farm,-38.147894,142.361381,2026-02-15T15:57:49.834560
2026/02/16 02:00:00,HDWF1,62.0,HWF1 Pty Ltd,Hornsdale Wind Farm,Wind,102.0,60.78,Hornsdale Wind Farm,-33.050556,138.543611,2026-02-15T15:57:49.834560
2026/02/16 02:00:00,HDWF2,54.7,HWF 2 Pty Ltd,Hornsdale Wind Farm 2,Wind,102.0,53.63,Hornsdale Wind Farm 2,-33.06,138.54,2026-02-15T15:57:49.834560
2026/02/16 02:00:00,HDWF3,64.2,HWF3 Pty Ltd,Hornsdale Wind Farm 3,Wind,109.0,58.9,Hornsdale Wind Farm 3,-33.06,138.54,2026-02-15T15:57:49.834560
2026/02/16 02:00:00,KABANWF1,0.11,Kaban Wind Farm Pty Ltd as trustee for Kaban Wind Farm Trust,Kaban Wind Farm,Wind,152.0,0.07,Kaban Wind Farm,-17.56,145.41,2026-02-15T15:57:49.834560
2026/02/16 02:00:00,KEPWF1,19.1,Kennedy Energy Park Pty Ltd,Kennedy Energy Park,Wind,43.0,44.42,Kennedy Energy Park,-20.88,144.42,2026-02-15T15:57:49.834560
2026/02/16 02:00:00,KIATAWF1,29.1,Kiata ProjectCo Pty Ltd Atf Kiata Project Trust,Kiata Wind Farm,Wind,31.0,93.87,Kiata Wind Farm,-36.4,141.75,2026-02-15T15:57:49.834560
2026/02/16 02:00:00,LGAPWF1,84.28,Lincoln Gap Wind Farm (Operations) Pty Ltd,Lincoln Gap Wind Farm,Wind,123.0,68.52,Lincoln Gap Wind Farm,-32.564279,137.557328,2026-02-15T15:57:49.834560
2026/02/16 02:00:00,LGAPWF1,84.28,Lincoln Gap Wind Farm (Operations) Pty Ltd,Lincoln Gap Wind Farm,Wind,123.0,68.52,Lincoln Gap Wind Farm,-32.564279,137.557328,2026-02-15T15:57:49.834560
2026/02/16 02:00:00,LGAPWF2,74.88,Lincoln Gap Wind Farm (Operations) Pty Ltd,Lincoln Gap Wind Farm,Wind,85.0,88.09,Lincoln Gap Wind Farm,-32.564279,137.557328,2026-02-15T15:57:49.834560
2026/02/16 02:00:00,LGAPWF2,74.88,Lincoln Gap Wind Farm (Operations) Pty Ltd,Lincoln Gap Wind Farm,Wind,85.0,88.09,Lincoln Gap Wind Farm,-32.564279,137.557328,2026-02-15T15:57:49.834560
2026/02/16 02:00:00,LKBONNY1,26.26,Lake Bonney Wind Power Pty Ltd,Lake Bonney Wind Farm Stage 1,Wind,81.0,32.42,Lake Bonney Wind Farm Stage 1,-37.76,140.4,2026-02-15T15:57:49.834560
2026/02/16 02:00:00,LKBONNY2,50.12,Lake Bonney Wind Power Pty Ltd,Lake Bonney Stage 2 Windfarm,Wind,159.0,31.52,Lake Bonney Stage 2 Windfarm,-37.76,140.4,2026-02-15T15:57:49.834560
2026/02/16 02:00:00,LKBONNY3,17.3,Lake Bonney Wind Power Pty Ltd,Lake Bonney Stage 3 Wind Farm,Wind,39.0,44.36,Lake Bonney Stage 3 Wind Farm,-37.737781,140.388137,2026-02-15T15:57:49.834560
2026/02/16 02:00:00,MACARTH1,170.8,AGL Hydro Partnership,Macarthur Wind Farm,Wind,420.0,40.67,Macarthur Wind Farm,-38.048957,142.192112,2026-02-15T15:57:49.834560
2026/02/16 02:00:00,MCINTYR1,364.82,MacIntyre UJV Operator Pty Ltd,MacIntyre Wind Farm,Wind,890.0,40.99,MacIntyre Wind Farm,-28.32,151.54,2026-02-15T15:57:49.834560
2026/02/16 02:00:00,MERCER01,17.7,Mt Mercer Windfarm Pty Ltd,Mt Mercer Wind Farm,Wind,131.0,13.51,Mt Mercer Wind Farm,-37.841111,143.871111,2026-02-15T15:57:49.834560
2026/02/16 02:00:00,MEWF1,35.2,Ergon Energy Queensland Pty Ltd ,Mount Emerald Wind Farm,Wind,178.0,19.78,Mount Emerald Wind Farm,-17.133007,145.380644,2026-02-15T15:57:49.834560
2026/02/16 02:00:00,MRTLSWF1,81.17,Mortlake South Wind Farm Pty Ltd,Mortlake South Wind Farm,Wind,153.0,53.05,Mortlake South Wind Farm,-38.127337,142.857801,2026-02-15T15:57:49.834560
2026/02/16 02:00:00,MTGELWF1,55.89,Mt. Gellibrand Wind Farm Pty Ltd,Mt Gellibrand Wind Farm,Wind,132.0,42.34,Mt Gellibrand Wind Farm,-38.23,143.77,2026-02-15T15:57:49.834560
2026/02/16 02:00:00,MTMILLAR,55.6,Mt Millar Wind Farm Pty Ltd,Mt Millar Wind Farm,Wind,70.0,79.43,Mt Millar Wind Farm,-33.624444,136.703611,2026-02-15T15:57:49.834560
2026/02/16 02:00:00,MUSSELR1,43.3,Hydro-Electric Corporation,Musselroe Wind Farm,Wind,168.0,25.77,Musselroe Wind Farm,-40.780225,148.010799,2026-02-15T15:57:49.834560
2026/02/16 02:00:00,MUWAWF1,127.4,Telstra Energy (Generation) Pty Ltd,Murra Warra Wind Farm,Wind,225.7,56.45,Murra Warra Wind Farm,-36.432404,142.317853,2026-02-15T15:57:49.834560
2026/02/16 02:00:00,MUWAWF2,146.5,Murra Warra II Project Co Pty Ltd ATF The Murra Warra II Project Trust,Murra Warra Wind Farm Stage 2,Wind,203.0,72.17,Murra Warra Wind Farm Stage 2,-36.43,142.32,2026-02-15T15:57:49.834560
2026/02/16 02:00:00,NBHWF1,95.2,AGL SA Generation Pty Limited,North Brown Hill Wind Farm,Wind,132.0,72.12,North Brown Hill Wind Farm,-33.367778,138.728611,2026-02-15T15:57:49.834560
2026/02/16 02:00:00,OAKLAND1,17.0,AGL Hydro Partnership,Oaklands Hill Wind Farm,Wind,63.0,26.98,Oaklands Hill Wind Farm,-37.683078,142.551678,2026-02-15T15:57:49.834560
2026/02/16 02:00:00,PAREPW1,108.56,Iberdrola Australia Energy Markets Pty Limited,Port Augusta Renewable Energy Park,Wind,201.0,54.01,Port Augusta Renewable Energy Park,-32.566944,137.856111,2026-02-15T15:57:49.834560
2026/02/16 02:00:00,RYANCWF1,138.85,Ryan Corner Development Pty Ltd,Ryan Corner Wind Farm,Wind,205.0,67.73,Ryan Corner Wind Farm,-38.271017,142.140647,2026-02-15T15:57:49.834560
2026/02/16 02:00:00,RYEPARK1,179.82,Rye Park Renewable Energy Pty Ltd as trustee for Rye Park Wind Farm Trust,Rye Park Renewable Energy,Wind,384.0,46.83,Rye Park Renewable Energy,-32.138333,148.972778,2026-02-15T15:57:49.834560
2026/02/16 02:00:00,SALTCRK1,15.14,Salt Creek Wind Farm Pty Ltd,Salt Creek Wind Farm,Wind,54.0,28.04,Salt Creek Wind Farm,-37.95,142.63,2026-02-15T15:57:49.834560
2026/02/16 02:00:00,SAPHWF1,262.28,The Trustee For The SWF1 Operations Trust,Sapphire Wind Farm,Wind,270.0,97.14,Sapphire Wind Farm,-29.7,151.41,2026-02-15T15:57:49.834560
2026/02/16 02:00:00,SNOWNTH1,106.8,Snowtown Wind Farm Stage 2 Pty Ltd,Snowtown Wind Farm Stage 2 North,Wind,144.0,74.17,Snowtown Wind Farm Stage 2 North,-33.83,138.118611,2026-02-15T15:57:49.834560
2026/02/16 02:00:00,SNOWSTH1,101.6,Snowtown Wind Farm Stage 2 Pty Ltd,Snowtown South Wind Farm,Wind,126.0,80.63,Snowtown South Wind Farm,-33.83,138.118611,2026-02-15T15:57:49.834560
2026/02/16 02:00:00,SNOWTWN1,80.37,Snowtown Wind Farm Pty Ltd,Snowtown Wind Farm Units 1 And 47,Wind,99.0,81.18,Snowtown Wind Farm Units 1 And 47,-33.83,138.118611,2026-02-15T15:57:49.834560
2026/02/16 02:00:00,STARHLWF,15.1,Starfish Hill Wind Farm Pty Ltd,Starfish Hill Wind Farm,Wind,35.0,43.14,Starfish Hill Wind Farm,-35.58,138.14,2026-02-15T15:57:49.834560
2026/02/16 02:00:00,STOCKYD1,303.7,Stockyard Hill Wind Farm Pty Ltd,Stockyard Hill Wind Farm,Wind,511.0,59.43,Stockyard Hill Wind Farm,-37.535833,143.251389,2026-02-15T15:57:49.834560
2026/02/16 02:00:00,STWF1,37.52,PARF Company 8 Pty Ltd as The Trustee for Silverton Project Trust,Silverton Wind Farm,Wind,198.0,18.95,Silverton Wind Farm,-37.683168,142.551678,2026-02-15T15:57:49.834560
2026/02/16 02:00:00,TARALGA1,22.59,Taralga Wind Farm Nominees No 2 Pty Ltd (ATF Taralga Wind Farm Operating Trust),Taralga Wind Farm,Wind,106.0,21.31,Taralga Wind Farm,-34.42352,149.826267,2026-02-15T15:57:49.834560
2026/02/16 02:00:00,WAMBOWF1,165.35,Stanwell Corporation Limited,Wambo Wind Farm 1,Wind,245.0,67.49,Wambo Wind Farm 1,-35.187301,149.524945,2026-02-15T15:57:49.834560
2026/02/16 02:00:00,WATERLWF,35.1,Waterloo Wind Farm Pty Ltd,Waterloo Wind Farm,Wind,130.0,27.0,Waterloo Wind Farm,-34.00094,138.911567,2026-02-15T15:57:49.834560
2026/02/16 02:00:00,WGWF1,68.4,Willogoleche Power Pty Ltd As The Trustee For The Willogoleche Operating Trust,Willogoleche Wind Farm,Wind,119.0,57.48,Willogoleche Wind Farm,-33.39,138.85,2026-02-15T15:57:49.834560
2026/02/16 02:00:00,WOODLWN1,16.08,Woodlawn Wind Pty Ltd,Woodlawn Wind Farm,Wind,48.0,33.5,Woodlawn Wind Farm,-35.08,149.62,2026-02-15T15:57:49.834560
2026/02/16 02:00:00,WPWF,7.58,AGL SA Generation Pty Limited,Wattle Point Wind Farm,Wind,91.0,8.33,Wattle Point Wind Farm,-35.111624,137.7219,2026-02-15T15:57:49.834560
2026/02/16 02:00:00,WRWF1,161.48,White Rock Wind Farm Pty Ltd,White Rock Wind Farm,Wind,172.0,93.88,White Rock Wind Farm,-29.79,151.54,2026-02-15T15:57:49.834560
2026/02/16 02:00:00,YENDWF1,58.24,Lal Lal Wind Farms Nom Co Pty Ltd,Yendon Wind Farm,Wind,142.0,41.01,Yendon Wind Farm,-37.629987,144.022717,2026-02-15T15:57:49.834560
