SETTLEMENTDATE,DUID,SCADAVALUE,Participant,Station Name,Fuel Source - Primary,MAX_CAP,utilisation_pct,Plant,Latitude,Longitude,timestamp_utc
2026/02/20 07:20:00,CAPTL_WF,14.22,Iberdrola Australia Holdings Pty Limited,Capital Wind Farm,Wind,140.0,10.16,Capital Wind Farm,-35.1,149.31,2026-02-19T21:19:01.289118
2026/02/20 07:20:00,CHALLHWF,0.0,Pacific Hydro Challicum Hills Pty Ltd,Challicum Hills Wind Farm,Wind,52.0,0.0,Challicum Hills Wind Farm,-37.38,143.11,2026-02-19T21:19:01.289118
2026/02/20 07:20:00,CULLRGWF,18.39,Cullerin Range Wind Farm Pty Ltd,Cullerin Range Wind Farm,Wind,30.0,61.3,Cullerin Range Wind Farm,-34.81,149.4,2026-02-19T21:19:01.289118
2026/02/20 07:20:00,DIAPURWF1,4.2,Y.E.S. Energy (SA) Pty Ltd,Diapur Wind Farm,Wind,7.0,60.0,Diapur Wind Farm,-36.3425,141.43,2026-02-19T21:19:01.289118
2026/02/20 07:20:00,MLWF1,1.06,Mortons Lane Windfarm Pty Limited,Mortons Lane Wind Farm,Wind,20.0,5.3,Mortons Lane Wind Farm,-37.84,142.45,2026-02-19T21:19:01.289118
2026/02/20 07:20:00,WAUBRAWF,5.13,Pyrenees Wind Energy Developments Pty Ltd,Waubra Wind Farm,Wind,192.0,2.67,Waubra Wind Farm,-37.394498,143.638982,2026-02-19T21:19:01.289118
2026/02/20 07:20:00,WOOLNTH1,-0.26,Hydro-Electric Corporation,Woolnorth Studland Bay / Bluff Point Wind Farm,Wind,140.0,-0.19,Woolnorth Studland Bay / Bluff Point Wind Farm,-40.69,144.72,2026-02-19T21:19:01.289118
2026/02/20 07:20:00,YAMBUKWF,6.3,Energy Pacific (Vic) Pty Ltd,Yambuk Wind Farm,Wind,30.0,21.0,Yambuk Wind Farm,-38.299083,142.027577,2026-02-19T21:19:01.289118
2026/02/20 07:20:00,YSWF1,0.0,Pacific Hydro Yaloak South Pty Ltd,Yaloak South Wind Farm,Wind,28.0,0.0,Yaloak South Wind Farm,-37.7163,144.242853,2026-02-19T21:19:01.289118
2026/02/20 07:20:00,ARWF1,0.0,Ararat Wind Farm Pty Ltd,Ararat Wind Farm,Wind,241.0,0.0,Ararat Wind Farm,-37.232778,143.031389,2026-02-19T21:19:01.289118
2026/02/20 07:20:00,BALDHWF1,0.0,Alinta Energy Retail Sales Pty Ltd,Bald Hills Wind Farm,Wind,106.0,0.0,Bald Hills Wind Farm,-38.79,145.93,2026-02-19T21:19:01.289118
2026/02/20 07:20:00,BANGOWF1,29.8,BWF Nominees Pty Ltd as The Trustee for BWF Trust,Bango 973 Wind Farm,Wind,155.0,19.23,Bango 973 Wind Farm,-34.551582,148.732808,2026-02-19T21:19:01.289118
2026/02/20 07:20:00,BANGOWF2,28.0,BWF Nominees Pty Ltd as The Trustee for BWF Trust,Bango 999 Wind Farm,Wind,82.0,34.15,Bango 999 Wind Farm,-34.551582,148.732808,2026-02-19T21:19:01.289118
2026/02/20 07:20:00,BLUFF1,7.1,AGL SA Generation Pty Limited,The Bluff Wind Farm,Wind,53.0,13.4,The Bluff Wind Farm,-33.367778,138.728611,2026-02-19T21:19:01.289118
2026/02/20 07:20:00,BOCORWF1,65.16,Boco Rock Wind Farm Pty Ltd,Boco Rock Wind Farm,Wind,111.0,58.7,Boco Rock Wind Farm,-36.578611,149.103333,2026-02-19T21:19:01.289118
2026/02/20 07:20:00,BRYB1WF1,4.75,Berrybank Development Pty Ltd,Berrybank Wind Farm,Wind,175.9,2.7,Berrybank Wind Farm,-37.94,143.52,2026-02-19T21:19:01.289118
2026/02/20 07:20:00,BRYB2WF2,3.26,Berrybank 2 Asset Pty Ltd as trustee for Berrybank 2 Asset Trust,Berrybank 2 Wind Farm,Wind,105.0,3.1,Berrybank 2 Wind Farm,-37.94,143.52,2026-02-19T21:19:01.289118
2026/02/20 07:20:00,BULGANA1,0.0,Bulgana Wind Farm Pty Ltd,Bulgana Green Power Hub,Wind,204.0,0.0,Bulgana Green Power Hub,-37.0975,142.973611,2026-02-19T21:19:01.289118
2026/02/20 07:20:00,CATHROCK,0.0,Cathedral Rocks Wind Farm Pty Ltd,Cathedral Rocks,Wind,66.0,0.0,Cathedral Rocks,-34.51,135.35,2026-02-19T21:19:01.289118
2026/02/20 07:20:00,CHYTWF1,3.98,Cherry Tree Wind Farm Pty Ltd as trustee for The Cherry Tree Project trust ,Cherry Tree Wind Farm,Wind,57.0,6.98,Cherry Tree Wind Farm,-37.1,145.26,2026-02-19T21:19:01.289118
2026/02/20 07:20:00,CLEMGPWF,22.11,Pacific Hydro Clements Gap Pty Ltd,Clements Gap Wind Farm,Wind,57.0,38.79,Clements Gap Wind Farm,-33.48,138.1,2026-02-19T21:19:01.289118
2026/02/20 07:20:00,CLRKCWF1,313.92,Stanwell Corporation Limited ,Clarke Creek Wind Farm,Wind,338.0,92.88,Clarke Creek Wind Farm,-22.85,149.45,2026-02-19T21:19:01.289118
2026/02/20 07:20:00,CLRKCWF2,77.26,Stanwell Corporation Limited ,Clarke Creek Wind Farm,Wind,101.0,76.5,Clarke Creek Wind Farm,-22.85,149.45,2026-02-19T21:19:01.289118
2026/02/20 07:20:00,CNUNDAWF,5.11,Canunda Power Pty Ltd,Canunda Wind Farm,Wind,46.0,11.11,Canunda Wind Farm,-37.73,140.39,2026-02-19T21:19:01.289118
2026/02/20 07:20:00,COLWF01,76.34,Collector Wind Farm Pty Ltd,Collector Wind Farm 1,Wind,219.0,34.86,Collector Wind Farm 1,-34.8719,149.3967,2026-02-19T21:19:01.289118
2026/02/20 07:20:00,COOPGWF1,25.24,PARF Company 10 Pty Limited as The Trustee for Coopers Gap Project Trust,Coopers Gap Wind Farm,Wind,440.0,5.74,Coopers Gap Wind Farm,-26.74,151.45,2026-02-19T21:19:01.289118
2026/02/20 07:20:00,CROOKWF2,23.69,Crookwell Development Pty Ltd ,Crookwell 2 Wind Farm,Wind,91.0,26.03,Crookwell 2 Wind Farm,-34.52,149.54,2026-02-19T21:19:01.289118
2026/02/20 07:20:00,CROOKWF3,28.38,Crookwell 3 Development Pty Ltd,Crookwell 3 Wind Farm,Wind,56.0,50.68,Crookwell 3 Wind Farm,-34.52,149.54,2026-02-19T21:19:01.289118
2026/02/20 07:20:00,CROWLWF1,1.26,Pacific Hydro Crowlands Pty Ltd ,Crowlands Wind Farm,Wind,79.0,1.59,Crowlands Wind Farm,-37.13,143.16,2026-02-19T21:19:01.289118
2026/02/20 07:20:00,CRURWF1,44.9,CRWF Nominees Pty Ltd As Trustee For The CRWF Trust,Crudine Ridge Wind Farm,Wind,138.0,32.54,Crudine Ridge Wind Farm,-32.97,149.64,2026-02-19T21:19:01.289118
2026/02/20 07:20:00,CTHLWF1,42.83,Wild Cattle Hill Pty Ltd,Cattle Hill Wind Farm,Wind,144.0,29.74,Cattle Hill Wind Farm,-42.15,146.69,2026-02-19T21:19:01.289118
2026/02/20 07:20:00,DULAWF1,22.7,Dulacca Energy Project Co Pty Ltd,Dulacca Wind Farm,Wind,173.0,13.12,Dulacca Wind Farm,-26.63,149.87,2026-02-19T21:19:01.289118
2026/02/20 07:20:00,DUNDWF1,6.98,Dundonnell Wind Farm Pty Ltd,Dundonnell Wind Farm,Wind,168.0,4.15,Dundonnell Wind Farm,-37.52,142.58,2026-02-19T21:19:01.289118
2026/02/20 07:20:00,DUNDWF2,1.32,Dundonnell Wind Farm Pty Ltd,Dundonnell Wind Farm,Wind,46.0,2.87,Dundonnell Wind Farm,-37.52,142.58,2026-02-19T21:19:01.289118
2026/02/20 07:20:00,DUNDWF3,1.75,Dundonnell Wind Farm Pty Ltd,Dundonnell Wind Farm,Wind,122.0,1.43,Dundonnell Wind Farm,-37.52,142.58,2026-02-19T21:19:01.289118
2026/02/20 07:20:00,ELAINWF1,0.0,Lal Lal Wind Farms Nom Co Pty Ltd,Elaine Wind Farm,Wind,82.0,0.0,Elaine Wind Farm,-37.36,144.0,2026-02-19T21:19:01.289118
2026/02/20 07:20:00,FLYCRKWF,53.41,Iberdrola Australia Energy Markets Pty Limited,Flyers Creek Wind Farm,Wind,140.0,38.15,Flyers Creek Wind Farm,-33.365556,148.981944,2026-02-19T21:19:01.289118
2026/02/20 07:20:00,GPWFEST1,2.36,Golden Plains WF1 Pty Ltd as Trustee for the Golden Plains WF1 Unit Trust,Golden Plains Wind Farm East,Wind,240.0,0.98,Golden Plains Wind Farm East,-37.945091,143.752614,2026-02-19T21:19:01.289118
2026/02/20 07:20:00,GPWFEST2,1.13,Golden Plains WF1 Pty Ltd as Trustee for the Golden Plains WF1 Unit Trust,Golden Plains Wind Farm East,Wind,253.0,0.45,Golden Plains Wind Farm East,-37.945091,143.752614,2026-02-19T21:19:01.289118
2026/02/20 07:20:00,GPWFEST3,3.73,Golden Plains WF1 Pty Ltd as Trustee for the Golden Plains WF1 Unit Trust,Golden Plains Wind Farm East,Wind,240.0,1.55,Golden Plains Wind Farm East,-37.945091,143.752614,2026-02-19T21:19:01.289118
2026/02/20 07:20:00,GRANWF1,10.6,Granville Harbour Operations Pty Ltd as The Trustee for Granville Harbour Operations Trust,Granville Harbour Wind Farm,Wind,111.0,9.55,Granville Harbour Wind Farm,-41.8,145.06,2026-02-19T21:19:01.289118
2026/02/20 07:20:00,GSWF1A,47.52,Goyder Wind Farm 1 Pty Ltd as the Trustee for Goyder Wind Farm 1 Trust,Goyder South Wind Farm 1A,Wind,201.0,23.64,Goyder South Wind Farm 1A,-33.679758,138.937597,2026-02-19T21:19:01.289118
2026/02/20 07:20:00,GSWF1B1,9.71,Goyder Wind Farm 1B Pty Ltd as the Trustee for the Goyder Wind Farm 1B Trust,Goyder South Wind Farm 1B,Wind,196.0,4.95,Goyder South Wind Farm 1B,-33.679758,138.937597,2026-02-19T21:19:01.289118
2026/02/20 07:20:00,GULLRWF1,49.97,New Gullen Range Wind Farm Pty Ltd,Gullen Range Wind Farm,Wind,161.0,31.04,Gullen Range Wind Farm,-34.34,149.27,2026-02-19T21:19:01.289118
2026/02/20 07:20:00,GULLRWF2,63.24,New Gullen Range Wind Farm Pty Ltd,Gullen Range Wind Farm,Wind,107.0,59.1,Gullen Range Wind Farm,-34.34,149.27,2026-02-19T21:19:01.289118
2026/02/20 07:20:00,GUNNING1,25.82,Gunning Wind Energy Developments Pty Ltd,Gunning Wind Farm,Wind,47.0,54.94,Gunning Wind Farm,-34.813333,149.4,2026-02-19T21:19:01.289118
2026/02/20 07:20:00,HALLWF1,24.52,AGL SA Generation Pty Limited,Hallett 1 Wind Farm,Wind,95.0,25.81,Hallett 1 Wind Farm,-33.367778,138.728611,2026-02-19T21:19:01.289118
2026/02/20 07:20:00,HALLWF2,17.59,AGL SA Generation Pty Limited,Hallett 2 Wind Farm,Wind,71.0,24.77,Hallett 2 Wind Farm,-33.367778,138.728611,2026-02-19T21:19:01.289118
2026/02/20 07:20:00,HD1WF1,11.4,Hawkesdale Asset Pty Ltd as trustee for Hawkesdale Asset Trust,Hawkesdale Wind Farm,Wind,89.0,12.81,Hawkesdale Wind Farm,-38.147894,142.361381,2026-02-19T21:19:01.289118
2026/02/20 07:20:00,HDWF1,65.1,HWF1 Pty Ltd,Hornsdale Wind Farm,Wind,102.0,63.82,Hornsdale Wind Farm,-33.050556,138.543611,2026-02-19T21:19:01.289118
2026/02/20 07:20:00,HDWF2,70.3,HWF 2 Pty Ltd,Hornsdale Wind Farm 2,Wind,102.0,68.92,Hornsdale Wind Farm 2,-33.06,138.54,2026-02-19T21:19:01.289118
2026/02/20 07:20:00,HDWF3,64.1,HWF3 Pty Ltd,Hornsdale Wind Farm 3,Wind,109.0,58.81,Hornsdale Wind Farm 3,-33.06,138.54,2026-02-19T21:19:01.289118
2026/02/20 07:20:00,KABANWF1,7.54,Kaban Wind Farm Pty Ltd as trustee for Kaban Wind Farm Trust,Kaban Wind Farm,Wind,152.0,4.96,Kaban Wind Farm,-17.56,145.41,2026-02-19T21:19:01.289118
2026/02/20 07:20:00,KEPWF1,7.7,Kennedy Energy Park Pty Ltd,Kennedy Energy Park,Wind,43.0,17.91,Kennedy Energy Park,-20.88,144.42,2026-02-19T21:19:01.289118
2026/02/20 07:20:00,KIATAWF1,5.6,Kiata ProjectCo Pty Ltd Atf Kiata Project Trust,Kiata Wind Farm,Wind,31.0,18.06,Kiata Wind Farm,-36.4,141.75,2026-02-19T21:19:01.289118
2026/02/20 07:20:00,LGAPWF1,4.78,Lincoln Gap Wind Farm (Operations) Pty Ltd,Lincoln Gap Wind Farm,Wind,123.0,3.89,Lincoln Gap Wind Farm,-32.564279,137.557328,2026-02-19T21:19:01.289118
2026/02/20 07:20:00,LGAPWF1,4.78,Lincoln Gap Wind Farm (Operations) Pty Ltd,Lincoln Gap Wind Farm,Wind,123.0,3.89,Lincoln Gap Wind Farm,-32.564279,137.557328,2026-02-19T21:19:01.289118
2026/02/20 07:20:00,LGAPWF2,28.23,Lincoln Gap Wind Farm (Operations) Pty Ltd,Lincoln Gap Wind Farm,Wind,85.0,33.21,Lincoln Gap Wind Farm,-32.564279,137.557328,2026-02-19T21:19:01.289118
2026/02/20 07:20:00,LGAPWF2,28.23,Lincoln Gap Wind Farm (Operations) Pty Ltd,Lincoln Gap Wind Farm,Wind,85.0,33.21,Lincoln Gap Wind Farm,-32.564279,137.557328,2026-02-19T21:19:01.289118
2026/02/20 07:20:00,LKBONNY1,9.56,Lake Bonney Wind Power Pty Ltd,Lake Bonney Wind Farm Stage 1,Wind,81.0,11.8,Lake Bonney Wind Farm Stage 1,-37.76,140.4,2026-02-19T21:19:01.289118
2026/02/20 07:20:00,LKBONNY2,24.19,Lake Bonney Wind Power Pty Ltd,Lake Bonney Stage 2 Windfarm,Wind,159.0,15.21,Lake Bonney Stage 2 Windfarm,-37.76,140.4,2026-02-19T21:19:01.289118
2026/02/20 07:20:00,LKBONNY3,5.3,Lake Bonney Wind Power Pty Ltd,Lake Bonney Stage 3 Wind Farm,Wind,39.0,13.59,Lake Bonney Stage 3 Wind Farm,-37.737781,140.388137,2026-02-19T21:19:01.289118
2026/02/20 07:20:00,MACARTH1,7.1,AGL Hydro Partnership,Macarthur Wind Farm,Wind,420.0,1.69,Macarthur Wind Farm,-38.048957,142.192112,2026-02-19T21:19:01.289118
2026/02/20 07:20:00,MCINTYR1,94.86,MacIntyre UJV Operator Pty Ltd,MacIntyre Wind Farm,Wind,890.0,10.66,MacIntyre Wind Farm,-28.32,151.54,2026-02-19T21:19:01.289118
2026/02/20 07:20:00,MERCER01,0.0,Mt Mercer Windfarm Pty Ltd,Mt Mercer Wind Farm,Wind,131.0,0.0,Mt Mercer Wind Farm,-37.841111,143.871111,2026-02-19T21:19:01.289118
2026/02/20 07:20:00,MEWF1,0.0,Ergon Energy Queensland Pty Ltd ,Mount Emerald Wind Farm,Wind,178.0,0.0,Mount Emerald Wind Farm,-17.133007,145.380644,2026-02-19T21:19:01.289118
2026/02/20 07:20:00,MRTLSWF1,35.95,Mortlake South Wind Farm Pty Ltd,Mortlake South Wind Farm,Wind,153.0,23.5,Mortlake South Wind Farm,-38.127337,142.857801,2026-02-19T21:19:01.289118
2026/02/20 07:20:00,MTGELWF1,4.43,Mt. Gellibrand Wind Farm Pty Ltd,Mt Gellibrand Wind Farm,Wind,132.0,3.36,Mt Gellibrand Wind Farm,-38.23,143.77,2026-02-19T21:19:01.289118
2026/02/20 07:20:00,MTMILLAR,26.4,Mt Millar Wind Farm Pty Ltd,Mt Millar Wind Farm,Wind,70.0,37.71,Mt Millar Wind Farm,-33.624444,136.703611,2026-02-19T21:19:01.289118
2026/02/20 07:20:00,MUSSELR1,0.0,Hydro-Electric Corporation,Musselroe Wind Farm,Wind,168.0,0.0,Musselroe Wind Farm,-40.780225,148.010799,2026-02-19T21:19:01.289118
2026/02/20 07:20:00,MUWAWF1,0.86,Telstra Energy (Generation) Pty Ltd,Murra Warra Wind Farm,Wind,225.7,0.38,Murra Warra Wind Farm,-36.432404,142.317853,2026-02-19T21:19:01.289118
2026/02/20 07:20:00,MUWAWF2,4.2,Murra Warra II Project Co Pty Ltd ATF The Murra Warra II Project Trust,Murra Warra Wind Farm Stage 2,Wind,203.0,2.07,Murra Warra Wind Farm Stage 2,-36.43,142.32,2026-02-19T21:19:01.289118
2026/02/20 07:20:00,NBHWF1,48.0,AGL SA Generation Pty Limited,North Brown Hill Wind Farm,Wind,132.0,36.36,North Brown Hill Wind Farm,-33.367778,138.728611,2026-02-19T21:19:01.289118
2026/02/20 07:20:00,OAKLAND1,0.0,AGL Hydro Partnership,Oaklands Hill Wind Farm,Wind,63.0,0.0,Oaklands Hill Wind Farm,-37.683078,142.551678,2026-02-19T21:19:01.289118
2026/02/20 07:20:00,PAREPW1,32.79,Iberdrola Australia Energy Markets Pty Limited,Port Augusta Renewable Energy Park,Wind,201.0,16.31,Port Augusta Renewable Energy Park,-32.566944,137.856111,2026-02-19T21:19:01.289118
2026/02/20 07:20:00,RYANCWF1,33.36,Ryan Corner Development Pty Ltd,Ryan Corner Wind Farm,Wind,205.0,16.27,Ryan Corner Wind Farm,-38.271017,142.140647,2026-02-19T21:19:01.289118
2026/02/20 07:20:00,RYEPARK1,146.92,Rye Park Renewable Energy Pty Ltd as trustee for Rye Park Wind Farm Trust,Rye Park Renewable Energy,Wind,384.0,38.26,Rye Park Renewable Energy,-32.138333,148.972778,2026-02-19T21:19:01.289118
2026/02/20 07:20:00,SALTCRK1,1.35,Salt Creek Wind Farm Pty Ltd,Salt Creek Wind Farm,Wind,54.0,2.5,Salt Creek Wind Farm,-37.95,142.63,2026-02-19T21:19:01.289118
2026/02/20 07:20:00,SAPHWF1,81.43,The Trustee For The SWF1 Operations Trust,Sapphire Wind Farm,Wind,270.0,30.16,Sapphire Wind Farm,-29.7,151.41,2026-02-19T21:19:01.289118
2026/02/20 07:20:00,SNOWNTH1,39.4,Snowtown Wind Farm Stage 2 Pty Ltd,Snowtown Wind Farm Stage 2 North,Wind,144.0,27.36,Snowtown Wind Farm Stage 2 North,-33.83,138.118611,2026-02-19T21:19:01.289118
2026/02/20 07:20:00,SNOWSTH1,66.0,Snowtown Wind Farm Stage 2 Pty Ltd,Snowtown South Wind Farm,Wind,126.0,52.38,Snowtown South Wind Farm,-33.83,138.118611,2026-02-19T21:19:01.289118
2026/02/20 07:20:00,SNOWTWN1,46.84,Snowtown Wind Farm Pty Ltd,Snowtown Wind Farm Units 1 And 47,Wind,99.0,47.31,Snowtown Wind Farm Units 1 And 47,-33.83,138.118611,2026-02-19T21:19:01.289118
2026/02/20 07:20:00,STARHLWF,0.01,Starfish Hill Wind Farm Pty Ltd,Starfish Hill Wind Farm,Wind,35.0,0.03,Starfish Hill Wind Farm,-35.58,138.14,2026-02-19T21:19:01.289118
2026/02/20 07:20:00,STOCKYD1,0.0,Stockyard Hill Wind Farm Pty Ltd,Stockyard Hill Wind Farm,Wind,511.0,0.0,Stockyard Hill Wind Farm,-37.535833,143.251389,2026-02-19T21:19:01.289118
2026/02/20 07:20:00,STWF1,112.56,PARF Company 8 Pty Ltd as The Trustee for Silverton Project Trust,Silverton Wind Farm,Wind,198.0,56.85,Silverton Wind Farm,-37.683168,142.551678,2026-02-19T21:19:01.289118
2026/02/20 07:20:00,TARALGA1,45.17,Taralga Wind Farm Nominees No 2 Pty Ltd (ATF Taralga Wind Farm Operating Trust),Taralga Wind Farm,Wind,106.0,42.61,Taralga Wind Farm,-34.42352,149.826267,2026-02-19T21:19:01.289118
2026/02/20 07:20:00,WAMBOWF1,12.02,Stanwell Corporation Limited,Wambo Wind Farm 1,Wind,245.0,4.91,Wambo Wind Farm 1,-35.187301,149.524945,2026-02-19T21:19:01.289118
2026/02/20 07:20:00,WATERLWF,24.6,Waterloo Wind Farm Pty Ltd,Waterloo Wind Farm,Wind,130.0,18.92,Waterloo Wind Farm,-34.00094,138.911567,2026-02-19T21:19:01.289118
2026/02/20 07:20:00,WGWF1,22.3,Willogoleche Power Pty Ltd As The Trustee For The Willogoleche Operating Trust,Willogoleche Wind Farm,Wind,119.0,18.74,Willogoleche Wind Farm,-33.39,138.85,2026-02-19T21:19:01.289118
2026/02/20 07:20:00,WOODLWN1,17.24,Woodlawn Wind Pty Ltd,Woodlawn Wind Farm,Wind,48.0,35.92,Woodlawn Wind Farm,-35.08,149.62,2026-02-19T21:19:01.289118
2026/02/20 07:20:00,WPWF,18.81,AGL SA Generation Pty Limited,Wattle Point Wind Farm,Wind,91.0,20.67,Wattle Point Wind Farm,-35.111624,137.7219,2026-02-19T21:19:01.289118
2026/02/20 07:20:00,WRWF1,52.51,White Rock Wind Farm Pty Ltd,White Rock Wind Farm,Wind,172.0,30.53,White Rock Wind Farm,-29.79,151.54,2026-02-19T21:19:01.289118
2026/02/20 07:20:00,YENDWF1,0.0,Lal Lal Wind Farms Nom Co Pty Ltd,Yendon Wind Farm,Wind,142.0,0.0,Yendon Wind Farm,-37.629987,144.022717,2026-02-19T21:19:01.289118
