SETTLEMENTDATE,DUID,SCADAVALUE,Participant,Station Name,Fuel Source - Primary,MAX_CAP,utilisation_pct,Plant,Latitude,Longitude,timestamp_utc
2026/04/04 08:00:00,CAPTL_WF,40.57,Iberdrola Australia Holdings Pty Limited,Capital Wind Farm,Wind,140.0,28.98,Capital Wind Farm,-35.1,149.31,2026-04-03T22:00:05.014498
2026/04/04 08:00:00,CHALLHWF,24.4,Pacific Hydro Challicum Hills Pty Ltd,Challicum Hills Wind Farm,Wind,52.0,46.92,Challicum Hills Wind Farm,-37.38,143.11,2026-04-03T22:00:05.014498
2026/04/04 08:00:00,CULLRGWF,17.0,Cullerin Range Wind Farm Pty Ltd,Cullerin Range Wind Farm,Wind,30.0,56.67,Cullerin Range Wind Farm,-34.81,149.4,2026-04-03T22:00:05.014498
2026/04/04 08:00:00,DIAPURWF1,6.3,Y.E.S. Energy (SA) Pty Ltd,Diapur Wind Farm,Wind,7.0,90.0,Diapur Wind Farm,-36.3425,141.43,2026-04-03T22:00:05.014498
2026/04/04 08:00:00,MLWF1,8.3,Mortons Lane Windfarm Pty Limited,Mortons Lane Wind Farm,Wind,20.0,41.5,Mortons Lane Wind Farm,-37.84,142.45,2026-04-03T22:00:05.014498
2026/04/04 08:00:00,WAUBRAWF,159.96,Pyrenees Wind Energy Developments Pty Ltd,Waubra Wind Farm,Wind,192.0,83.31,Waubra Wind Farm,-37.394498,143.638982,2026-04-03T22:00:05.014498
2026/04/04 08:00:00,WOOLNTH1,13.18,Hydro-Electric Corporation,Woolnorth Studland Bay / Bluff Point Wind Farm,Wind,140.0,9.41,Woolnorth Studland Bay / Bluff Point Wind Farm,-40.69,144.72,2026-04-03T22:00:05.014498
2026/04/04 08:00:00,YAMBUKWF,2.1,Energy Pacific (Vic) Pty Ltd,Yambuk Wind Farm,Wind,30.0,7.0,Yambuk Wind Farm,-38.299083,142.027577,2026-04-03T22:00:05.014498
2026/04/04 08:00:00,YSWF1,3.4,Pacific Hydro Yaloak South Pty Ltd,Yaloak South Wind Farm,Wind,28.0,12.14,Yaloak South Wind Farm,-37.7163,144.242853,2026-04-03T22:00:05.014498
2026/04/04 08:00:00,ARWF1,111.7,Ararat Wind Farm Pty Ltd,Ararat Wind Farm,Wind,241.0,46.35,Ararat Wind Farm,-37.232778,143.031389,2026-04-03T22:00:05.014498
2026/04/04 08:00:00,BALDHWF1,4.58,Alinta Energy Retail Sales Pty Ltd,Bald Hills Wind Farm,Wind,106.0,4.32,Bald Hills Wind Farm,-38.79,145.93,2026-04-03T22:00:05.014498
2026/04/04 08:00:00,BANGOWF1,79.0,BWF Nominees Pty Ltd as The Trustee for BWF Trust,Bango 973 Wind Farm,Wind,155.0,50.97,Bango 973 Wind Farm,-34.551582,148.732808,2026-04-03T22:00:05.014498
2026/04/04 08:00:00,BANGOWF2,46.5,BWF Nominees Pty Ltd as The Trustee for BWF Trust,Bango 999 Wind Farm,Wind,82.0,56.71,Bango 999 Wind Farm,-34.551582,148.732808,2026-04-03T22:00:05.014498
2026/04/04 08:00:00,BLUFF1,11.7,AGL SA Generation Pty Limited,The Bluff Wind Farm,Wind,53.0,22.08,The Bluff Wind Farm,-33.367778,138.728611,2026-04-03T22:00:05.014498
2026/04/04 08:00:00,BOCORWF1,6.09,Boco Rock Wind Farm Pty Ltd,Boco Rock Wind Farm,Wind,111.0,5.49,Boco Rock Wind Farm,-36.578611,149.103333,2026-04-03T22:00:05.014498
2026/04/04 08:00:00,BRYB1WF1,75.32,Berrybank Development Pty Ltd,Berrybank Wind Farm,Wind,175.9,42.82,Berrybank Wind Farm,-37.94,143.52,2026-04-03T22:00:05.014498
2026/04/04 08:00:00,BRYB2WF2,33.12,Berrybank 2 Asset Pty Ltd as trustee for Berrybank 2 Asset Trust,Berrybank 2 Wind Farm,Wind,105.0,31.54,Berrybank 2 Wind Farm,-37.94,143.52,2026-04-03T22:00:05.014498
2026/04/04 08:00:00,BULGANA1,2.04,Bulgana Wind Farm Pty Ltd,Bulgana Green Power Hub,Wind,204.0,1.0,Bulgana Green Power Hub,-37.0975,142.973611,2026-04-03T22:00:05.014498
2026/04/04 08:00:00,CATHROCK,47.1,Cathedral Rocks Wind Farm Pty Ltd,Cathedral Rocks,Wind,66.0,71.36,Cathedral Rocks,-34.51,135.35,2026-04-03T22:00:05.014498
2026/04/04 08:00:00,CHYTWF1,39.27,Cherry Tree Wind Farm Pty Ltd as trustee for The Cherry Tree Project trust ,Cherry Tree Wind Farm,Wind,57.0,68.89,Cherry Tree Wind Farm,-37.1,145.26,2026-04-03T22:00:05.014498
2026/04/04 08:00:00,CLEMGPWF,47.04,Pacific Hydro Clements Gap Pty Ltd,Clements Gap Wind Farm,Wind,57.0,82.53,Clements Gap Wind Farm,-33.48,138.1,2026-04-03T22:00:05.014498
2026/04/04 08:00:00,CLRKCWF1,146.24,Stanwell Corporation Limited ,Clarke Creek Wind Farm,Wind,338.0,43.27,Clarke Creek Wind Farm,-22.85,149.45,2026-04-03T22:00:05.014498
2026/04/04 08:00:00,CLRKCWF2,52.52,Stanwell Corporation Limited ,Clarke Creek Wind Farm,Wind,101.0,52.0,Clarke Creek Wind Farm,-22.85,149.45,2026-04-03T22:00:05.014498
2026/04/04 08:00:00,CNUNDAWF,9.11,Canunda Power Pty Ltd,Canunda Wind Farm,Wind,46.0,19.8,Canunda Wind Farm,-37.73,140.39,2026-04-03T22:00:05.014498
2026/04/04 08:00:00,COLWF01,82.98,Collector Wind Farm Pty Ltd,Collector Wind Farm 1,Wind,219.0,37.89,Collector Wind Farm 1,-34.8719,149.3967,2026-04-03T22:00:05.014498
2026/04/04 08:00:00,COOPGWF1,244.29,PARF Company 10 Pty Limited as The Trustee for Coopers Gap Project Trust,Coopers Gap Wind Farm,Wind,440.0,55.52,Coopers Gap Wind Farm,-26.74,151.45,2026-04-03T22:00:05.014498
2026/04/04 08:00:00,CROOKWF2,18.32,Crookwell Development Pty Ltd ,Crookwell 2 Wind Farm,Wind,91.0,20.13,Crookwell 2 Wind Farm,-34.52,149.54,2026-04-03T22:00:05.014498
2026/04/04 08:00:00,CROOKWF3,16.55,Crookwell 3 Development Pty Ltd,Crookwell 3 Wind Farm,Wind,56.0,29.55,Crookwell 3 Wind Farm,-34.52,149.54,2026-04-03T22:00:05.014498
2026/04/04 08:00:00,CROWLWF1,67.59,Pacific Hydro Crowlands Pty Ltd ,Crowlands Wind Farm,Wind,79.0,85.56,Crowlands Wind Farm,-37.13,143.16,2026-04-03T22:00:05.014498
2026/04/04 08:00:00,CRURWF1,44.9,CRWF Nominees Pty Ltd As Trustee For The CRWF Trust,Crudine Ridge Wind Farm,Wind,138.0,32.54,Crudine Ridge Wind Farm,-32.97,149.64,2026-04-03T22:00:05.014498
2026/04/04 08:00:00,CTHLWF1,0.91,Wild Cattle Hill Pty Ltd,Cattle Hill Wind Farm,Wind,144.0,0.63,Cattle Hill Wind Farm,-42.15,146.69,2026-04-03T22:00:05.014498
2026/04/04 08:00:00,DULAWF1,9.3,Dulacca Energy Project Co Pty Ltd,Dulacca Wind Farm,Wind,173.0,5.38,Dulacca Wind Farm,-26.63,149.87,2026-04-03T22:00:05.014498
2026/04/04 08:00:00,DUNDWF1,0.0,Dundonnell Wind Farm Pty Ltd,Dundonnell Wind Farm,Wind,168.0,0.0,Dundonnell Wind Farm,-37.52,142.58,2026-04-03T22:00:05.014498
2026/04/04 08:00:00,DUNDWF2,24.32,Dundonnell Wind Farm Pty Ltd,Dundonnell Wind Farm,Wind,46.0,52.87,Dundonnell Wind Farm,-37.52,142.58,2026-04-03T22:00:05.014498
2026/04/04 08:00:00,DUNDWF3,51.6,Dundonnell Wind Farm Pty Ltd,Dundonnell Wind Farm,Wind,122.0,42.3,Dundonnell Wind Farm,-37.52,142.58,2026-04-03T22:00:05.014498
2026/04/04 08:00:00,ELAINWF1,5.69,Lal Lal Wind Farms Nom Co Pty Ltd,Elaine Wind Farm,Wind,82.0,6.94,Elaine Wind Farm,-37.36,144.0,2026-04-03T22:00:05.014498
2026/04/04 08:00:00,FLYCRKWF,75.55,Iberdrola Australia Energy Markets Pty Limited,Flyers Creek Wind Farm,Wind,140.0,53.96,Flyers Creek Wind Farm,-33.365556,148.981944,2026-04-03T22:00:05.014498
2026/04/04 08:00:00,GPWFEST1,0.0,Golden Plains WF1 Pty Ltd as Trustee for the Golden Plains WF1 Unit Trust,Golden Plains Wind Farm East,Wind,240.0,0.0,Golden Plains Wind Farm East,-37.945091,143.752614,2026-04-03T22:00:05.014498
2026/04/04 08:00:00,GPWFEST2,0.0,Golden Plains WF1 Pty Ltd as Trustee for the Golden Plains WF1 Unit Trust,Golden Plains Wind Farm East,Wind,253.0,0.0,Golden Plains Wind Farm East,-37.945091,143.752614,2026-04-03T22:00:05.014498
2026/04/04 08:00:00,GPWFEST3,120.92,Golden Plains WF1 Pty Ltd as Trustee for the Golden Plains WF1 Unit Trust,Golden Plains Wind Farm East,Wind,240.0,50.38,Golden Plains Wind Farm East,-37.945091,143.752614,2026-04-03T22:00:05.014498
2026/04/04 08:00:00,GRANWF1,2.18,Granville Harbour Operations Pty Ltd as The Trustee for Granville Harbour Operations Trust,Granville Harbour Wind Farm,Wind,111.0,1.96,Granville Harbour Wind Farm,-41.8,145.06,2026-04-03T22:00:05.014498
2026/04/04 08:00:00,GSWF1A,125.14,Goyder Wind Farm 1 Pty Ltd as the Trustee for Goyder Wind Farm 1 Trust,Goyder South Wind Farm 1A,Wind,201.0,62.26,Goyder South Wind Farm 1A,-33.679758,138.937597,2026-04-03T22:00:05.014498
2026/04/04 08:00:00,GSWF1B1,0.0,Goyder Wind Farm 1B Pty Ltd as the Trustee for the Goyder Wind Farm 1B Trust,Goyder South Wind Farm 1B,Wind,196.0,0.0,Goyder South Wind Farm 1B,-33.679758,138.937597,2026-04-03T22:00:05.014498
2026/04/04 08:00:00,GULLRWF1,46.6,New Gullen Range Wind Farm Pty Ltd,Gullen Range Wind Farm,Wind,161.0,28.94,Gullen Range Wind Farm,-34.34,149.27,2026-04-03T22:00:05.014498
2026/04/04 08:00:00,GULLRWF2,86.79,New Gullen Range Wind Farm Pty Ltd,Gullen Range Wind Farm,Wind,107.0,81.11,Gullen Range Wind Farm,-34.34,149.27,2026-04-03T22:00:05.014498
2026/04/04 08:00:00,GUNNING1,26.0,Gunning Wind Energy Developments Pty Ltd,Gunning Wind Farm,Wind,47.0,55.32,Gunning Wind Farm,-34.813333,149.4,2026-04-03T22:00:05.014498
2026/04/04 08:00:00,HALLWF1,41.78,AGL SA Generation Pty Limited,Hallett 1 Wind Farm,Wind,95.0,43.98,Hallett 1 Wind Farm,-33.367778,138.728611,2026-04-03T22:00:05.014498
2026/04/04 08:00:00,HALLWF2,27.87,AGL SA Generation Pty Limited,Hallett 2 Wind Farm,Wind,71.0,39.25,Hallett 2 Wind Farm,-33.367778,138.728611,2026-04-03T22:00:05.014498
2026/04/04 08:00:00,HD1WF1,0.0,Hawkesdale Asset Pty Ltd as trustee for Hawkesdale Asset Trust,Hawkesdale Wind Farm,Wind,89.0,0.0,Hawkesdale Wind Farm,-38.147894,142.361381,2026-04-03T22:00:05.014498
2026/04/04 08:00:00,HDWF1,77.7,HWF1 Pty Ltd,Hornsdale Wind Farm,Wind,102.0,76.18,Hornsdale Wind Farm,-33.050556,138.543611,2026-04-03T22:00:05.014498
2026/04/04 08:00:00,HDWF2,95.5,HWF 2 Pty Ltd,Hornsdale Wind Farm 2,Wind,102.0,93.63,Hornsdale Wind Farm 2,-33.06,138.54,2026-04-03T22:00:05.014498
2026/04/04 08:00:00,HDWF3,81.8,HWF3 Pty Ltd,Hornsdale Wind Farm 3,Wind,109.0,75.05,Hornsdale Wind Farm 3,-33.06,138.54,2026-04-03T22:00:05.014498
2026/04/04 08:00:00,KABANWF1,0.83,Kaban Wind Farm Pty Ltd as trustee for Kaban Wind Farm Trust,Kaban Wind Farm,Wind,152.0,0.55,Kaban Wind Farm,-17.56,145.41,2026-04-03T22:00:05.014498
2026/04/04 08:00:00,KEPWF1,27.1,Kennedy Energy Park Pty Ltd,Kennedy Energy Park,Wind,43.0,63.02,Kennedy Energy Park,-20.88,144.42,2026-04-03T22:00:05.014498
2026/04/04 08:00:00,KIATAWF1,1.2,Kiata ProjectCo Pty Ltd Atf Kiata Project Trust,Kiata Wind Farm,Wind,31.0,3.87,Kiata Wind Farm,-36.4,141.75,2026-04-03T22:00:05.014498
2026/04/04 08:00:00,LGAPWF1,10.53,Lincoln Gap Wind Farm (Operations) Pty Ltd,Lincoln Gap Wind Farm,Wind,123.0,8.56,Lincoln Gap Wind Farm,-32.564279,137.557328,2026-04-03T22:00:05.014498
2026/04/04 08:00:00,LGAPWF1,10.53,Lincoln Gap Wind Farm (Operations) Pty Ltd,Lincoln Gap Wind Farm,Wind,123.0,8.56,Lincoln Gap Wind Farm,-32.564279,137.557328,2026-04-03T22:00:05.014498
2026/04/04 08:00:00,LGAPWF2,15.67,Lincoln Gap Wind Farm (Operations) Pty Ltd,Lincoln Gap Wind Farm,Wind,85.0,18.44,Lincoln Gap Wind Farm,-32.564279,137.557328,2026-04-03T22:00:05.014498
2026/04/04 08:00:00,LGAPWF2,15.67,Lincoln Gap Wind Farm (Operations) Pty Ltd,Lincoln Gap Wind Farm,Wind,85.0,18.44,Lincoln Gap Wind Farm,-32.564279,137.557328,2026-04-03T22:00:05.014498
2026/04/04 08:00:00,LKBONNY1,13.66,Lake Bonney Wind Power Pty Ltd,Lake Bonney Wind Farm Stage 1,Wind,81.0,16.86,Lake Bonney Wind Farm Stage 1,-37.76,140.4,2026-04-03T22:00:05.014498
2026/04/04 08:00:00,LKBONNY2,40.02,Lake Bonney Wind Power Pty Ltd,Lake Bonney Stage 2 Windfarm,Wind,159.0,25.17,Lake Bonney Stage 2 Windfarm,-37.76,140.4,2026-04-03T22:00:05.014498
2026/04/04 08:00:00,LKBONNY3,0.0,Lake Bonney Wind Power Pty Ltd,Lake Bonney Stage 3 Wind Farm,Wind,39.0,0.0,Lake Bonney Stage 3 Wind Farm,-37.737781,140.388137,2026-04-03T22:00:05.014498
2026/04/04 08:00:00,MACARTH1,129.5,AGL Hydro Partnership,Macarthur Wind Farm,Wind,420.0,30.83,Macarthur Wind Farm,-38.048957,142.192112,2026-04-03T22:00:05.014498
2026/04/04 08:00:00,MCINTYR1,107.97,MacIntyre UJV Operator Pty Ltd,MacIntyre Wind Farm,Wind,890.0,12.13,MacIntyre Wind Farm,-28.32,151.54,2026-04-03T22:00:05.014498
2026/04/04 08:00:00,MERCER01,53.7,Mt Mercer Windfarm Pty Ltd,Mt Mercer Wind Farm,Wind,131.0,40.99,Mt Mercer Wind Farm,-37.841111,143.871111,2026-04-03T22:00:05.014498
2026/04/04 08:00:00,MEWF1,95.69,Ergon Energy Queensland Pty Ltd ,Mount Emerald Wind Farm,Wind,178.0,53.76,Mount Emerald Wind Farm,-17.133007,145.380644,2026-04-03T22:00:05.014498
2026/04/04 08:00:00,MRTLSWF1,57.96,Mortlake South Wind Farm Pty Ltd,Mortlake South Wind Farm,Wind,153.0,37.88,Mortlake South Wind Farm,-38.127337,142.857801,2026-04-03T22:00:05.014498
2026/04/04 08:00:00,MTGELWF1,27.13,Mt. Gellibrand Wind Farm Pty Ltd,Mt Gellibrand Wind Farm,Wind,132.0,20.55,Mt Gellibrand Wind Farm,-38.23,143.77,2026-04-03T22:00:05.014498
2026/04/04 08:00:00,MTMILLAR,9.1,Mt Millar Wind Farm Pty Ltd,Mt Millar Wind Farm,Wind,70.0,13.0,Mt Millar Wind Farm,-33.624444,136.703611,2026-04-03T22:00:05.014498
2026/04/04 08:00:00,MUSSELR1,41.5,Hydro-Electric Corporation,Musselroe Wind Farm,Wind,168.0,24.7,Musselroe Wind Farm,-40.780225,148.010799,2026-04-03T22:00:05.014498
2026/04/04 08:00:00,MUWAWF1,0.0,Telstra Energy (Generation) Pty Ltd,Murra Warra Wind Farm,Wind,225.7,0.0,Murra Warra Wind Farm,-36.432404,142.317853,2026-04-03T22:00:05.014498
2026/04/04 08:00:00,MUWAWF2,0.3,Murra Warra II Project Co Pty Ltd ATF The Murra Warra II Project Trust,Murra Warra Wind Farm Stage 2,Wind,203.0,0.15,Murra Warra Wind Farm Stage 2,-36.43,142.32,2026-04-03T22:00:05.014498
2026/04/04 08:00:00,NBHWF1,87.7,AGL SA Generation Pty Limited,North Brown Hill Wind Farm,Wind,132.0,66.44,North Brown Hill Wind Farm,-33.367778,138.728611,2026-04-03T22:00:05.014498
2026/04/04 08:00:00,OAKLAND1,29.2,AGL Hydro Partnership,Oaklands Hill Wind Farm,Wind,63.0,46.35,Oaklands Hill Wind Farm,-37.683078,142.551678,2026-04-03T22:00:05.014498
2026/04/04 08:00:00,PAREPW1,39.27,Iberdrola Australia Energy Markets Pty Limited,Port Augusta Renewable Energy Park,Wind,201.0,19.54,Port Augusta Renewable Energy Park,-32.566944,137.856111,2026-04-03T22:00:05.014498
2026/04/04 08:00:00,RYANCWF1,0.0,Ryan Corner Development Pty Ltd,Ryan Corner Wind Farm,Wind,205.0,0.0,Ryan Corner Wind Farm,-38.271017,142.140647,2026-04-03T22:00:05.014498
2026/04/04 08:00:00,RYEPARK1,211.89,Rye Park Renewable Energy Pty Ltd as trustee for Rye Park Wind Farm Trust,Rye Park Renewable Energy,Wind,384.0,55.18,Rye Park Renewable Energy,-32.138333,148.972778,2026-04-03T22:00:05.014498
2026/04/04 08:00:00,SALTCRK1,3.99,Salt Creek Wind Farm Pty Ltd,Salt Creek Wind Farm,Wind,54.0,7.39,Salt Creek Wind Farm,-37.95,142.63,2026-04-03T22:00:05.014498
2026/04/04 08:00:00,SAPHWF1,210.91,The Trustee For The SWF1 Operations Trust,Sapphire Wind Farm,Wind,270.0,78.11,Sapphire Wind Farm,-29.7,151.41,2026-04-03T22:00:05.014498
2026/04/04 08:00:00,SNOWNTH1,52.2,Snowtown Wind Farm Stage 2 Pty Ltd,Snowtown Wind Farm Stage 2 North,Wind,144.0,36.25,Snowtown Wind Farm Stage 2 North,-33.83,138.118611,2026-04-03T22:00:05.014498
2026/04/04 08:00:00,SNOWSTH1,70.9,Snowtown Wind Farm Stage 2 Pty Ltd,Snowtown South Wind Farm,Wind,126.0,56.27,Snowtown South Wind Farm,-33.83,138.118611,2026-04-03T22:00:05.014498
2026/04/04 08:00:00,SNOWTWN1,1.21,Snowtown Wind Farm Pty Ltd,Snowtown Wind Farm Units 1 And 47,Wind,99.0,1.22,Snowtown Wind Farm Units 1 And 47,-33.83,138.118611,2026-04-03T22:00:05.014498
2026/04/04 08:00:00,STARHLWF,27.09,Starfish Hill Wind Farm Pty Ltd,Starfish Hill Wind Farm,Wind,35.0,77.4,Starfish Hill Wind Farm,-35.58,138.14,2026-04-03T22:00:05.014498
2026/04/04 08:00:00,STOCKYD1,400.09,Stockyard Hill Wind Farm Pty Ltd,Stockyard Hill Wind Farm,Wind,511.0,78.3,Stockyard Hill Wind Farm,-37.535833,143.251389,2026-04-03T22:00:05.014498
2026/04/04 08:00:00,STWF1,144.23,PARF Company 8 Pty Ltd as The Trustee for Silverton Project Trust,Silverton Wind Farm,Wind,198.0,72.84,Silverton Wind Farm,-37.683168,142.551678,2026-04-03T22:00:05.014498
2026/04/04 08:00:00,TARALGA1,15.92,Taralga Wind Farm Nominees No 2 Pty Ltd (ATF Taralga Wind Farm Operating Trust),Taralga Wind Farm,Wind,106.0,15.02,Taralga Wind Farm,-34.42352,149.826267,2026-04-03T22:00:05.014498
2026/04/04 08:00:00,WAMBOWF1,100.89,Stanwell Corporation Limited,Wambo Wind Farm 1,Wind,245.0,41.18,Wambo Wind Farm 1,-35.187301,149.524945,2026-04-03T22:00:05.014498
2026/04/04 08:00:00,WATERLWF,66.0,Waterloo Wind Farm Pty Ltd,Waterloo Wind Farm,Wind,130.0,50.77,Waterloo Wind Farm,-34.00094,138.911567,2026-04-03T22:00:05.014498
2026/04/04 08:00:00,WGWF1,46.3,Willogoleche Power Pty Ltd As The Trustee For The Willogoleche Operating Trust,Willogoleche Wind Farm,Wind,119.0,38.91,Willogoleche Wind Farm,-33.39,138.85,2026-04-03T22:00:05.014498
2026/04/04 08:00:00,WOODLWN1,21.88,Woodlawn Wind Pty Ltd,Woodlawn Wind Farm,Wind,48.0,45.58,Woodlawn Wind Farm,-35.08,149.62,2026-04-03T22:00:05.014498
2026/04/04 08:00:00,WPWF,30.22,AGL SA Generation Pty Limited,Wattle Point Wind Farm,Wind,91.0,33.21,Wattle Point Wind Farm,-35.111624,137.7219,2026-04-03T22:00:05.014498
2026/04/04 08:00:00,WRWF1,135.73,White Rock Wind Farm Pty Ltd,White Rock Wind Farm,Wind,172.0,78.91,White Rock Wind Farm,-29.79,151.54,2026-04-03T22:00:05.014498
2026/04/04 08:00:00,YENDWF1,2.4,Lal Lal Wind Farms Nom Co Pty Ltd,Yendon Wind Farm,Wind,142.0,1.69,Yendon Wind Farm,-37.629987,144.022717,2026-04-03T22:00:05.014498
