SETTLEMENTDATE,DUID,SCADAVALUE,Participant,Station Name,Fuel Source - Primary,MAX_CAP,utilisation_pct,Plant,Latitude,Longitude,timestamp_utc
2026/04/09 21:30:00,CAPTL_WF,0.0,Iberdrola Australia Holdings Pty Limited,Capital Wind Farm,Wind,140.0,0.0,Capital Wind Farm,-35.1,149.31,2026-04-09T11:29:10.306486
2026/04/09 21:30:00,CHALLHWF,41.9,Pacific Hydro Challicum Hills Pty Ltd,Challicum Hills Wind Farm,Wind,52.0,80.58,Challicum Hills Wind Farm,-37.38,143.11,2026-04-09T11:29:10.306486
2026/04/09 21:30:00,CULLRGWF,5.48,Cullerin Range Wind Farm Pty Ltd,Cullerin Range Wind Farm,Wind,30.0,18.27,Cullerin Range Wind Farm,-34.81,149.4,2026-04-09T11:29:10.306486
2026/04/09 21:30:00,DIAPURWF1,7.3,Y.E.S. Energy (SA) Pty Ltd,Diapur Wind Farm,Wind,7.0,104.29,Diapur Wind Farm,-36.3425,141.43,2026-04-09T11:29:10.306486
2026/04/09 21:30:00,MLWF1,16.23,Mortons Lane Windfarm Pty Limited,Mortons Lane Wind Farm,Wind,20.0,81.15,Mortons Lane Wind Farm,-37.84,142.45,2026-04-09T11:29:10.306486
2026/04/09 21:30:00,WAUBRAWF,160.85,Pyrenees Wind Energy Developments Pty Ltd,Waubra Wind Farm,Wind,192.0,83.78,Waubra Wind Farm,-37.394498,143.638982,2026-04-09T11:29:10.306486
2026/04/09 21:30:00,WOOLNTH1,80.17,Hydro-Electric Corporation,Woolnorth Studland Bay / Bluff Point Wind Farm,Wind,140.0,57.26,Woolnorth Studland Bay / Bluff Point Wind Farm,-40.69,144.72,2026-04-09T11:29:10.306486
2026/04/09 21:30:00,YAMBUKWF,8.9,Energy Pacific (Vic) Pty Ltd,Yambuk Wind Farm,Wind,30.0,29.67,Yambuk Wind Farm,-38.299083,142.027577,2026-04-09T11:29:10.306486
2026/04/09 21:30:00,YSWF1,4.6,Pacific Hydro Yaloak South Pty Ltd,Yaloak South Wind Farm,Wind,28.0,16.43,Yaloak South Wind Farm,-37.7163,144.242853,2026-04-09T11:29:10.306486
2026/04/09 21:30:00,ARWF1,139.5,Ararat Wind Farm Pty Ltd,Ararat Wind Farm,Wind,241.0,57.88,Ararat Wind Farm,-37.232778,143.031389,2026-04-09T11:29:10.306486
2026/04/09 21:30:00,BALDHWF1,95.95,Alinta Energy Retail Sales Pty Ltd,Bald Hills Wind Farm,Wind,106.0,90.52,Bald Hills Wind Farm,-38.79,145.93,2026-04-09T11:29:10.306486
2026/04/09 21:30:00,BANGOWF1,39.3,BWF Nominees Pty Ltd as The Trustee for BWF Trust,Bango 973 Wind Farm,Wind,155.0,25.35,Bango 973 Wind Farm,-34.551582,148.732808,2026-04-09T11:29:10.306486
2026/04/09 21:30:00,BANGOWF2,31.1,BWF Nominees Pty Ltd as The Trustee for BWF Trust,Bango 999 Wind Farm,Wind,82.0,37.93,Bango 999 Wind Farm,-34.551582,148.732808,2026-04-09T11:29:10.306486
2026/04/09 21:30:00,BLUFF1,50.6,AGL SA Generation Pty Limited,The Bluff Wind Farm,Wind,53.0,95.47,The Bluff Wind Farm,-33.367778,138.728611,2026-04-09T11:29:10.306486
2026/04/09 21:30:00,BOCORWF1,103.08,Boco Rock Wind Farm Pty Ltd,Boco Rock Wind Farm,Wind,111.0,92.86,Boco Rock Wind Farm,-36.578611,149.103333,2026-04-09T11:29:10.306486
2026/04/09 21:30:00,BRYB1WF1,118.41,Berrybank Development Pty Ltd,Berrybank Wind Farm,Wind,175.9,67.32,Berrybank Wind Farm,-37.94,143.52,2026-04-09T11:29:10.306486
2026/04/09 21:30:00,BRYB2WF2,63.1,Berrybank 2 Asset Pty Ltd as trustee for Berrybank 2 Asset Trust,Berrybank 2 Wind Farm,Wind,105.0,60.1,Berrybank 2 Wind Farm,-37.94,143.52,2026-04-09T11:29:10.306486
2026/04/09 21:30:00,BULGANA1,113.48,Bulgana Wind Farm Pty Ltd,Bulgana Green Power Hub,Wind,204.0,55.63,Bulgana Green Power Hub,-37.0975,142.973611,2026-04-09T11:29:10.306486
2026/04/09 21:30:00,CATHROCK,0.0,Cathedral Rocks Wind Farm Pty Ltd,Cathedral Rocks,Wind,66.0,0.0,Cathedral Rocks,-34.51,135.35,2026-04-09T11:29:10.306486
2026/04/09 21:30:00,CHYTWF1,49.68,Cherry Tree Wind Farm Pty Ltd as trustee for The Cherry Tree Project trust ,Cherry Tree Wind Farm,Wind,57.0,87.16,Cherry Tree Wind Farm,-37.1,145.26,2026-04-09T11:29:10.306486
2026/04/09 21:30:00,CLEMGPWF,55.61,Pacific Hydro Clements Gap Pty Ltd,Clements Gap Wind Farm,Wind,57.0,97.56,Clements Gap Wind Farm,-33.48,138.1,2026-04-09T11:29:10.306486
2026/04/09 21:30:00,CLRKCWF1,272.22,Stanwell Corporation Limited ,Clarke Creek Wind Farm,Wind,338.0,80.54,Clarke Creek Wind Farm,-22.85,149.45,2026-04-09T11:29:10.306486
2026/04/09 21:30:00,CLRKCWF2,64.96,Stanwell Corporation Limited ,Clarke Creek Wind Farm,Wind,101.0,64.32,Clarke Creek Wind Farm,-22.85,149.45,2026-04-09T11:29:10.306486
2026/04/09 21:30:00,CNUNDAWF,2.7,Canunda Power Pty Ltd,Canunda Wind Farm,Wind,46.0,5.87,Canunda Wind Farm,-37.73,140.39,2026-04-09T11:29:10.306486
2026/04/09 21:30:00,COLWF01,18.04,Collector Wind Farm Pty Ltd,Collector Wind Farm 1,Wind,219.0,8.24,Collector Wind Farm 1,-34.8719,149.3967,2026-04-09T11:29:10.306486
2026/04/09 21:30:00,COOPGWF1,281.6,PARF Company 10 Pty Limited as The Trustee for Coopers Gap Project Trust,Coopers Gap Wind Farm,Wind,440.0,64.0,Coopers Gap Wind Farm,-26.74,151.45,2026-04-09T11:29:10.306486
2026/04/09 21:30:00,CROOKWF2,7.48,Crookwell Development Pty Ltd ,Crookwell 2 Wind Farm,Wind,91.0,8.22,Crookwell 2 Wind Farm,-34.52,149.54,2026-04-09T11:29:10.306486
2026/04/09 21:30:00,CROOKWF3,7.71,Crookwell 3 Development Pty Ltd,Crookwell 3 Wind Farm,Wind,56.0,13.77,Crookwell 3 Wind Farm,-34.52,149.54,2026-04-09T11:29:10.306486
2026/04/09 21:30:00,CROWLWF1,75.39,Pacific Hydro Crowlands Pty Ltd ,Crowlands Wind Farm,Wind,79.0,95.43,Crowlands Wind Farm,-37.13,143.16,2026-04-09T11:29:10.306486
2026/04/09 21:30:00,CRURWF1,34.1,CRWF Nominees Pty Ltd As Trustee For The CRWF Trust,Crudine Ridge Wind Farm,Wind,138.0,24.71,Crudine Ridge Wind Farm,-32.97,149.64,2026-04-09T11:29:10.306486
2026/04/09 21:30:00,CTHLWF1,127.48,Wild Cattle Hill Pty Ltd,Cattle Hill Wind Farm,Wind,144.0,88.53,Cattle Hill Wind Farm,-42.15,146.69,2026-04-09T11:29:10.306486
2026/04/09 21:30:00,DULAWF1,136.9,Dulacca Energy Project Co Pty Ltd,Dulacca Wind Farm,Wind,173.0,79.13,Dulacca Wind Farm,-26.63,149.87,2026-04-09T11:29:10.306486
2026/04/09 21:30:00,DUNDWF1,83.91,Dundonnell Wind Farm Pty Ltd,Dundonnell Wind Farm,Wind,168.0,49.95,Dundonnell Wind Farm,-37.52,142.58,2026-04-09T11:29:10.306486
2026/04/09 21:30:00,DUNDWF2,23.22,Dundonnell Wind Farm Pty Ltd,Dundonnell Wind Farm,Wind,46.0,50.48,Dundonnell Wind Farm,-37.52,142.58,2026-04-09T11:29:10.306486
2026/04/09 21:30:00,DUNDWF3,60.76,Dundonnell Wind Farm Pty Ltd,Dundonnell Wind Farm,Wind,122.0,49.8,Dundonnell Wind Farm,-37.52,142.58,2026-04-09T11:29:10.306486
2026/04/09 21:30:00,ELAINWF1,77.6,Lal Lal Wind Farms Nom Co Pty Ltd,Elaine Wind Farm,Wind,82.0,94.63,Elaine Wind Farm,-37.36,144.0,2026-04-09T11:29:10.306486
2026/04/09 21:30:00,FLYCRKWF,15.43,Iberdrola Australia Energy Markets Pty Limited,Flyers Creek Wind Farm,Wind,140.0,11.02,Flyers Creek Wind Farm,-33.365556,148.981944,2026-04-09T11:29:10.306486
2026/04/09 21:30:00,GPWFEST1,156.75,Golden Plains WF1 Pty Ltd as Trustee for the Golden Plains WF1 Unit Trust,Golden Plains Wind Farm East,Wind,240.0,65.31,Golden Plains Wind Farm East,-37.945091,143.752614,2026-04-09T11:29:10.306486
2026/04/09 21:30:00,GPWFEST2,164.99,Golden Plains WF1 Pty Ltd as Trustee for the Golden Plains WF1 Unit Trust,Golden Plains Wind Farm East,Wind,253.0,65.21,Golden Plains Wind Farm East,-37.945091,143.752614,2026-04-09T11:29:10.306486
2026/04/09 21:30:00,GPWFEST3,230.67,Golden Plains WF1 Pty Ltd as Trustee for the Golden Plains WF1 Unit Trust,Golden Plains Wind Farm East,Wind,240.0,96.11,Golden Plains Wind Farm East,-37.945091,143.752614,2026-04-09T11:29:10.306486
2026/04/09 21:30:00,GRANWF1,33.67,Granville Harbour Operations Pty Ltd as The Trustee for Granville Harbour Operations Trust,Granville Harbour Wind Farm,Wind,111.0,30.33,Granville Harbour Wind Farm,-41.8,145.06,2026-04-09T11:29:10.306486
2026/04/09 21:30:00,GSWF1A,196.07,Goyder Wind Farm 1 Pty Ltd as the Trustee for Goyder Wind Farm 1 Trust,Goyder South Wind Farm 1A,Wind,201.0,97.55,Goyder South Wind Farm 1A,-33.679758,138.937597,2026-04-09T11:29:10.306486
2026/04/09 21:30:00,GSWF1B1,195.32,Goyder Wind Farm 1B Pty Ltd as the Trustee for the Goyder Wind Farm 1B Trust,Goyder South Wind Farm 1B,Wind,196.0,99.65,Goyder South Wind Farm 1B,-33.679758,138.937597,2026-04-09T11:29:10.306486
2026/04/09 21:30:00,GULLRWF1,29.78,New Gullen Range Wind Farm Pty Ltd,Gullen Range Wind Farm,Wind,161.0,18.5,Gullen Range Wind Farm,-34.34,149.27,2026-04-09T11:29:10.306486
2026/04/09 21:30:00,GULLRWF2,11.81,New Gullen Range Wind Farm Pty Ltd,Gullen Range Wind Farm,Wind,107.0,11.04,Gullen Range Wind Farm,-34.34,149.27,2026-04-09T11:29:10.306486
2026/04/09 21:30:00,GUNNING1,3.54,Gunning Wind Energy Developments Pty Ltd,Gunning Wind Farm,Wind,47.0,7.53,Gunning Wind Farm,-34.813333,149.4,2026-04-09T11:29:10.306486
2026/04/09 21:30:00,HALLWF1,79.98,AGL SA Generation Pty Limited,Hallett 1 Wind Farm,Wind,95.0,84.19,Hallett 1 Wind Farm,-33.367778,138.728611,2026-04-09T11:29:10.306486
2026/04/09 21:30:00,HALLWF2,59.66,AGL SA Generation Pty Limited,Hallett 2 Wind Farm,Wind,71.0,84.03,Hallett 2 Wind Farm,-33.367778,138.728611,2026-04-09T11:29:10.306486
2026/04/09 21:30:00,HD1WF1,24.58,Hawkesdale Asset Pty Ltd as trustee for Hawkesdale Asset Trust,Hawkesdale Wind Farm,Wind,89.0,27.62,Hawkesdale Wind Farm,-38.147894,142.361381,2026-04-09T11:29:10.306486
2026/04/09 21:30:00,HDWF1,79.0,HWF1 Pty Ltd,Hornsdale Wind Farm,Wind,102.0,77.45,Hornsdale Wind Farm,-33.050556,138.543611,2026-04-09T11:29:10.306486
2026/04/09 21:30:00,HDWF2,71.5,HWF 2 Pty Ltd,Hornsdale Wind Farm 2,Wind,102.0,70.1,Hornsdale Wind Farm 2,-33.06,138.54,2026-04-09T11:29:10.306486
2026/04/09 21:30:00,HDWF3,68.5,HWF3 Pty Ltd,Hornsdale Wind Farm 3,Wind,109.0,62.84,Hornsdale Wind Farm 3,-33.06,138.54,2026-04-09T11:29:10.306486
2026/04/09 21:30:00,KABANWF1,57.01,Kaban Wind Farm Pty Ltd as trustee for Kaban Wind Farm Trust,Kaban Wind Farm,Wind,152.0,37.51,Kaban Wind Farm,-17.56,145.41,2026-04-09T11:29:10.306486
2026/04/09 21:30:00,KEPWF1,17.1,Kennedy Energy Park Pty Ltd,Kennedy Energy Park,Wind,43.0,39.77,Kennedy Energy Park,-20.88,144.42,2026-04-09T11:29:10.306486
2026/04/09 21:30:00,KIATAWF1,29.2,Kiata ProjectCo Pty Ltd Atf Kiata Project Trust,Kiata Wind Farm,Wind,31.0,94.19,Kiata Wind Farm,-36.4,141.75,2026-04-09T11:29:10.306486
2026/04/09 21:30:00,LGAPWF1,26.09,Lincoln Gap Wind Farm (Operations) Pty Ltd,Lincoln Gap Wind Farm,Wind,123.0,21.21,Lincoln Gap Wind Farm,-32.564279,137.557328,2026-04-09T11:29:10.306486
2026/04/09 21:30:00,LGAPWF1,26.09,Lincoln Gap Wind Farm (Operations) Pty Ltd,Lincoln Gap Wind Farm,Wind,123.0,21.21,Lincoln Gap Wind Farm,-32.564279,137.557328,2026-04-09T11:29:10.306486
2026/04/09 21:30:00,LGAPWF2,32.2,Lincoln Gap Wind Farm (Operations) Pty Ltd,Lincoln Gap Wind Farm,Wind,85.0,37.88,Lincoln Gap Wind Farm,-32.564279,137.557328,2026-04-09T11:29:10.306486
2026/04/09 21:30:00,LGAPWF2,32.2,Lincoln Gap Wind Farm (Operations) Pty Ltd,Lincoln Gap Wind Farm,Wind,85.0,37.88,Lincoln Gap Wind Farm,-32.564279,137.557328,2026-04-09T11:29:10.306486
2026/04/09 21:30:00,LKBONNY1,12.06,Lake Bonney Wind Power Pty Ltd,Lake Bonney Wind Farm Stage 1,Wind,81.0,14.89,Lake Bonney Wind Farm Stage 1,-37.76,140.4,2026-04-09T11:29:10.306486
2026/04/09 21:30:00,LKBONNY2,12.31,Lake Bonney Wind Power Pty Ltd,Lake Bonney Stage 2 Windfarm,Wind,159.0,7.74,Lake Bonney Stage 2 Windfarm,-37.76,140.4,2026-04-09T11:29:10.306486
2026/04/09 21:30:00,LKBONNY3,2.29,Lake Bonney Wind Power Pty Ltd,Lake Bonney Stage 3 Wind Farm,Wind,39.0,5.87,Lake Bonney Stage 3 Wind Farm,-37.737781,140.388137,2026-04-09T11:29:10.306486
2026/04/09 21:30:00,MACARTH1,49.5,AGL Hydro Partnership,Macarthur Wind Farm,Wind,420.0,11.79,Macarthur Wind Farm,-38.048957,142.192112,2026-04-09T11:29:10.306486
2026/04/09 21:30:00,MCINTYR1,211.26,MacIntyre UJV Operator Pty Ltd,MacIntyre Wind Farm,Wind,890.0,23.74,MacIntyre Wind Farm,-28.32,151.54,2026-04-09T11:29:10.306486
2026/04/09 21:30:00,MERCER01,115.7,Mt Mercer Windfarm Pty Ltd,Mt Mercer Wind Farm,Wind,131.0,88.32,Mt Mercer Wind Farm,-37.841111,143.871111,2026-04-09T11:29:10.306486
2026/04/09 21:30:00,MEWF1,45.48,Ergon Energy Queensland Pty Ltd ,Mount Emerald Wind Farm,Wind,178.0,25.55,Mount Emerald Wind Farm,-17.133007,145.380644,2026-04-09T11:29:10.306486
2026/04/09 21:30:00,MRTLSWF1,41.78,Mortlake South Wind Farm Pty Ltd,Mortlake South Wind Farm,Wind,153.0,27.31,Mortlake South Wind Farm,-38.127337,142.857801,2026-04-09T11:29:10.306486
2026/04/09 21:30:00,MTGELWF1,73.61,Mt. Gellibrand Wind Farm Pty Ltd,Mt Gellibrand Wind Farm,Wind,132.0,55.77,Mt Gellibrand Wind Farm,-38.23,143.77,2026-04-09T11:29:10.306486
2026/04/09 21:30:00,MTMILLAR,44.6,Mt Millar Wind Farm Pty Ltd,Mt Millar Wind Farm,Wind,70.0,63.71,Mt Millar Wind Farm,-33.624444,136.703611,2026-04-09T11:29:10.306486
2026/04/09 21:30:00,MUSSELR1,128.5,Hydro-Electric Corporation,Musselroe Wind Farm,Wind,168.0,76.49,Musselroe Wind Farm,-40.780225,148.010799,2026-04-09T11:29:10.306486
2026/04/09 21:30:00,MUWAWF1,0.0,Telstra Energy (Generation) Pty Ltd,Murra Warra Wind Farm,Wind,225.7,0.0,Murra Warra Wind Farm,-36.432404,142.317853,2026-04-09T11:29:10.306486
2026/04/09 21:30:00,MUWAWF2,171.8,Murra Warra II Project Co Pty Ltd ATF The Murra Warra II Project Trust,Murra Warra Wind Farm Stage 2,Wind,203.0,84.63,Murra Warra Wind Farm Stage 2,-36.43,142.32,2026-04-09T11:29:10.306486
2026/04/09 21:30:00,NBHWF1,104.2,AGL SA Generation Pty Limited,North Brown Hill Wind Farm,Wind,132.0,78.94,North Brown Hill Wind Farm,-33.367778,138.728611,2026-04-09T11:29:10.306486
2026/04/09 21:30:00,OAKLAND1,59.4,AGL Hydro Partnership,Oaklands Hill Wind Farm,Wind,63.0,94.29,Oaklands Hill Wind Farm,-37.683078,142.551678,2026-04-09T11:29:10.306486
2026/04/09 21:30:00,PAREPW1,56.71,Iberdrola Australia Energy Markets Pty Limited,Port Augusta Renewable Energy Park,Wind,201.0,28.21,Port Augusta Renewable Energy Park,-32.566944,137.856111,2026-04-09T11:29:10.306486
2026/04/09 21:30:00,RYANCWF1,56.56,Ryan Corner Development Pty Ltd,Ryan Corner Wind Farm,Wind,205.0,27.59,Ryan Corner Wind Farm,-38.271017,142.140647,2026-04-09T11:29:10.306486
2026/04/09 21:30:00,RYEPARK1,106.56,Rye Park Renewable Energy Pty Ltd as trustee for Rye Park Wind Farm Trust,Rye Park Renewable Energy,Wind,384.0,27.75,Rye Park Renewable Energy,-32.138333,148.972778,2026-04-09T11:29:10.306486
2026/04/09 21:30:00,SALTCRK1,0.0,Salt Creek Wind Farm Pty Ltd,Salt Creek Wind Farm,Wind,54.0,0.0,Salt Creek Wind Farm,-37.95,142.63,2026-04-09T11:29:10.306486
2026/04/09 21:30:00,SAPHWF1,81.95,The Trustee For The SWF1 Operations Trust,Sapphire Wind Farm,Wind,270.0,30.35,Sapphire Wind Farm,-29.7,151.41,2026-04-09T11:29:10.306486
2026/04/09 21:30:00,SNOWNTH1,137.1,Snowtown Wind Farm Stage 2 Pty Ltd,Snowtown Wind Farm Stage 2 North,Wind,144.0,95.21,Snowtown Wind Farm Stage 2 North,-33.83,138.118611,2026-04-09T11:29:10.306486
2026/04/09 21:30:00,SNOWSTH1,121.2,Snowtown Wind Farm Stage 2 Pty Ltd,Snowtown South Wind Farm,Wind,126.0,96.19,Snowtown South Wind Farm,-33.83,138.118611,2026-04-09T11:29:10.306486
2026/04/09 21:30:00,SNOWTWN1,95.38,Snowtown Wind Farm Pty Ltd,Snowtown Wind Farm Units 1 And 47,Wind,99.0,96.34,Snowtown Wind Farm Units 1 And 47,-33.83,138.118611,2026-04-09T11:29:10.306486
2026/04/09 21:30:00,STARHLWF,27.39,Starfish Hill Wind Farm Pty Ltd,Starfish Hill Wind Farm,Wind,35.0,78.26,Starfish Hill Wind Farm,-35.58,138.14,2026-04-09T11:29:10.306486
2026/04/09 21:30:00,STOCKYD1,481.48,Stockyard Hill Wind Farm Pty Ltd,Stockyard Hill Wind Farm,Wind,511.0,94.22,Stockyard Hill Wind Farm,-37.535833,143.251389,2026-04-09T11:29:10.306486
2026/04/09 21:30:00,STWF1,48.59,PARF Company 8 Pty Ltd as The Trustee for Silverton Project Trust,Silverton Wind Farm,Wind,198.0,24.54,Silverton Wind Farm,-37.683168,142.551678,2026-04-09T11:29:10.306486
2026/04/09 21:30:00,TARALGA1,25.25,Taralga Wind Farm Nominees No 2 Pty Ltd (ATF Taralga Wind Farm Operating Trust),Taralga Wind Farm,Wind,106.0,23.82,Taralga Wind Farm,-34.42352,149.826267,2026-04-09T11:29:10.306486
2026/04/09 21:30:00,WAMBOWF1,170.62,Stanwell Corporation Limited,Wambo Wind Farm 1,Wind,245.0,69.64,Wambo Wind Farm 1,-35.187301,149.524945,2026-04-09T11:29:10.306486
2026/04/09 21:30:00,WATERLWF,124.4,Waterloo Wind Farm Pty Ltd,Waterloo Wind Farm,Wind,130.0,95.69,Waterloo Wind Farm,-34.00094,138.911567,2026-04-09T11:29:10.306486
2026/04/09 21:30:00,WGWF1,95.1,Willogoleche Power Pty Ltd As The Trustee For The Willogoleche Operating Trust,Willogoleche Wind Farm,Wind,119.0,79.92,Willogoleche Wind Farm,-33.39,138.85,2026-04-09T11:29:10.306486
2026/04/09 21:30:00,WOODLWN1,9.99,Woodlawn Wind Pty Ltd,Woodlawn Wind Farm,Wind,48.0,20.81,Woodlawn Wind Farm,-35.08,149.62,2026-04-09T11:29:10.306486
2026/04/09 21:30:00,WPWF,58.22,AGL SA Generation Pty Limited,Wattle Point Wind Farm,Wind,91.0,63.98,Wattle Point Wind Farm,-35.111624,137.7219,2026-04-09T11:29:10.306486
2026/04/09 21:30:00,WRWF1,30.35,White Rock Wind Farm Pty Ltd,White Rock Wind Farm,Wind,172.0,17.65,White Rock Wind Farm,-29.79,151.54,2026-04-09T11:29:10.306486
2026/04/09 21:30:00,YENDWF1,115.34,Lal Lal Wind Farms Nom Co Pty Ltd,Yendon Wind Farm,Wind,142.0,81.23,Yendon Wind Farm,-37.629987,144.022717,2026-04-09T11:29:10.306486
