SETTLEMENTDATE,DUID,SCADAVALUE,Participant,Station Name,Fuel Source - Primary,MAX_CAP,utilisation_pct,Plant,Latitude,Longitude,timestamp_utc
2026/01/31 17:35:00,CAPTL_WF,41.09,Iberdrola Australia Holdings Pty Limited,Capital Wind Farm,Wind,140.0,29.35,Capital Wind Farm,-35.1,149.31,2026-01-31T07:37:01.360381
2026/01/31 17:35:00,CHALLHWF,16.2,Pacific Hydro Challicum Hills Pty Ltd,Challicum Hills Wind Farm,Wind,52.0,31.15,Challicum Hills Wind Farm,-37.38,143.11,2026-01-31T07:37:01.360381
2026/01/31 17:35:00,CULLRGWF,2.67,Cullerin Range Wind Farm Pty Ltd,Cullerin Range Wind Farm,Wind,30.0,8.9,Cullerin Range Wind Farm,-34.81,149.4,2026-01-31T07:37:01.360381
2026/01/31 17:35:00,DIAPURWF1,6.4,Y.E.S. Energy (SA) Pty Ltd,Diapur Wind Farm,Wind,7.0,91.43,Diapur Wind Farm,-36.3425,141.43,2026-01-31T07:37:01.360381
2026/01/31 17:35:00,MLWF1,4.29,Mortons Lane Windfarm Pty Limited,Mortons Lane Wind Farm,Wind,20.0,21.45,Mortons Lane Wind Farm,-37.84,142.45,2026-01-31T07:37:01.360381
2026/01/31 17:35:00,WAUBRAWF,127.04,Pyrenees Wind Energy Developments Pty Ltd,Waubra Wind Farm,Wind,192.0,66.17,Waubra Wind Farm,-37.394498,143.638982,2026-01-31T07:37:01.360381
2026/01/31 17:35:00,WOOLNTH1,62.17,Hydro-Electric Corporation,Woolnorth Studland Bay / Bluff Point Wind Farm,Wind,140.0,44.41,Woolnorth Studland Bay / Bluff Point Wind Farm,-40.69,144.72,2026-01-31T07:37:01.360381
2026/01/31 17:35:00,YAMBUKWF,18.1,Energy Pacific (Vic) Pty Ltd,Yambuk Wind Farm,Wind,30.0,60.33,Yambuk Wind Farm,-38.299083,142.027577,2026-01-31T07:37:01.360381
2026/01/31 17:35:00,YSWF1,0.8,Pacific Hydro Yaloak South Pty Ltd,Yaloak South Wind Farm,Wind,28.0,2.86,Yaloak South Wind Farm,-37.7163,144.242853,2026-01-31T07:37:01.360381
2026/01/31 17:35:00,ARWF1,85.4,Ararat Wind Farm Pty Ltd,Ararat Wind Farm,Wind,241.0,35.44,Ararat Wind Farm,-37.232778,143.031389,2026-01-31T07:37:01.360381
2026/01/31 17:35:00,BALDHWF1,18.11,Alinta Energy Retail Sales Pty Ltd,Bald Hills Wind Farm,Wind,106.0,17.08,Bald Hills Wind Farm,-38.79,145.93,2026-01-31T07:37:01.360381
2026/01/31 17:35:00,BANGOWF1,32.1,BWF Nominees Pty Ltd as The Trustee for BWF Trust,Bango 973 Wind Farm,Wind,155.0,20.71,Bango 973 Wind Farm,-34.551582,148.732808,2026-01-31T07:37:01.360381
2026/01/31 17:35:00,BANGOWF2,22.4,BWF Nominees Pty Ltd as The Trustee for BWF Trust,Bango 999 Wind Farm,Wind,82.0,27.32,Bango 999 Wind Farm,-34.551582,148.732808,2026-01-31T07:37:01.360381
2026/01/31 17:35:00,BLUFF1,41.3,AGL SA Generation Pty Limited,The Bluff Wind Farm,Wind,53.0,77.92,The Bluff Wind Farm,-33.367778,138.728611,2026-01-31T07:37:01.360381
2026/01/31 17:35:00,BOCORWF1,71.99,Boco Rock Wind Farm Pty Ltd,Boco Rock Wind Farm,Wind,111.0,64.86,Boco Rock Wind Farm,-36.578611,149.103333,2026-01-31T07:37:01.360381
2026/01/31 17:35:00,BRYB1WF1,68.16,Berrybank Development Pty Ltd,Berrybank Wind Farm,Wind,175.9,38.75,Berrybank Wind Farm,-37.94,143.52,2026-01-31T07:37:01.360381
2026/01/31 17:35:00,BRYB2WF2,51.34,Berrybank 2 Asset Pty Ltd as trustee for Berrybank 2 Asset Trust,Berrybank 2 Wind Farm,Wind,105.0,48.9,Berrybank 2 Wind Farm,-37.94,143.52,2026-01-31T07:37:01.360381
2026/01/31 17:35:00,BULGANA1,0.0,Bulgana Wind Farm Pty Ltd,Bulgana Green Power Hub,Wind,204.0,0.0,Bulgana Green Power Hub,-37.0975,142.973611,2026-01-31T07:37:01.360381
2026/01/31 17:35:00,CATHROCK,37.1,Cathedral Rocks Wind Farm Pty Ltd,Cathedral Rocks,Wind,66.0,56.21,Cathedral Rocks,-34.51,135.35,2026-01-31T07:37:01.360381
2026/01/31 17:35:00,CHYTWF1,16.54,Cherry Tree Wind Farm Pty Ltd as trustee for The Cherry Tree Project trust ,Cherry Tree Wind Farm,Wind,57.0,29.02,Cherry Tree Wind Farm,-37.1,145.26,2026-01-31T07:37:01.360381
2026/01/31 17:35:00,CLEMGPWF,43.29,Pacific Hydro Clements Gap Pty Ltd,Clements Gap Wind Farm,Wind,57.0,75.95,Clements Gap Wind Farm,-33.48,138.1,2026-01-31T07:37:01.360381
2026/01/31 17:35:00,CLRKCWF1,10.77,Stanwell Corporation Limited ,Clarke Creek Wind Farm,Wind,338.0,3.19,Clarke Creek Wind Farm,-22.85,149.45,2026-01-31T07:37:01.360381
2026/01/31 17:35:00,CLRKCWF2,0.0,Stanwell Corporation Limited ,Clarke Creek Wind Farm,Wind,101.0,0.0,Clarke Creek Wind Farm,-22.85,149.45,2026-01-31T07:37:01.360381
2026/01/31 17:35:00,CNUNDAWF,24.03,Canunda Power Pty Ltd,Canunda Wind Farm,Wind,46.0,52.24,Canunda Wind Farm,-37.73,140.39,2026-01-31T07:37:01.360381
2026/01/31 17:35:00,COLWF01,32.23,Collector Wind Farm Pty Ltd,Collector Wind Farm 1,Wind,219.0,14.72,Collector Wind Farm 1,-34.8719,149.3967,2026-01-31T07:37:01.360381
2026/01/31 17:35:00,COOPGWF1,0.0,PARF Company 10 Pty Limited as The Trustee for Coopers Gap Project Trust,Coopers Gap Wind Farm,Wind,440.0,0.0,Coopers Gap Wind Farm,-26.74,151.45,2026-01-31T07:37:01.360381
2026/01/31 17:35:00,CROOKWF2,41.62,Crookwell Development Pty Ltd ,Crookwell 2 Wind Farm,Wind,91.0,45.74,Crookwell 2 Wind Farm,-34.52,149.54,2026-01-31T07:37:01.360381
2026/01/31 17:35:00,CROOKWF3,21.72,Crookwell 3 Development Pty Ltd,Crookwell 3 Wind Farm,Wind,56.0,38.79,Crookwell 3 Wind Farm,-34.52,149.54,2026-01-31T07:37:01.360381
2026/01/31 17:35:00,CROWLWF1,63.95,Pacific Hydro Crowlands Pty Ltd ,Crowlands Wind Farm,Wind,79.0,80.95,Crowlands Wind Farm,-37.13,143.16,2026-01-31T07:37:01.360381
2026/01/31 17:35:00,CRURWF1,12.2,CRWF Nominees Pty Ltd As Trustee For The CRWF Trust,Crudine Ridge Wind Farm,Wind,138.0,8.84,Crudine Ridge Wind Farm,-32.97,149.64,2026-01-31T07:37:01.360381
2026/01/31 17:35:00,CTHLWF1,76.17,Wild Cattle Hill Pty Ltd,Cattle Hill Wind Farm,Wind,144.0,52.9,Cattle Hill Wind Farm,-42.15,146.69,2026-01-31T07:37:01.360381
2026/01/31 17:35:00,DULAWF1,22.8,Dulacca Energy Project Co Pty Ltd,Dulacca Wind Farm,Wind,173.0,13.18,Dulacca Wind Farm,-26.63,149.87,2026-01-31T07:37:01.360381
2026/01/31 17:35:00,DUNDWF1,50.0,Dundonnell Wind Farm Pty Ltd,Dundonnell Wind Farm,Wind,168.0,29.76,Dundonnell Wind Farm,-37.52,142.58,2026-01-31T07:37:01.360381
2026/01/31 17:35:00,DUNDWF2,13.68,Dundonnell Wind Farm Pty Ltd,Dundonnell Wind Farm,Wind,46.0,29.74,Dundonnell Wind Farm,-37.52,142.58,2026-01-31T07:37:01.360381
2026/01/31 17:35:00,DUNDWF3,51.25,Dundonnell Wind Farm Pty Ltd,Dundonnell Wind Farm,Wind,122.0,42.01,Dundonnell Wind Farm,-37.52,142.58,2026-01-31T07:37:01.360381
2026/01/31 17:35:00,ELAINWF1,2.64,Lal Lal Wind Farms Nom Co Pty Ltd,Elaine Wind Farm,Wind,82.0,3.22,Elaine Wind Farm,-37.36,144.0,2026-01-31T07:37:01.360381
2026/01/31 17:35:00,FLYCRKWF,0.56,Iberdrola Australia Energy Markets Pty Limited,Flyers Creek Wind Farm,Wind,140.0,0.4,Flyers Creek Wind Farm,-33.365556,148.981944,2026-01-31T07:37:01.360381
2026/01/31 17:35:00,GPWFEST1,104.2,Golden Plains WF1 Pty Ltd as Trustee for the Golden Plains WF1 Unit Trust,Golden Plains Wind Farm East,Wind,240.0,43.42,Golden Plains Wind Farm East,-37.945091,143.752614,2026-01-31T07:37:01.360381
2026/01/31 17:35:00,GPWFEST2,98.8,Golden Plains WF1 Pty Ltd as Trustee for the Golden Plains WF1 Unit Trust,Golden Plains Wind Farm East,Wind,253.0,39.05,Golden Plains Wind Farm East,-37.945091,143.752614,2026-01-31T07:37:01.360381
2026/01/31 17:35:00,GPWFEST3,82.82,Golden Plains WF1 Pty Ltd as Trustee for the Golden Plains WF1 Unit Trust,Golden Plains Wind Farm East,Wind,240.0,34.51,Golden Plains Wind Farm East,-37.945091,143.752614,2026-01-31T07:37:01.360381
2026/01/31 17:35:00,GRANWF1,18.04,Granville Harbour Operations Pty Ltd as The Trustee for Granville Harbour Operations Trust,Granville Harbour Wind Farm,Wind,111.0,16.25,Granville Harbour Wind Farm,-41.8,145.06,2026-01-31T07:37:01.360381
2026/01/31 17:35:00,GSWF1A,133.2,Goyder Wind Farm 1 Pty Ltd as the Trustee for Goyder Wind Farm 1 Trust,Goyder South Wind Farm 1A,Wind,201.0,66.27,Goyder South Wind Farm 1A,-33.679758,138.937597,2026-01-31T07:37:01.360381
2026/01/31 17:35:00,GSWF1B1,149.8,Goyder Wind Farm 1B Pty Ltd as the Trustee for the Goyder Wind Farm 1B Trust,Goyder South Wind Farm 1B,Wind,196.0,76.43,Goyder South Wind Farm 1B,-33.679758,138.937597,2026-01-31T07:37:01.360381
2026/01/31 17:35:00,GULLRWF1,29.71,New Gullen Range Wind Farm Pty Ltd,Gullen Range Wind Farm,Wind,161.0,18.45,Gullen Range Wind Farm,-34.34,149.27,2026-01-31T07:37:01.360381
2026/01/31 17:35:00,GULLRWF2,30.04,New Gullen Range Wind Farm Pty Ltd,Gullen Range Wind Farm,Wind,107.0,28.07,Gullen Range Wind Farm,-34.34,149.27,2026-01-31T07:37:01.360381
2026/01/31 17:35:00,GUNNING1,8.3,Gunning Wind Energy Developments Pty Ltd,Gunning Wind Farm,Wind,47.0,17.66,Gunning Wind Farm,-34.813333,149.4,2026-01-31T07:37:01.360381
2026/01/31 17:35:00,HALLWF1,70.19,AGL SA Generation Pty Limited,Hallett 1 Wind Farm,Wind,95.0,73.88,Hallett 1 Wind Farm,-33.367778,138.728611,2026-01-31T07:37:01.360381
2026/01/31 17:35:00,HALLWF2,54.43,AGL SA Generation Pty Limited,Hallett 2 Wind Farm,Wind,71.0,76.66,Hallett 2 Wind Farm,-33.367778,138.728611,2026-01-31T07:37:01.360381
2026/01/31 17:35:00,HD1WF1,37.74,Hawkesdale Asset Pty Ltd as trustee for Hawkesdale Asset Trust,Hawkesdale Wind Farm,Wind,89.0,42.4,Hawkesdale Wind Farm,-38.147894,142.361381,2026-01-31T07:37:01.360381
2026/01/31 17:35:00,HDWF1,76.3,HWF1 Pty Ltd,Hornsdale Wind Farm,Wind,102.0,74.8,Hornsdale Wind Farm,-33.050556,138.543611,2026-01-31T07:37:01.360381
2026/01/31 17:35:00,HDWF2,76.8,HWF 2 Pty Ltd,Hornsdale Wind Farm 2,Wind,102.0,75.29,Hornsdale Wind Farm 2,-33.06,138.54,2026-01-31T07:37:01.360381
2026/01/31 17:35:00,HDWF3,81.6,HWF3 Pty Ltd,Hornsdale Wind Farm 3,Wind,109.0,74.86,Hornsdale Wind Farm 3,-33.06,138.54,2026-01-31T07:37:01.360381
2026/01/31 17:35:00,KABANWF1,25.02,Kaban Wind Farm Pty Ltd as trustee for Kaban Wind Farm Trust,Kaban Wind Farm,Wind,152.0,16.46,Kaban Wind Farm,-17.56,145.41,2026-01-31T07:37:01.360381
2026/01/31 17:35:00,KEPWF1,0.0,Kennedy Energy Park Pty Ltd,Kennedy Energy Park,Wind,43.0,0.0,Kennedy Energy Park,-20.88,144.42,2026-01-31T07:37:01.360381
2026/01/31 17:35:00,KIATAWF1,26.0,Kiata ProjectCo Pty Ltd Atf Kiata Project Trust,Kiata Wind Farm,Wind,31.0,83.87,Kiata Wind Farm,-36.4,141.75,2026-01-31T07:37:01.360381
2026/01/31 17:35:00,LGAPWF1,71.17,Lincoln Gap Wind Farm (Operations) Pty Ltd,Lincoln Gap Wind Farm,Wind,123.0,57.86,Lincoln Gap Wind Farm,-32.564279,137.557328,2026-01-31T07:37:01.360381
2026/01/31 17:35:00,LGAPWF1,71.17,Lincoln Gap Wind Farm (Operations) Pty Ltd,Lincoln Gap Wind Farm,Wind,123.0,57.86,Lincoln Gap Wind Farm,-32.564279,137.557328,2026-01-31T07:37:01.360381
2026/01/31 17:35:00,LGAPWF2,64.31,Lincoln Gap Wind Farm (Operations) Pty Ltd,Lincoln Gap Wind Farm,Wind,85.0,75.66,Lincoln Gap Wind Farm,-32.564279,137.557328,2026-01-31T07:37:01.360381
2026/01/31 17:35:00,LGAPWF2,64.31,Lincoln Gap Wind Farm (Operations) Pty Ltd,Lincoln Gap Wind Farm,Wind,85.0,75.66,Lincoln Gap Wind Farm,-32.564279,137.557328,2026-01-31T07:37:01.360381
2026/01/31 17:35:00,LKBONNY1,48.41,Lake Bonney Wind Power Pty Ltd,Lake Bonney Wind Farm Stage 1,Wind,81.0,59.77,Lake Bonney Wind Farm Stage 1,-37.76,140.4,2026-01-31T07:37:01.360381
2026/01/31 17:35:00,LKBONNY2,73.54,Lake Bonney Wind Power Pty Ltd,Lake Bonney Stage 2 Windfarm,Wind,159.0,46.25,Lake Bonney Stage 2 Windfarm,-37.76,140.4,2026-01-31T07:37:01.360381
2026/01/31 17:35:00,LKBONNY3,9.1,Lake Bonney Wind Power Pty Ltd,Lake Bonney Stage 3 Wind Farm,Wind,39.0,23.33,Lake Bonney Stage 3 Wind Farm,-37.737781,140.388137,2026-01-31T07:37:01.360381
2026/01/31 17:35:00,MACARTH1,130.1,AGL Hydro Partnership,Macarthur Wind Farm,Wind,420.0,30.98,Macarthur Wind Farm,-38.048957,142.192112,2026-01-31T07:37:01.360381
2026/01/31 17:35:00,MCINTYR1,2.34,MacIntyre UJV Operator Pty Ltd,MacIntyre Wind Farm,Wind,890.0,0.26,MacIntyre Wind Farm,-28.32,151.54,2026-01-31T07:37:01.360381
2026/01/31 17:35:00,MERCER01,17.7,Mt Mercer Windfarm Pty Ltd,Mt Mercer Wind Farm,Wind,131.0,13.51,Mt Mercer Wind Farm,-37.841111,143.871111,2026-01-31T07:37:01.360381
2026/01/31 17:35:00,MEWF1,14.8,Ergon Energy Queensland Pty Ltd ,Mount Emerald Wind Farm,Wind,178.0,8.31,Mount Emerald Wind Farm,-17.133007,145.380644,2026-01-31T07:37:01.360381
2026/01/31 17:35:00,MRTLSWF1,57.48,Mortlake South Wind Farm Pty Ltd,Mortlake South Wind Farm,Wind,153.0,37.57,Mortlake South Wind Farm,-38.127337,142.857801,2026-01-31T07:37:01.360381
2026/01/31 17:35:00,MTGELWF1,57.2,Mt. Gellibrand Wind Farm Pty Ltd,Mt Gellibrand Wind Farm,Wind,132.0,43.33,Mt Gellibrand Wind Farm,-38.23,143.77,2026-01-31T07:37:01.360381
2026/01/31 17:35:00,MTMILLAR,52.8,Mt Millar Wind Farm Pty Ltd,Mt Millar Wind Farm,Wind,70.0,75.43,Mt Millar Wind Farm,-33.624444,136.703611,2026-01-31T07:37:01.360381
2026/01/31 17:35:00,MUSSELR1,71.4,Hydro-Electric Corporation,Musselroe Wind Farm,Wind,168.0,42.5,Musselroe Wind Farm,-40.780225,148.010799,2026-01-31T07:37:01.360381
2026/01/31 17:35:00,MUWAWF1,52.33,Telstra Energy (Generation) Pty Ltd,Murra Warra Wind Farm,Wind,225.7,23.19,Murra Warra Wind Farm,-36.432404,142.317853,2026-01-31T07:37:01.360381
2026/01/31 17:35:00,MUWAWF2,48.1,Murra Warra II Project Co Pty Ltd ATF The Murra Warra II Project Trust,Murra Warra Wind Farm Stage 2,Wind,203.0,23.69,Murra Warra Wind Farm Stage 2,-36.43,142.32,2026-01-31T07:37:01.360381
2026/01/31 17:35:00,NBHWF1,99.6,AGL SA Generation Pty Limited,North Brown Hill Wind Farm,Wind,132.0,75.45,North Brown Hill Wind Farm,-33.367778,138.728611,2026-01-31T07:37:01.360381
2026/01/31 17:35:00,OAKLAND1,25.2,AGL Hydro Partnership,Oaklands Hill Wind Farm,Wind,63.0,40.0,Oaklands Hill Wind Farm,-37.683078,142.551678,2026-01-31T07:37:01.360381
2026/01/31 17:35:00,PAREPW1,141.7,Iberdrola Australia Energy Markets Pty Limited,Port Augusta Renewable Energy Park,Wind,201.0,70.5,Port Augusta Renewable Energy Park,-32.566944,137.856111,2026-01-31T07:37:01.360381
2026/01/31 17:35:00,RYANCWF1,109.18,Ryan Corner Development Pty Ltd,Ryan Corner Wind Farm,Wind,205.0,53.26,Ryan Corner Wind Farm,-38.271017,142.140647,2026-01-31T07:37:01.360381
2026/01/31 17:35:00,RYEPARK1,77.45,Rye Park Renewable Energy Pty Ltd as trustee for Rye Park Wind Farm Trust,Rye Park Renewable Energy,Wind,384.0,20.17,Rye Park Renewable Energy,-32.138333,148.972778,2026-01-31T07:37:01.360381
2026/01/31 17:35:00,SALTCRK1,12.15,Salt Creek Wind Farm Pty Ltd,Salt Creek Wind Farm,Wind,54.0,22.5,Salt Creek Wind Farm,-37.95,142.63,2026-01-31T07:37:01.360381
2026/01/31 17:35:00,SAPHWF1,40.98,The Trustee For The SWF1 Operations Trust,Sapphire Wind Farm,Wind,270.0,15.18,Sapphire Wind Farm,-29.7,151.41,2026-01-31T07:37:01.360381
2026/01/31 17:35:00,SNOWNTH1,109.2,Snowtown Wind Farm Stage 2 Pty Ltd,Snowtown Wind Farm Stage 2 North,Wind,144.0,75.83,Snowtown Wind Farm Stage 2 North,-33.83,138.118611,2026-01-31T07:37:01.360381
2026/01/31 17:35:00,SNOWSTH1,95.7,Snowtown Wind Farm Stage 2 Pty Ltd,Snowtown South Wind Farm,Wind,126.0,75.95,Snowtown South Wind Farm,-33.83,138.118611,2026-01-31T07:37:01.360381
2026/01/31 17:35:00,SNOWTWN1,73.12,Snowtown Wind Farm Pty Ltd,Snowtown Wind Farm Units 1 And 47,Wind,99.0,73.86,Snowtown Wind Farm Units 1 And 47,-33.83,138.118611,2026-01-31T07:37:01.360381
2026/01/31 17:35:00,STARHLWF,24.49,Starfish Hill Wind Farm Pty Ltd,Starfish Hill Wind Farm,Wind,35.0,69.97,Starfish Hill Wind Farm,-35.58,138.14,2026-01-31T07:37:01.360381
2026/01/31 17:35:00,STOCKYD1,355.72,Stockyard Hill Wind Farm Pty Ltd,Stockyard Hill Wind Farm,Wind,511.0,69.61,Stockyard Hill Wind Farm,-37.535833,143.251389,2026-01-31T07:37:01.360381
2026/01/31 17:35:00,STWF1,0.0,PARF Company 8 Pty Ltd as The Trustee for Silverton Project Trust,Silverton Wind Farm,Wind,198.0,0.0,Silverton Wind Farm,-37.683168,142.551678,2026-01-31T07:37:01.360381
2026/01/31 17:35:00,TARALGA1,16.79,Taralga Wind Farm Nominees No 2 Pty Ltd (ATF Taralga Wind Farm Operating Trust),Taralga Wind Farm,Wind,106.0,15.84,Taralga Wind Farm,-34.42352,149.826267,2026-01-31T07:37:01.360381
2026/01/31 17:35:00,WAMBOWF1,0.0,Stanwell Corporation Limited,Wambo Wind Farm 1,Wind,245.0,0.0,Wambo Wind Farm 1,-35.187301,149.524945,2026-01-31T07:37:01.360381
2026/01/31 17:35:00,WATERLWF,44.6,Waterloo Wind Farm Pty Ltd,Waterloo Wind Farm,Wind,130.0,34.31,Waterloo Wind Farm,-34.00094,138.911567,2026-01-31T07:37:01.360381
2026/01/31 17:35:00,WGWF1,91.7,Willogoleche Power Pty Ltd As The Trustee For The Willogoleche Operating Trust,Willogoleche Wind Farm,Wind,119.0,77.06,Willogoleche Wind Farm,-33.39,138.85,2026-01-31T07:37:01.360381
2026/01/31 17:35:00,WOODLWN1,17.95,Woodlawn Wind Pty Ltd,Woodlawn Wind Farm,Wind,48.0,37.4,Woodlawn Wind Farm,-35.08,149.62,2026-01-31T07:37:01.360381
2026/01/31 17:35:00,WPWF,70.97,AGL SA Generation Pty Limited,Wattle Point Wind Farm,Wind,91.0,77.99,Wattle Point Wind Farm,-35.111624,137.7219,2026-01-31T07:37:01.360381
2026/01/31 17:35:00,WRWF1,23.74,White Rock Wind Farm Pty Ltd,White Rock Wind Farm,Wind,172.0,13.8,White Rock Wind Farm,-29.79,151.54,2026-01-31T07:37:01.360381
2026/01/31 17:35:00,YENDWF1,29.0,Lal Lal Wind Farms Nom Co Pty Ltd,Yendon Wind Farm,Wind,142.0,20.42,Yendon Wind Farm,-37.629987,144.022717,2026-01-31T07:37:01.360381
