SETTLEMENTDATE,DUID,SCADAVALUE,Participant,Station Name,Fuel Source - Primary,MAX_CAP,utilisation_pct,Plant,Latitude,Longitude,timestamp_utc
2026/02/18 01:00:00,CAPTL_WF,80.34,Iberdrola Australia Holdings Pty Limited,Capital Wind Farm,Wind,140.0,57.39,Capital Wind Farm,-35.1,149.31,2026-02-17T14:57:59.152480
2026/02/18 01:00:00,CHALLHWF,9.5,Pacific Hydro Challicum Hills Pty Ltd,Challicum Hills Wind Farm,Wind,52.0,18.27,Challicum Hills Wind Farm,-37.38,143.11,2026-02-17T14:57:59.152480
2026/02/18 01:00:00,CULLRGWF,17.84,Cullerin Range Wind Farm Pty Ltd,Cullerin Range Wind Farm,Wind,30.0,59.47,Cullerin Range Wind Farm,-34.81,149.4,2026-02-17T14:57:59.152480
2026/02/18 01:00:00,DIAPURWF1,6.4,Y.E.S. Energy (SA) Pty Ltd,Diapur Wind Farm,Wind,7.0,91.43,Diapur Wind Farm,-36.3425,141.43,2026-02-17T14:57:59.152480
2026/02/18 01:00:00,MLWF1,4.34,Mortons Lane Windfarm Pty Limited,Mortons Lane Wind Farm,Wind,20.0,21.7,Mortons Lane Wind Farm,-37.84,142.45,2026-02-17T14:57:59.152480
2026/02/18 01:00:00,WAUBRAWF,137.29,Pyrenees Wind Energy Developments Pty Ltd,Waubra Wind Farm,Wind,192.0,71.51,Waubra Wind Farm,-37.394498,143.638982,2026-02-17T14:57:59.152480
2026/02/18 01:00:00,WOOLNTH1,88.35,Hydro-Electric Corporation,Woolnorth Studland Bay / Bluff Point Wind Farm,Wind,140.0,63.11,Woolnorth Studland Bay / Bluff Point Wind Farm,-40.69,144.72,2026-02-17T14:57:59.152480
2026/02/18 01:00:00,YAMBUKWF,7.2,Energy Pacific (Vic) Pty Ltd,Yambuk Wind Farm,Wind,30.0,24.0,Yambuk Wind Farm,-38.299083,142.027577,2026-02-17T14:57:59.152480
2026/02/18 01:00:00,YSWF1,13.4,Pacific Hydro Yaloak South Pty Ltd,Yaloak South Wind Farm,Wind,28.0,47.86,Yaloak South Wind Farm,-37.7163,144.242853,2026-02-17T14:57:59.152480
2026/02/18 01:00:00,ARWF1,91.2,Ararat Wind Farm Pty Ltd,Ararat Wind Farm,Wind,241.0,37.84,Ararat Wind Farm,-37.232778,143.031389,2026-02-17T14:57:59.152480
2026/02/18 01:00:00,BALDHWF1,78.54,Alinta Energy Retail Sales Pty Ltd,Bald Hills Wind Farm,Wind,106.0,74.09,Bald Hills Wind Farm,-38.79,145.93,2026-02-17T14:57:59.152480
2026/02/18 01:00:00,BANGOWF1,75.5,BWF Nominees Pty Ltd as The Trustee for BWF Trust,Bango 973 Wind Farm,Wind,155.0,48.71,Bango 973 Wind Farm,-34.551582,148.732808,2026-02-17T14:57:59.152480
2026/02/18 01:00:00,BANGOWF2,52.0,BWF Nominees Pty Ltd as The Trustee for BWF Trust,Bango 999 Wind Farm,Wind,82.0,63.41,Bango 999 Wind Farm,-34.551582,148.732808,2026-02-17T14:57:59.152480
2026/02/18 01:00:00,BLUFF1,0.7,AGL SA Generation Pty Limited,The Bluff Wind Farm,Wind,53.0,1.32,The Bluff Wind Farm,-33.367778,138.728611,2026-02-17T14:57:59.152480
2026/02/18 01:00:00,BOCORWF1,75.59,Boco Rock Wind Farm Pty Ltd,Boco Rock Wind Farm,Wind,111.0,68.1,Boco Rock Wind Farm,-36.578611,149.103333,2026-02-17T14:57:59.152480
2026/02/18 01:00:00,BRYB1WF1,50.27,Berrybank Development Pty Ltd,Berrybank Wind Farm,Wind,175.9,28.58,Berrybank Wind Farm,-37.94,143.52,2026-02-17T14:57:59.152480
2026/02/18 01:00:00,BRYB2WF2,35.09,Berrybank 2 Asset Pty Ltd as trustee for Berrybank 2 Asset Trust,Berrybank 2 Wind Farm,Wind,105.0,33.42,Berrybank 2 Wind Farm,-37.94,143.52,2026-02-17T14:57:59.152480
2026/02/18 01:00:00,BULGANA1,53.89,Bulgana Wind Farm Pty Ltd,Bulgana Green Power Hub,Wind,204.0,26.42,Bulgana Green Power Hub,-37.0975,142.973611,2026-02-17T14:57:59.152480
2026/02/18 01:00:00,CATHROCK,8.7,Cathedral Rocks Wind Farm Pty Ltd,Cathedral Rocks,Wind,66.0,13.18,Cathedral Rocks,-34.51,135.35,2026-02-17T14:57:59.152480
2026/02/18 01:00:00,CHYTWF1,47.93,Cherry Tree Wind Farm Pty Ltd as trustee for The Cherry Tree Project trust ,Cherry Tree Wind Farm,Wind,57.0,84.09,Cherry Tree Wind Farm,-37.1,145.26,2026-02-17T14:57:59.152480
2026/02/18 01:00:00,CLEMGPWF,38.32,Pacific Hydro Clements Gap Pty Ltd,Clements Gap Wind Farm,Wind,57.0,67.23,Clements Gap Wind Farm,-33.48,138.1,2026-02-17T14:57:59.152480
2026/02/18 01:00:00,CLRKCWF1,291.14,Stanwell Corporation Limited ,Clarke Creek Wind Farm,Wind,338.0,86.14,Clarke Creek Wind Farm,-22.85,149.45,2026-02-17T14:57:59.152480
2026/02/18 01:00:00,CLRKCWF2,90.61,Stanwell Corporation Limited ,Clarke Creek Wind Farm,Wind,101.0,89.71,Clarke Creek Wind Farm,-22.85,149.45,2026-02-17T14:57:59.152480
2026/02/18 01:00:00,CNUNDAWF,20.12,Canunda Power Pty Ltd,Canunda Wind Farm,Wind,46.0,43.74,Canunda Wind Farm,-37.73,140.39,2026-02-17T14:57:59.152480
2026/02/18 01:00:00,COLWF01,68.78,Collector Wind Farm Pty Ltd,Collector Wind Farm 1,Wind,219.0,31.41,Collector Wind Farm 1,-34.8719,149.3967,2026-02-17T14:57:59.152480
2026/02/18 01:00:00,COOPGWF1,212.94,PARF Company 10 Pty Limited as The Trustee for Coopers Gap Project Trust,Coopers Gap Wind Farm,Wind,440.0,48.4,Coopers Gap Wind Farm,-26.74,151.45,2026-02-17T14:57:59.152480
2026/02/18 01:00:00,CROOKWF2,80.2,Crookwell Development Pty Ltd ,Crookwell 2 Wind Farm,Wind,91.0,88.13,Crookwell 2 Wind Farm,-34.52,149.54,2026-02-17T14:57:59.152480
2026/02/18 01:00:00,CROOKWF3,46.15,Crookwell 3 Development Pty Ltd,Crookwell 3 Wind Farm,Wind,56.0,82.41,Crookwell 3 Wind Farm,-34.52,149.54,2026-02-17T14:57:59.152480
2026/02/18 01:00:00,CROWLWF1,50.35,Pacific Hydro Crowlands Pty Ltd ,Crowlands Wind Farm,Wind,79.0,63.73,Crowlands Wind Farm,-37.13,143.16,2026-02-17T14:57:59.152480
2026/02/18 01:00:00,CRURWF1,76.7,CRWF Nominees Pty Ltd As Trustee For The CRWF Trust,Crudine Ridge Wind Farm,Wind,138.0,55.58,Crudine Ridge Wind Farm,-32.97,149.64,2026-02-17T14:57:59.152480
2026/02/18 01:00:00,CTHLWF1,113.0,Wild Cattle Hill Pty Ltd,Cattle Hill Wind Farm,Wind,144.0,78.47,Cattle Hill Wind Farm,-42.15,146.69,2026-02-17T14:57:59.152480
2026/02/18 01:00:00,DULAWF1,142.7,Dulacca Energy Project Co Pty Ltd,Dulacca Wind Farm,Wind,173.0,82.49,Dulacca Wind Farm,-26.63,149.87,2026-02-17T14:57:59.152480
2026/02/18 01:00:00,DUNDWF1,41.6,Dundonnell Wind Farm Pty Ltd,Dundonnell Wind Farm,Wind,168.0,24.76,Dundonnell Wind Farm,-37.52,142.58,2026-02-17T14:57:59.152480
2026/02/18 01:00:00,DUNDWF2,9.7,Dundonnell Wind Farm Pty Ltd,Dundonnell Wind Farm,Wind,46.0,21.09,Dundonnell Wind Farm,-37.52,142.58,2026-02-17T14:57:59.152480
2026/02/18 01:00:00,DUNDWF3,51.03,Dundonnell Wind Farm Pty Ltd,Dundonnell Wind Farm,Wind,122.0,41.83,Dundonnell Wind Farm,-37.52,142.58,2026-02-17T14:57:59.152480
2026/02/18 01:00:00,ELAINWF1,29.66,Lal Lal Wind Farms Nom Co Pty Ltd,Elaine Wind Farm,Wind,82.0,36.17,Elaine Wind Farm,-37.36,144.0,2026-02-17T14:57:59.152480
2026/02/18 01:00:00,FLYCRKWF,36.69,Iberdrola Australia Energy Markets Pty Limited,Flyers Creek Wind Farm,Wind,140.0,26.21,Flyers Creek Wind Farm,-33.365556,148.981944,2026-02-17T14:57:59.152480
2026/02/18 01:00:00,GPWFEST1,98.97,Golden Plains WF1 Pty Ltd as Trustee for the Golden Plains WF1 Unit Trust,Golden Plains Wind Farm East,Wind,240.0,41.24,Golden Plains Wind Farm East,-37.945091,143.752614,2026-02-17T14:57:59.152480
2026/02/18 01:00:00,GPWFEST2,55.67,Golden Plains WF1 Pty Ltd as Trustee for the Golden Plains WF1 Unit Trust,Golden Plains Wind Farm East,Wind,253.0,22.0,Golden Plains Wind Farm East,-37.945091,143.752614,2026-02-17T14:57:59.152480
2026/02/18 01:00:00,GPWFEST3,72.98,Golden Plains WF1 Pty Ltd as Trustee for the Golden Plains WF1 Unit Trust,Golden Plains Wind Farm East,Wind,240.0,30.41,Golden Plains Wind Farm East,-37.945091,143.752614,2026-02-17T14:57:59.152480
2026/02/18 01:00:00,GRANWF1,0.0,Granville Harbour Operations Pty Ltd as The Trustee for Granville Harbour Operations Trust,Granville Harbour Wind Farm,Wind,111.0,0.0,Granville Harbour Wind Farm,-41.8,145.06,2026-02-17T14:57:59.152480
2026/02/18 01:00:00,GSWF1A,10.8,Goyder Wind Farm 1 Pty Ltd as the Trustee for Goyder Wind Farm 1 Trust,Goyder South Wind Farm 1A,Wind,201.0,5.37,Goyder South Wind Farm 1A,-33.679758,138.937597,2026-02-17T14:57:59.152480
2026/02/18 01:00:00,GSWF1B1,4.74,Goyder Wind Farm 1B Pty Ltd as the Trustee for the Goyder Wind Farm 1B Trust,Goyder South Wind Farm 1B,Wind,196.0,2.42,Goyder South Wind Farm 1B,-33.679758,138.937597,2026-02-17T14:57:59.152480
2026/02/18 01:00:00,GULLRWF1,95.14,New Gullen Range Wind Farm Pty Ltd,Gullen Range Wind Farm,Wind,161.0,59.09,Gullen Range Wind Farm,-34.34,149.27,2026-02-17T14:57:59.152480
2026/02/18 01:00:00,GULLRWF2,95.47,New Gullen Range Wind Farm Pty Ltd,Gullen Range Wind Farm,Wind,107.0,89.22,Gullen Range Wind Farm,-34.34,149.27,2026-02-17T14:57:59.152480
2026/02/18 01:00:00,GUNNING1,42.47,Gunning Wind Energy Developments Pty Ltd,Gunning Wind Farm,Wind,47.0,90.36,Gunning Wind Farm,-34.813333,149.4,2026-02-17T14:57:59.152480
2026/02/18 01:00:00,HALLWF1,8.32,AGL SA Generation Pty Limited,Hallett 1 Wind Farm,Wind,95.0,8.76,Hallett 1 Wind Farm,-33.367778,138.728611,2026-02-17T14:57:59.152480
2026/02/18 01:00:00,HALLWF2,2.96,AGL SA Generation Pty Limited,Hallett 2 Wind Farm,Wind,71.0,4.17,Hallett 2 Wind Farm,-33.367778,138.728611,2026-02-17T14:57:59.152480
2026/02/18 01:00:00,HD1WF1,42.36,Hawkesdale Asset Pty Ltd as trustee for Hawkesdale Asset Trust,Hawkesdale Wind Farm,Wind,89.0,47.6,Hawkesdale Wind Farm,-38.147894,142.361381,2026-02-17T14:57:59.152480
2026/02/18 01:00:00,HDWF1,18.8,HWF1 Pty Ltd,Hornsdale Wind Farm,Wind,102.0,18.43,Hornsdale Wind Farm,-33.050556,138.543611,2026-02-17T14:57:59.152480
2026/02/18 01:00:00,HDWF2,15.0,HWF 2 Pty Ltd,Hornsdale Wind Farm 2,Wind,102.0,14.71,Hornsdale Wind Farm 2,-33.06,138.54,2026-02-17T14:57:59.152480
2026/02/18 01:00:00,HDWF3,12.8,HWF3 Pty Ltd,Hornsdale Wind Farm 3,Wind,109.0,11.74,Hornsdale Wind Farm 3,-33.06,138.54,2026-02-17T14:57:59.152480
2026/02/18 01:00:00,KABANWF1,1.95,Kaban Wind Farm Pty Ltd as trustee for Kaban Wind Farm Trust,Kaban Wind Farm,Wind,152.0,1.28,Kaban Wind Farm,-17.56,145.41,2026-02-17T14:57:59.152480
2026/02/18 01:00:00,KEPWF1,0.0,Kennedy Energy Park Pty Ltd,Kennedy Energy Park,Wind,43.0,0.0,Kennedy Energy Park,-20.88,144.42,2026-02-17T14:57:59.152480
2026/02/18 01:00:00,KIATAWF1,23.2,Kiata ProjectCo Pty Ltd Atf Kiata Project Trust,Kiata Wind Farm,Wind,31.0,74.84,Kiata Wind Farm,-36.4,141.75,2026-02-17T14:57:59.152480
2026/02/18 01:00:00,LGAPWF1,61.11,Lincoln Gap Wind Farm (Operations) Pty Ltd,Lincoln Gap Wind Farm,Wind,123.0,49.68,Lincoln Gap Wind Farm,-32.564279,137.557328,2026-02-17T14:57:59.152480
2026/02/18 01:00:00,LGAPWF1,61.11,Lincoln Gap Wind Farm (Operations) Pty Ltd,Lincoln Gap Wind Farm,Wind,123.0,49.68,Lincoln Gap Wind Farm,-32.564279,137.557328,2026-02-17T14:57:59.152480
2026/02/18 01:00:00,LGAPWF2,54.4,Lincoln Gap Wind Farm (Operations) Pty Ltd,Lincoln Gap Wind Farm,Wind,85.0,64.0,Lincoln Gap Wind Farm,-32.564279,137.557328,2026-02-17T14:57:59.152480
2026/02/18 01:00:00,LGAPWF2,54.4,Lincoln Gap Wind Farm (Operations) Pty Ltd,Lincoln Gap Wind Farm,Wind,85.0,64.0,Lincoln Gap Wind Farm,-32.564279,137.557328,2026-02-17T14:57:59.152480
2026/02/18 01:00:00,LKBONNY1,15.09,Lake Bonney Wind Power Pty Ltd,Lake Bonney Wind Farm Stage 1,Wind,81.0,18.63,Lake Bonney Wind Farm Stage 1,-37.76,140.4,2026-02-17T14:57:59.152480
2026/02/18 01:00:00,LKBONNY2,69.79,Lake Bonney Wind Power Pty Ltd,Lake Bonney Stage 2 Windfarm,Wind,159.0,43.89,Lake Bonney Stage 2 Windfarm,-37.76,140.4,2026-02-17T14:57:59.152480
2026/02/18 01:00:00,LKBONNY3,16.3,Lake Bonney Wind Power Pty Ltd,Lake Bonney Stage 3 Wind Farm,Wind,39.0,41.79,Lake Bonney Stage 3 Wind Farm,-37.737781,140.388137,2026-02-17T14:57:59.152480
2026/02/18 01:00:00,MACARTH1,59.4,AGL Hydro Partnership,Macarthur Wind Farm,Wind,420.0,14.14,Macarthur Wind Farm,-38.048957,142.192112,2026-02-17T14:57:59.152480
2026/02/18 01:00:00,MCINTYR1,253.22,MacIntyre UJV Operator Pty Ltd,MacIntyre Wind Farm,Wind,890.0,28.45,MacIntyre Wind Farm,-28.32,151.54,2026-02-17T14:57:59.152480
2026/02/18 01:00:00,MERCER01,36.0,Mt Mercer Windfarm Pty Ltd,Mt Mercer Wind Farm,Wind,131.0,27.48,Mt Mercer Wind Farm,-37.841111,143.871111,2026-02-17T14:57:59.152480
2026/02/18 01:00:00,MEWF1,0.0,Ergon Energy Queensland Pty Ltd ,Mount Emerald Wind Farm,Wind,178.0,0.0,Mount Emerald Wind Farm,-17.133007,145.380644,2026-02-17T14:57:59.152480
2026/02/18 01:00:00,MRTLSWF1,70.93,Mortlake South Wind Farm Pty Ltd,Mortlake South Wind Farm,Wind,153.0,46.36,Mortlake South Wind Farm,-38.127337,142.857801,2026-02-17T14:57:59.152480
2026/02/18 01:00:00,MTGELWF1,33.9,Mt. Gellibrand Wind Farm Pty Ltd,Mt Gellibrand Wind Farm,Wind,132.0,25.68,Mt Gellibrand Wind Farm,-38.23,143.77,2026-02-17T14:57:59.152480
2026/02/18 01:00:00,MTMILLAR,22.5,Mt Millar Wind Farm Pty Ltd,Mt Millar Wind Farm,Wind,70.0,32.14,Mt Millar Wind Farm,-33.624444,136.703611,2026-02-17T14:57:59.152480
2026/02/18 01:00:00,MUSSELR1,151.4,Hydro-Electric Corporation,Musselroe Wind Farm,Wind,168.0,90.12,Musselroe Wind Farm,-40.780225,148.010799,2026-02-17T14:57:59.152480
2026/02/18 01:00:00,MUWAWF1,175.81,Telstra Energy (Generation) Pty Ltd,Murra Warra Wind Farm,Wind,225.7,77.9,Murra Warra Wind Farm,-36.432404,142.317853,2026-02-17T14:57:59.152480
2026/02/18 01:00:00,MUWAWF2,175.6,Murra Warra II Project Co Pty Ltd ATF The Murra Warra II Project Trust,Murra Warra Wind Farm Stage 2,Wind,203.0,86.5,Murra Warra Wind Farm Stage 2,-36.43,142.32,2026-02-17T14:57:59.152480
2026/02/18 01:00:00,NBHWF1,14.3,AGL SA Generation Pty Limited,North Brown Hill Wind Farm,Wind,132.0,10.83,North Brown Hill Wind Farm,-33.367778,138.728611,2026-02-17T14:57:59.152480
2026/02/18 01:00:00,OAKLAND1,18.9,AGL Hydro Partnership,Oaklands Hill Wind Farm,Wind,63.0,30.0,Oaklands Hill Wind Farm,-37.683078,142.551678,2026-02-17T14:57:59.152480
2026/02/18 01:00:00,PAREPW1,185.48,Iberdrola Australia Energy Markets Pty Limited,Port Augusta Renewable Energy Park,Wind,201.0,92.28,Port Augusta Renewable Energy Park,-32.566944,137.856111,2026-02-17T14:57:59.152480
2026/02/18 01:00:00,RYANCWF1,45.5,Ryan Corner Development Pty Ltd,Ryan Corner Wind Farm,Wind,205.0,22.2,Ryan Corner Wind Farm,-38.271017,142.140647,2026-02-17T14:57:59.152480
2026/02/18 01:00:00,RYEPARK1,267.32,Rye Park Renewable Energy Pty Ltd as trustee for Rye Park Wind Farm Trust,Rye Park Renewable Energy,Wind,384.0,69.61,Rye Park Renewable Energy,-32.138333,148.972778,2026-02-17T14:57:59.152480
2026/02/18 01:00:00,SALTCRK1,17.76,Salt Creek Wind Farm Pty Ltd,Salt Creek Wind Farm,Wind,54.0,32.89,Salt Creek Wind Farm,-37.95,142.63,2026-02-17T14:57:59.152480
2026/02/18 01:00:00,SAPHWF1,77.51,The Trustee For The SWF1 Operations Trust,Sapphire Wind Farm,Wind,270.0,28.71,Sapphire Wind Farm,-29.7,151.41,2026-02-17T14:57:59.152480
2026/02/18 01:00:00,SNOWNTH1,39.6,Snowtown Wind Farm Stage 2 Pty Ltd,Snowtown Wind Farm Stage 2 North,Wind,144.0,27.5,Snowtown Wind Farm Stage 2 North,-33.83,138.118611,2026-02-17T14:57:59.152480
2026/02/18 01:00:00,SNOWSTH1,34.4,Snowtown Wind Farm Stage 2 Pty Ltd,Snowtown South Wind Farm,Wind,126.0,27.3,Snowtown South Wind Farm,-33.83,138.118611,2026-02-17T14:57:59.152480
2026/02/18 01:00:00,SNOWTWN1,28.22,Snowtown Wind Farm Pty Ltd,Snowtown Wind Farm Units 1 And 47,Wind,99.0,28.51,Snowtown Wind Farm Units 1 And 47,-33.83,138.118611,2026-02-17T14:57:59.152480
2026/02/18 01:00:00,STARHLWF,4.0,Starfish Hill Wind Farm Pty Ltd,Starfish Hill Wind Farm,Wind,35.0,11.43,Starfish Hill Wind Farm,-35.58,138.14,2026-02-17T14:57:59.152480
2026/02/18 01:00:00,STOCKYD1,226.2,Stockyard Hill Wind Farm Pty Ltd,Stockyard Hill Wind Farm,Wind,511.0,44.27,Stockyard Hill Wind Farm,-37.535833,143.251389,2026-02-17T14:57:59.152480
2026/02/18 01:00:00,STWF1,125.22,PARF Company 8 Pty Ltd as The Trustee for Silverton Project Trust,Silverton Wind Farm,Wind,198.0,63.24,Silverton Wind Farm,-37.683168,142.551678,2026-02-17T14:57:59.152480
2026/02/18 01:00:00,TARALGA1,0.0,Taralga Wind Farm Nominees No 2 Pty Ltd (ATF Taralga Wind Farm Operating Trust),Taralga Wind Farm,Wind,106.0,0.0,Taralga Wind Farm,-34.42352,149.826267,2026-02-17T14:57:59.152480
2026/02/18 01:00:00,WAMBOWF1,142.66,Stanwell Corporation Limited,Wambo Wind Farm 1,Wind,245.0,58.23,Wambo Wind Farm 1,-35.187301,149.524945,2026-02-17T14:57:59.152480
2026/02/18 01:00:00,WATERLWF,5.8,Waterloo Wind Farm Pty Ltd,Waterloo Wind Farm,Wind,130.0,4.46,Waterloo Wind Farm,-34.00094,138.911567,2026-02-17T14:57:59.152480
2026/02/18 01:00:00,WGWF1,0.0,Willogoleche Power Pty Ltd As The Trustee For The Willogoleche Operating Trust,Willogoleche Wind Farm,Wind,119.0,0.0,Willogoleche Wind Farm,-33.39,138.85,2026-02-17T14:57:59.152480
2026/02/18 01:00:00,WOODLWN1,41.25,Woodlawn Wind Pty Ltd,Woodlawn Wind Farm,Wind,48.0,85.94,Woodlawn Wind Farm,-35.08,149.62,2026-02-17T14:57:59.152480
2026/02/18 01:00:00,WPWF,18.17,AGL SA Generation Pty Limited,Wattle Point Wind Farm,Wind,91.0,19.97,Wattle Point Wind Farm,-35.111624,137.7219,2026-02-17T14:57:59.152480
2026/02/18 01:00:00,WRWF1,18.96,White Rock Wind Farm Pty Ltd,White Rock Wind Farm,Wind,172.0,11.02,White Rock Wind Farm,-29.79,151.54,2026-02-17T14:57:59.152480
2026/02/18 01:00:00,YENDWF1,30.63,Lal Lal Wind Farms Nom Co Pty Ltd,Yendon Wind Farm,Wind,142.0,21.57,Yendon Wind Farm,-37.629987,144.022717,2026-02-17T14:57:59.152480
