SETTLEMENTDATE,DUID,SCADAVALUE,Participant,Station Name,Fuel Source - Primary,MAX_CAP,utilisation_pct,Plant,Latitude,Longitude,timestamp_utc
2026/03/02 07:50:00,CAPTL_WF,0.0,Iberdrola Australia Holdings Pty Limited,Capital Wind Farm,Wind,140.0,0.0,Capital Wind Farm,-35.1,149.31,2026-03-01T21:50:46.718955
2026/03/02 07:50:00,CHALLHWF,0.0,Pacific Hydro Challicum Hills Pty Ltd,Challicum Hills Wind Farm,Wind,52.0,0.0,Challicum Hills Wind Farm,-37.38,143.11,2026-03-01T21:50:46.718955
2026/03/02 07:50:00,CULLRGWF,0.0,Cullerin Range Wind Farm Pty Ltd,Cullerin Range Wind Farm,Wind,30.0,0.0,Cullerin Range Wind Farm,-34.81,149.4,2026-03-01T21:50:46.718955
2026/03/02 07:50:00,DIAPURWF1,8.3,Y.E.S. Energy (SA) Pty Ltd,Diapur Wind Farm,Wind,7.0,118.57,Diapur Wind Farm,-36.3425,141.43,2026-03-01T21:50:46.718955
2026/03/02 07:50:00,MLWF1,5.5,Mortons Lane Windfarm Pty Limited,Mortons Lane Wind Farm,Wind,20.0,27.5,Mortons Lane Wind Farm,-37.84,142.45,2026-03-01T21:50:46.718955
2026/03/02 07:50:00,WAUBRAWF,60.47,Pyrenees Wind Energy Developments Pty Ltd,Waubra Wind Farm,Wind,192.0,31.49,Waubra Wind Farm,-37.394498,143.638982,2026-03-01T21:50:46.718955
2026/03/02 07:50:00,WOOLNTH1,14.43,Hydro-Electric Corporation,Woolnorth Studland Bay / Bluff Point Wind Farm,Wind,140.0,10.31,Woolnorth Studland Bay / Bluff Point Wind Farm,-40.69,144.72,2026-03-01T21:50:46.718955
2026/03/02 07:50:00,YAMBUKWF,11.5,Energy Pacific (Vic) Pty Ltd,Yambuk Wind Farm,Wind,30.0,38.33,Yambuk Wind Farm,-38.299083,142.027577,2026-03-01T21:50:46.718955
2026/03/02 07:50:00,YSWF1,1.6,Pacific Hydro Yaloak South Pty Ltd,Yaloak South Wind Farm,Wind,28.0,5.71,Yaloak South Wind Farm,-37.7163,144.242853,2026-03-01T21:50:46.718955
2026/03/02 07:50:00,ARWF1,4.2,Ararat Wind Farm Pty Ltd,Ararat Wind Farm,Wind,241.0,1.74,Ararat Wind Farm,-37.232778,143.031389,2026-03-01T21:50:46.718955
2026/03/02 07:50:00,BALDHWF1,0.98,Alinta Energy Retail Sales Pty Ltd,Bald Hills Wind Farm,Wind,106.0,0.92,Bald Hills Wind Farm,-38.79,145.93,2026-03-01T21:50:46.718955
2026/03/02 07:50:00,BANGOWF1,13.4,BWF Nominees Pty Ltd as The Trustee for BWF Trust,Bango 973 Wind Farm,Wind,155.0,8.65,Bango 973 Wind Farm,-34.551582,148.732808,2026-03-01T21:50:46.718955
2026/03/02 07:50:00,BANGOWF2,12.1,BWF Nominees Pty Ltd as The Trustee for BWF Trust,Bango 999 Wind Farm,Wind,82.0,14.76,Bango 999 Wind Farm,-34.551582,148.732808,2026-03-01T21:50:46.718955
2026/03/02 07:50:00,BLUFF1,27.3,AGL SA Generation Pty Limited,The Bluff Wind Farm,Wind,53.0,51.51,The Bluff Wind Farm,-33.367778,138.728611,2026-03-01T21:50:46.718955
2026/03/02 07:50:00,BOCORWF1,97.89,Boco Rock Wind Farm Pty Ltd,Boco Rock Wind Farm,Wind,111.0,88.19,Boco Rock Wind Farm,-36.578611,149.103333,2026-03-01T21:50:46.718955
2026/03/02 07:50:00,BRYB1WF1,15.46,Berrybank Development Pty Ltd,Berrybank Wind Farm,Wind,175.9,8.79,Berrybank Wind Farm,-37.94,143.52,2026-03-01T21:50:46.718955
2026/03/02 07:50:00,BRYB2WF2,7.99,Berrybank 2 Asset Pty Ltd as trustee for Berrybank 2 Asset Trust,Berrybank 2 Wind Farm,Wind,105.0,7.61,Berrybank 2 Wind Farm,-37.94,143.52,2026-03-01T21:50:46.718955
2026/03/02 07:50:00,BULGANA1,4.93,Bulgana Wind Farm Pty Ltd,Bulgana Green Power Hub,Wind,204.0,2.42,Bulgana Green Power Hub,-37.0975,142.973611,2026-03-01T21:50:46.718955
2026/03/02 07:50:00,CATHROCK,18.0,Cathedral Rocks Wind Farm Pty Ltd,Cathedral Rocks,Wind,66.0,27.27,Cathedral Rocks,-34.51,135.35,2026-03-01T21:50:46.718955
2026/03/02 07:50:00,CHYTWF1,27.62,Cherry Tree Wind Farm Pty Ltd as trustee for The Cherry Tree Project trust ,Cherry Tree Wind Farm,Wind,57.0,48.46,Cherry Tree Wind Farm,-37.1,145.26,2026-03-01T21:50:46.718955
2026/03/02 07:50:00,CLEMGPWF,34.72,Pacific Hydro Clements Gap Pty Ltd,Clements Gap Wind Farm,Wind,57.0,60.91,Clements Gap Wind Farm,-33.48,138.1,2026-03-01T21:50:46.718955
2026/03/02 07:50:00,CLRKCWF1,240.59,Stanwell Corporation Limited ,Clarke Creek Wind Farm,Wind,338.0,71.18,Clarke Creek Wind Farm,-22.85,149.45,2026-03-01T21:50:46.718955
2026/03/02 07:50:00,CLRKCWF2,73.57,Stanwell Corporation Limited ,Clarke Creek Wind Farm,Wind,101.0,72.84,Clarke Creek Wind Farm,-22.85,149.45,2026-03-01T21:50:46.718955
2026/03/02 07:50:00,CNUNDAWF,11.91,Canunda Power Pty Ltd,Canunda Wind Farm,Wind,46.0,25.89,Canunda Wind Farm,-37.73,140.39,2026-03-01T21:50:46.718955
2026/03/02 07:50:00,COLWF01,0.0,Collector Wind Farm Pty Ltd,Collector Wind Farm 1,Wind,219.0,0.0,Collector Wind Farm 1,-34.8719,149.3967,2026-03-01T21:50:46.718955
2026/03/02 07:50:00,COOPGWF1,296.84,PARF Company 10 Pty Limited as The Trustee for Coopers Gap Project Trust,Coopers Gap Wind Farm,Wind,440.0,67.46,Coopers Gap Wind Farm,-26.74,151.45,2026-03-01T21:50:46.718955
2026/03/02 07:50:00,CROOKWF2,11.63,Crookwell Development Pty Ltd ,Crookwell 2 Wind Farm,Wind,91.0,12.78,Crookwell 2 Wind Farm,-34.52,149.54,2026-03-01T21:50:46.718955
2026/03/02 07:50:00,CROOKWF3,12.49,Crookwell 3 Development Pty Ltd,Crookwell 3 Wind Farm,Wind,56.0,22.3,Crookwell 3 Wind Farm,-34.52,149.54,2026-03-01T21:50:46.718955
2026/03/02 07:50:00,CROWLWF1,17.8,Pacific Hydro Crowlands Pty Ltd ,Crowlands Wind Farm,Wind,79.0,22.53,Crowlands Wind Farm,-37.13,143.16,2026-03-01T21:50:46.718955
2026/03/02 07:50:00,CRURWF1,17.9,CRWF Nominees Pty Ltd As Trustee For The CRWF Trust,Crudine Ridge Wind Farm,Wind,138.0,12.97,Crudine Ridge Wind Farm,-32.97,149.64,2026-03-01T21:50:46.718955
2026/03/02 07:50:00,CTHLWF1,13.06,Wild Cattle Hill Pty Ltd,Cattle Hill Wind Farm,Wind,144.0,9.07,Cattle Hill Wind Farm,-42.15,146.69,2026-03-01T21:50:46.718955
2026/03/02 07:50:00,DULAWF1,101.5,Dulacca Energy Project Co Pty Ltd,Dulacca Wind Farm,Wind,173.0,58.67,Dulacca Wind Farm,-26.63,149.87,2026-03-01T21:50:46.718955
2026/03/02 07:50:00,DUNDWF1,23.51,Dundonnell Wind Farm Pty Ltd,Dundonnell Wind Farm,Wind,168.0,13.99,Dundonnell Wind Farm,-37.52,142.58,2026-03-01T21:50:46.718955
2026/03/02 07:50:00,DUNDWF2,8.89,Dundonnell Wind Farm Pty Ltd,Dundonnell Wind Farm,Wind,46.0,19.33,Dundonnell Wind Farm,-37.52,142.58,2026-03-01T21:50:46.718955
2026/03/02 07:50:00,DUNDWF3,28.87,Dundonnell Wind Farm Pty Ltd,Dundonnell Wind Farm,Wind,122.0,23.66,Dundonnell Wind Farm,-37.52,142.58,2026-03-01T21:50:46.718955
2026/03/02 07:50:00,ELAINWF1,21.65,Lal Lal Wind Farms Nom Co Pty Ltd,Elaine Wind Farm,Wind,82.0,26.4,Elaine Wind Farm,-37.36,144.0,2026-03-01T21:50:46.718955
2026/03/02 07:50:00,FLYCRKWF,38.95,Iberdrola Australia Energy Markets Pty Limited,Flyers Creek Wind Farm,Wind,140.0,27.82,Flyers Creek Wind Farm,-33.365556,148.981944,2026-03-01T21:50:46.718955
2026/03/02 07:50:00,GPWFEST1,16.74,Golden Plains WF1 Pty Ltd as Trustee for the Golden Plains WF1 Unit Trust,Golden Plains Wind Farm East,Wind,240.0,6.98,Golden Plains Wind Farm East,-37.945091,143.752614,2026-03-01T21:50:46.718955
2026/03/02 07:50:00,GPWFEST2,22.3,Golden Plains WF1 Pty Ltd as Trustee for the Golden Plains WF1 Unit Trust,Golden Plains Wind Farm East,Wind,253.0,8.81,Golden Plains Wind Farm East,-37.945091,143.752614,2026-03-01T21:50:46.718955
2026/03/02 07:50:00,GPWFEST3,22.94,Golden Plains WF1 Pty Ltd as Trustee for the Golden Plains WF1 Unit Trust,Golden Plains Wind Farm East,Wind,240.0,9.56,Golden Plains Wind Farm East,-37.945091,143.752614,2026-03-01T21:50:46.718955
2026/03/02 07:50:00,GRANWF1,10.62,Granville Harbour Operations Pty Ltd as The Trustee for Granville Harbour Operations Trust,Granville Harbour Wind Farm,Wind,111.0,9.57,Granville Harbour Wind Farm,-41.8,145.06,2026-03-01T21:50:46.718955
2026/03/02 07:50:00,GSWF1A,111.99,Goyder Wind Farm 1 Pty Ltd as the Trustee for Goyder Wind Farm 1 Trust,Goyder South Wind Farm 1A,Wind,201.0,55.72,Goyder South Wind Farm 1A,-33.679758,138.937597,2026-03-01T21:50:46.718955
2026/03/02 07:50:00,GSWF1B1,0.0,Goyder Wind Farm 1B Pty Ltd as the Trustee for the Goyder Wind Farm 1B Trust,Goyder South Wind Farm 1B,Wind,196.0,0.0,Goyder South Wind Farm 1B,-33.679758,138.937597,2026-03-01T21:50:46.718955
2026/03/02 07:50:00,GULLRWF1,22.95,New Gullen Range Wind Farm Pty Ltd,Gullen Range Wind Farm,Wind,161.0,14.25,Gullen Range Wind Farm,-34.34,149.27,2026-03-01T21:50:46.718955
2026/03/02 07:50:00,GULLRWF2,11.86,New Gullen Range Wind Farm Pty Ltd,Gullen Range Wind Farm,Wind,107.0,11.08,Gullen Range Wind Farm,-34.34,149.27,2026-03-01T21:50:46.718955
2026/03/02 07:50:00,GUNNING1,1.92,Gunning Wind Energy Developments Pty Ltd,Gunning Wind Farm,Wind,47.0,4.09,Gunning Wind Farm,-34.813333,149.4,2026-03-01T21:50:46.718955
2026/03/02 07:50:00,HALLWF1,74.78,AGL SA Generation Pty Limited,Hallett 1 Wind Farm,Wind,95.0,78.72,Hallett 1 Wind Farm,-33.367778,138.728611,2026-03-01T21:50:46.718955
2026/03/02 07:50:00,HALLWF2,51.64,AGL SA Generation Pty Limited,Hallett 2 Wind Farm,Wind,71.0,72.73,Hallett 2 Wind Farm,-33.367778,138.728611,2026-03-01T21:50:46.718955
2026/03/02 07:50:00,HD1WF1,46.63,Hawkesdale Asset Pty Ltd as trustee for Hawkesdale Asset Trust,Hawkesdale Wind Farm,Wind,89.0,52.39,Hawkesdale Wind Farm,-38.147894,142.361381,2026-03-01T21:50:46.718955
2026/03/02 07:50:00,HDWF1,50.2,HWF1 Pty Ltd,Hornsdale Wind Farm,Wind,102.0,49.22,Hornsdale Wind Farm,-33.050556,138.543611,2026-03-01T21:50:46.718955
2026/03/02 07:50:00,HDWF2,69.6,HWF 2 Pty Ltd,Hornsdale Wind Farm 2,Wind,102.0,68.24,Hornsdale Wind Farm 2,-33.06,138.54,2026-03-01T21:50:46.718955
2026/03/02 07:50:00,HDWF3,63.0,HWF3 Pty Ltd,Hornsdale Wind Farm 3,Wind,109.0,57.8,Hornsdale Wind Farm 3,-33.06,138.54,2026-03-01T21:50:46.718955
2026/03/02 07:50:00,KABANWF1,21.64,Kaban Wind Farm Pty Ltd as trustee for Kaban Wind Farm Trust,Kaban Wind Farm,Wind,152.0,14.24,Kaban Wind Farm,-17.56,145.41,2026-03-01T21:50:46.718955
2026/03/02 07:50:00,KEPWF1,38.8,Kennedy Energy Park Pty Ltd,Kennedy Energy Park,Wind,43.0,90.23,Kennedy Energy Park,-20.88,144.42,2026-03-01T21:50:46.718955
2026/03/02 07:50:00,KIATAWF1,6.3,Kiata ProjectCo Pty Ltd Atf Kiata Project Trust,Kiata Wind Farm,Wind,31.0,20.32,Kiata Wind Farm,-36.4,141.75,2026-03-01T21:50:46.718955
2026/03/02 07:50:00,LGAPWF1,42.16,Lincoln Gap Wind Farm (Operations) Pty Ltd,Lincoln Gap Wind Farm,Wind,123.0,34.28,Lincoln Gap Wind Farm,-32.564279,137.557328,2026-03-01T21:50:46.718955
2026/03/02 07:50:00,LGAPWF1,42.16,Lincoln Gap Wind Farm (Operations) Pty Ltd,Lincoln Gap Wind Farm,Wind,123.0,34.28,Lincoln Gap Wind Farm,-32.564279,137.557328,2026-03-01T21:50:46.718955
2026/03/02 07:50:00,LGAPWF2,74.27,Lincoln Gap Wind Farm (Operations) Pty Ltd,Lincoln Gap Wind Farm,Wind,85.0,87.38,Lincoln Gap Wind Farm,-32.564279,137.557328,2026-03-01T21:50:46.718955
2026/03/02 07:50:00,LGAPWF2,74.27,Lincoln Gap Wind Farm (Operations) Pty Ltd,Lincoln Gap Wind Farm,Wind,85.0,87.38,Lincoln Gap Wind Farm,-32.564279,137.557328,2026-03-01T21:50:46.718955
2026/03/02 07:50:00,LKBONNY1,19.02,Lake Bonney Wind Power Pty Ltd,Lake Bonney Wind Farm Stage 1,Wind,81.0,23.48,Lake Bonney Wind Farm Stage 1,-37.76,140.4,2026-03-01T21:50:46.718955
2026/03/02 07:50:00,LKBONNY2,32.51,Lake Bonney Wind Power Pty Ltd,Lake Bonney Stage 2 Windfarm,Wind,159.0,20.45,Lake Bonney Stage 2 Windfarm,-37.76,140.4,2026-03-01T21:50:46.718955
2026/03/02 07:50:00,LKBONNY3,5.64,Lake Bonney Wind Power Pty Ltd,Lake Bonney Stage 3 Wind Farm,Wind,39.0,14.46,Lake Bonney Stage 3 Wind Farm,-37.737781,140.388137,2026-03-01T21:50:46.718955
2026/03/02 07:50:00,MACARTH1,121.1,AGL Hydro Partnership,Macarthur Wind Farm,Wind,420.0,28.83,Macarthur Wind Farm,-38.048957,142.192112,2026-03-01T21:50:46.718955
2026/03/02 07:50:00,MCINTYR1,322.24,MacIntyre UJV Operator Pty Ltd,MacIntyre Wind Farm,Wind,890.0,36.21,MacIntyre Wind Farm,-28.32,151.54,2026-03-01T21:50:46.718955
2026/03/02 07:50:00,MERCER01,51.6,Mt Mercer Windfarm Pty Ltd,Mt Mercer Wind Farm,Wind,131.0,39.39,Mt Mercer Wind Farm,-37.841111,143.871111,2026-03-01T21:50:46.718955
2026/03/02 07:50:00,MEWF1,27.07,Ergon Energy Queensland Pty Ltd ,Mount Emerald Wind Farm,Wind,178.0,15.21,Mount Emerald Wind Farm,-17.133007,145.380644,2026-03-01T21:50:46.718955
2026/03/02 07:50:00,MRTLSWF1,59.17,Mortlake South Wind Farm Pty Ltd,Mortlake South Wind Farm,Wind,153.0,38.67,Mortlake South Wind Farm,-38.127337,142.857801,2026-03-01T21:50:46.718955
2026/03/02 07:50:00,MTGELWF1,3.6,Mt. Gellibrand Wind Farm Pty Ltd,Mt Gellibrand Wind Farm,Wind,132.0,2.73,Mt Gellibrand Wind Farm,-38.23,143.77,2026-03-01T21:50:46.718955
2026/03/02 07:50:00,MTMILLAR,36.9,Mt Millar Wind Farm Pty Ltd,Mt Millar Wind Farm,Wind,70.0,52.71,Mt Millar Wind Farm,-33.624444,136.703611,2026-03-01T21:50:46.718955
2026/03/02 07:50:00,MUSSELR1,24.7,Hydro-Electric Corporation,Musselroe Wind Farm,Wind,168.0,14.7,Musselroe Wind Farm,-40.780225,148.010799,2026-03-01T21:50:46.718955
2026/03/02 07:50:00,MUWAWF1,55.48,Telstra Energy (Generation) Pty Ltd,Murra Warra Wind Farm,Wind,225.7,24.58,Murra Warra Wind Farm,-36.432404,142.317853,2026-03-01T21:50:46.718955
2026/03/02 07:50:00,MUWAWF2,72.7,Murra Warra II Project Co Pty Ltd ATF The Murra Warra II Project Trust,Murra Warra Wind Farm Stage 2,Wind,203.0,35.81,Murra Warra Wind Farm Stage 2,-36.43,142.32,2026-03-01T21:50:46.718955
2026/03/02 07:50:00,NBHWF1,89.3,AGL SA Generation Pty Limited,North Brown Hill Wind Farm,Wind,132.0,67.65,North Brown Hill Wind Farm,-33.367778,138.728611,2026-03-01T21:50:46.718955
2026/03/02 07:50:00,OAKLAND1,28.0,AGL Hydro Partnership,Oaklands Hill Wind Farm,Wind,63.0,44.44,Oaklands Hill Wind Farm,-37.683078,142.551678,2026-03-01T21:50:46.718955
2026/03/02 07:50:00,PAREPW1,195.45,Iberdrola Australia Energy Markets Pty Limited,Port Augusta Renewable Energy Park,Wind,201.0,97.24,Port Augusta Renewable Energy Park,-32.566944,137.856111,2026-03-01T21:50:46.718955
2026/03/02 07:50:00,RYANCWF1,48.67,Ryan Corner Development Pty Ltd,Ryan Corner Wind Farm,Wind,205.0,23.74,Ryan Corner Wind Farm,-38.271017,142.140647,2026-03-01T21:50:46.718955
2026/03/02 07:50:00,RYEPARK1,49.3,Rye Park Renewable Energy Pty Ltd as trustee for Rye Park Wind Farm Trust,Rye Park Renewable Energy,Wind,384.0,12.84,Rye Park Renewable Energy,-32.138333,148.972778,2026-03-01T21:50:46.718955
2026/03/02 07:50:00,SALTCRK1,8.9,Salt Creek Wind Farm Pty Ltd,Salt Creek Wind Farm,Wind,54.0,16.48,Salt Creek Wind Farm,-37.95,142.63,2026-03-01T21:50:46.718955
2026/03/02 07:50:00,SAPHWF1,234.41,The Trustee For The SWF1 Operations Trust,Sapphire Wind Farm,Wind,270.0,86.82,Sapphire Wind Farm,-29.7,151.41,2026-03-01T21:50:46.718955
2026/03/02 07:50:00,SNOWNTH1,75.5,Snowtown Wind Farm Stage 2 Pty Ltd,Snowtown Wind Farm Stage 2 North,Wind,144.0,52.43,Snowtown Wind Farm Stage 2 North,-33.83,138.118611,2026-03-01T21:50:46.718955
2026/03/02 07:50:00,SNOWSTH1,46.4,Snowtown Wind Farm Stage 2 Pty Ltd,Snowtown South Wind Farm,Wind,126.0,36.83,Snowtown South Wind Farm,-33.83,138.118611,2026-03-01T21:50:46.718955
2026/03/02 07:50:00,SNOWTWN1,37.9,Snowtown Wind Farm Pty Ltd,Snowtown Wind Farm Units 1 And 47,Wind,99.0,38.28,Snowtown Wind Farm Units 1 And 47,-33.83,138.118611,2026-03-01T21:50:46.718955
2026/03/02 07:50:00,STARHLWF,20.39,Starfish Hill Wind Farm Pty Ltd,Starfish Hill Wind Farm,Wind,35.0,58.26,Starfish Hill Wind Farm,-35.58,138.14,2026-03-01T21:50:46.718955
2026/03/02 07:50:00,STOCKYD1,76.59,Stockyard Hill Wind Farm Pty Ltd,Stockyard Hill Wind Farm,Wind,511.0,14.99,Stockyard Hill Wind Farm,-37.535833,143.251389,2026-03-01T21:50:46.718955
2026/03/02 07:50:00,STWF1,27.44,PARF Company 8 Pty Ltd as The Trustee for Silverton Project Trust,Silverton Wind Farm,Wind,198.0,13.86,Silverton Wind Farm,-37.683168,142.551678,2026-03-01T21:50:46.718955
2026/03/02 07:50:00,TARALGA1,34.47,Taralga Wind Farm Nominees No 2 Pty Ltd (ATF Taralga Wind Farm Operating Trust),Taralga Wind Farm,Wind,106.0,32.52,Taralga Wind Farm,-34.42352,149.826267,2026-03-01T21:50:46.718955
2026/03/02 07:50:00,WAMBOWF1,179.8,Stanwell Corporation Limited,Wambo Wind Farm 1,Wind,245.0,73.39,Wambo Wind Farm 1,-35.187301,149.524945,2026-03-01T21:50:46.718955
2026/03/02 07:50:00,WATERLWF,57.9,Waterloo Wind Farm Pty Ltd,Waterloo Wind Farm,Wind,130.0,44.54,Waterloo Wind Farm,-34.00094,138.911567,2026-03-01T21:50:46.718955
2026/03/02 07:50:00,WGWF1,62.1,Willogoleche Power Pty Ltd As The Trustee For The Willogoleche Operating Trust,Willogoleche Wind Farm,Wind,119.0,52.18,Willogoleche Wind Farm,-33.39,138.85,2026-03-01T21:50:46.718955
2026/03/02 07:50:00,WOODLWN1,6.0,Woodlawn Wind Pty Ltd,Woodlawn Wind Farm,Wind,48.0,12.5,Woodlawn Wind Farm,-35.08,149.62,2026-03-01T21:50:46.718955
2026/03/02 07:50:00,WPWF,46.11,AGL SA Generation Pty Limited,Wattle Point Wind Farm,Wind,91.0,50.67,Wattle Point Wind Farm,-35.111624,137.7219,2026-03-01T21:50:46.718955
2026/03/02 07:50:00,WRWF1,109.92,White Rock Wind Farm Pty Ltd,White Rock Wind Farm,Wind,172.0,63.91,White Rock Wind Farm,-29.79,151.54,2026-03-01T21:50:46.718955
2026/03/02 07:50:00,YENDWF1,19.97,Lal Lal Wind Farms Nom Co Pty Ltd,Yendon Wind Farm,Wind,142.0,14.06,Yendon Wind Farm,-37.629987,144.022717,2026-03-01T21:50:46.718955
