SETTLEMENTDATE,DUID,SCADAVALUE,Participant,Station Name,Fuel Source - Primary,MAX_CAP,utilisation_pct,Plant,Latitude,Longitude,timestamp_utc
2026/03/28 18:05:00,CAPTL_WF,0.0,Iberdrola Australia Holdings Pty Limited,Capital Wind Farm,Wind,140.0,0.0,Capital Wind Farm,-35.1,149.31,2026-03-28T08:02:28.686978
2026/03/28 18:05:00,CHALLHWF,33.6,Pacific Hydro Challicum Hills Pty Ltd,Challicum Hills Wind Farm,Wind,52.0,64.62,Challicum Hills Wind Farm,-37.38,143.11,2026-03-28T08:02:28.686978
2026/03/28 18:05:00,CULLRGWF,-0.05,Cullerin Range Wind Farm Pty Ltd,Cullerin Range Wind Farm,Wind,30.0,-0.17,Cullerin Range Wind Farm,-34.81,149.4,2026-03-28T08:02:28.686978
2026/03/28 18:05:00,DIAPURWF1,1.9,Y.E.S. Energy (SA) Pty Ltd,Diapur Wind Farm,Wind,7.0,27.14,Diapur Wind Farm,-36.3425,141.43,2026-03-28T08:02:28.686978
2026/03/28 18:05:00,MLWF1,4.9,Mortons Lane Windfarm Pty Limited,Mortons Lane Wind Farm,Wind,20.0,24.5,Mortons Lane Wind Farm,-37.84,142.45,2026-03-28T08:02:28.686978
2026/03/28 18:05:00,WAUBRAWF,103.33,Pyrenees Wind Energy Developments Pty Ltd,Waubra Wind Farm,Wind,192.0,53.82,Waubra Wind Farm,-37.394498,143.638982,2026-03-28T08:02:28.686978
2026/03/28 18:05:00,WOOLNTH1,70.91,Hydro-Electric Corporation,Woolnorth Studland Bay / Bluff Point Wind Farm,Wind,140.0,50.65,Woolnorth Studland Bay / Bluff Point Wind Farm,-40.69,144.72,2026-03-28T08:02:28.686978
2026/03/28 18:05:00,YAMBUKWF,4.7,Energy Pacific (Vic) Pty Ltd,Yambuk Wind Farm,Wind,30.0,15.67,Yambuk Wind Farm,-38.299083,142.027577,2026-03-28T08:02:28.686978
2026/03/28 18:05:00,YSWF1,3.5,Pacific Hydro Yaloak South Pty Ltd,Yaloak South Wind Farm,Wind,28.0,12.5,Yaloak South Wind Farm,-37.7163,144.242853,2026-03-28T08:02:28.686978
2026/03/28 18:05:00,ARWF1,162.5,Ararat Wind Farm Pty Ltd,Ararat Wind Farm,Wind,241.0,67.43,Ararat Wind Farm,-37.232778,143.031389,2026-03-28T08:02:28.686978
2026/03/28 18:05:00,BALDHWF1,44.23,Alinta Energy Retail Sales Pty Ltd,Bald Hills Wind Farm,Wind,106.0,41.73,Bald Hills Wind Farm,-38.79,145.93,2026-03-28T08:02:28.686978
2026/03/28 18:05:00,BANGOWF1,9.6,BWF Nominees Pty Ltd as The Trustee for BWF Trust,Bango 973 Wind Farm,Wind,155.0,6.19,Bango 973 Wind Farm,-34.551582,148.732808,2026-03-28T08:02:28.686978
2026/03/28 18:05:00,BANGOWF2,2.7,BWF Nominees Pty Ltd as The Trustee for BWF Trust,Bango 999 Wind Farm,Wind,82.0,3.29,Bango 999 Wind Farm,-34.551582,148.732808,2026-03-28T08:02:28.686978
2026/03/28 18:05:00,BLUFF1,0.0,AGL SA Generation Pty Limited,The Bluff Wind Farm,Wind,53.0,0.0,The Bluff Wind Farm,-33.367778,138.728611,2026-03-28T08:02:28.686978
2026/03/28 18:05:00,BOCORWF1,58.12,Boco Rock Wind Farm Pty Ltd,Boco Rock Wind Farm,Wind,111.0,52.36,Boco Rock Wind Farm,-36.578611,149.103333,2026-03-28T08:02:28.686978
2026/03/28 18:05:00,BRYB1WF1,128.28,Berrybank Development Pty Ltd,Berrybank Wind Farm,Wind,175.9,72.93,Berrybank Wind Farm,-37.94,143.52,2026-03-28T08:02:28.686978
2026/03/28 18:05:00,BRYB2WF2,86.53,Berrybank 2 Asset Pty Ltd as trustee for Berrybank 2 Asset Trust,Berrybank 2 Wind Farm,Wind,105.0,82.41,Berrybank 2 Wind Farm,-37.94,143.52,2026-03-28T08:02:28.686978
2026/03/28 18:05:00,BULGANA1,112.44,Bulgana Wind Farm Pty Ltd,Bulgana Green Power Hub,Wind,204.0,55.12,Bulgana Green Power Hub,-37.0975,142.973611,2026-03-28T08:02:28.686978
2026/03/28 18:05:00,CATHROCK,8.3,Cathedral Rocks Wind Farm Pty Ltd,Cathedral Rocks,Wind,66.0,12.58,Cathedral Rocks,-34.51,135.35,2026-03-28T08:02:28.686978
2026/03/28 18:05:00,CHYTWF1,27.86,Cherry Tree Wind Farm Pty Ltd as trustee for The Cherry Tree Project trust ,Cherry Tree Wind Farm,Wind,57.0,48.88,Cherry Tree Wind Farm,-37.1,145.26,2026-03-28T08:02:28.686978
2026/03/28 18:05:00,CLEMGPWF,0.0,Pacific Hydro Clements Gap Pty Ltd,Clements Gap Wind Farm,Wind,57.0,0.0,Clements Gap Wind Farm,-33.48,138.1,2026-03-28T08:02:28.686978
2026/03/28 18:05:00,CLRKCWF1,2.28,Stanwell Corporation Limited ,Clarke Creek Wind Farm,Wind,338.0,0.67,Clarke Creek Wind Farm,-22.85,149.45,2026-03-28T08:02:28.686978
2026/03/28 18:05:00,CLRKCWF2,0.0,Stanwell Corporation Limited ,Clarke Creek Wind Farm,Wind,101.0,0.0,Clarke Creek Wind Farm,-22.85,149.45,2026-03-28T08:02:28.686978
2026/03/28 18:05:00,CNUNDAWF,3.1,Canunda Power Pty Ltd,Canunda Wind Farm,Wind,46.0,6.74,Canunda Wind Farm,-37.73,140.39,2026-03-28T08:02:28.686978
2026/03/28 18:05:00,COLWF01,0.0,Collector Wind Farm Pty Ltd,Collector Wind Farm 1,Wind,219.0,0.0,Collector Wind Farm 1,-34.8719,149.3967,2026-03-28T08:02:28.686978
2026/03/28 18:05:00,COOPGWF1,1.29,PARF Company 10 Pty Limited as The Trustee for Coopers Gap Project Trust,Coopers Gap Wind Farm,Wind,440.0,0.29,Coopers Gap Wind Farm,-26.74,151.45,2026-03-28T08:02:28.686978
2026/03/28 18:05:00,CROOKWF2,3.01,Crookwell Development Pty Ltd ,Crookwell 2 Wind Farm,Wind,91.0,3.31,Crookwell 2 Wind Farm,-34.52,149.54,2026-03-28T08:02:28.686978
2026/03/28 18:05:00,CROOKWF3,2.15,Crookwell 3 Development Pty Ltd,Crookwell 3 Wind Farm,Wind,56.0,3.84,Crookwell 3 Wind Farm,-34.52,149.54,2026-03-28T08:02:28.686978
2026/03/28 18:05:00,CROWLWF1,55.37,Pacific Hydro Crowlands Pty Ltd ,Crowlands Wind Farm,Wind,79.0,70.09,Crowlands Wind Farm,-37.13,143.16,2026-03-28T08:02:28.686978
2026/03/28 18:05:00,CRURWF1,4.2,CRWF Nominees Pty Ltd As Trustee For The CRWF Trust,Crudine Ridge Wind Farm,Wind,138.0,3.04,Crudine Ridge Wind Farm,-32.97,149.64,2026-03-28T08:02:28.686978
2026/03/28 18:05:00,CTHLWF1,38.13,Wild Cattle Hill Pty Ltd,Cattle Hill Wind Farm,Wind,144.0,26.48,Cattle Hill Wind Farm,-42.15,146.69,2026-03-28T08:02:28.686978
2026/03/28 18:05:00,DULAWF1,9.4,Dulacca Energy Project Co Pty Ltd,Dulacca Wind Farm,Wind,173.0,5.43,Dulacca Wind Farm,-26.63,149.87,2026-03-28T08:02:28.686978
2026/03/28 18:05:00,DUNDWF1,55.04,Dundonnell Wind Farm Pty Ltd,Dundonnell Wind Farm,Wind,168.0,32.76,Dundonnell Wind Farm,-37.52,142.58,2026-03-28T08:02:28.686978
2026/03/28 18:05:00,DUNDWF2,16.29,Dundonnell Wind Farm Pty Ltd,Dundonnell Wind Farm,Wind,46.0,35.41,Dundonnell Wind Farm,-37.52,142.58,2026-03-28T08:02:28.686978
2026/03/28 18:05:00,DUNDWF3,34.6,Dundonnell Wind Farm Pty Ltd,Dundonnell Wind Farm,Wind,122.0,28.36,Dundonnell Wind Farm,-37.52,142.58,2026-03-28T08:02:28.686978
2026/03/28 18:05:00,ELAINWF1,11.44,Lal Lal Wind Farms Nom Co Pty Ltd,Elaine Wind Farm,Wind,82.0,13.95,Elaine Wind Farm,-37.36,144.0,2026-03-28T08:02:28.686978
2026/03/28 18:05:00,FLYCRKWF,0.0,Iberdrola Australia Energy Markets Pty Limited,Flyers Creek Wind Farm,Wind,140.0,0.0,Flyers Creek Wind Farm,-33.365556,148.981944,2026-03-28T08:02:28.686978
2026/03/28 18:05:00,GPWFEST1,184.15,Golden Plains WF1 Pty Ltd as Trustee for the Golden Plains WF1 Unit Trust,Golden Plains Wind Farm East,Wind,240.0,76.73,Golden Plains Wind Farm East,-37.945091,143.752614,2026-03-28T08:02:28.686978
2026/03/28 18:05:00,GPWFEST2,96.49,Golden Plains WF1 Pty Ltd as Trustee for the Golden Plains WF1 Unit Trust,Golden Plains Wind Farm East,Wind,253.0,38.14,Golden Plains Wind Farm East,-37.945091,143.752614,2026-03-28T08:02:28.686978
2026/03/28 18:05:00,GPWFEST3,144.27,Golden Plains WF1 Pty Ltd as Trustee for the Golden Plains WF1 Unit Trust,Golden Plains Wind Farm East,Wind,240.0,60.11,Golden Plains Wind Farm East,-37.945091,143.752614,2026-03-28T08:02:28.686978
2026/03/28 18:05:00,GRANWF1,17.91,Granville Harbour Operations Pty Ltd as The Trustee for Granville Harbour Operations Trust,Granville Harbour Wind Farm,Wind,111.0,16.14,Granville Harbour Wind Farm,-41.8,145.06,2026-03-28T08:02:28.686978
2026/03/28 18:05:00,GSWF1A,12.76,Goyder Wind Farm 1 Pty Ltd as the Trustee for Goyder Wind Farm 1 Trust,Goyder South Wind Farm 1A,Wind,201.0,6.35,Goyder South Wind Farm 1A,-33.679758,138.937597,2026-03-28T08:02:28.686978
2026/03/28 18:05:00,GSWF1B1,7.3,Goyder Wind Farm 1B Pty Ltd as the Trustee for the Goyder Wind Farm 1B Trust,Goyder South Wind Farm 1B,Wind,196.0,3.72,Goyder South Wind Farm 1B,-33.679758,138.937597,2026-03-28T08:02:28.686978
2026/03/28 18:05:00,GULLRWF1,7.41,New Gullen Range Wind Farm Pty Ltd,Gullen Range Wind Farm,Wind,161.0,4.6,Gullen Range Wind Farm,-34.34,149.27,2026-03-28T08:02:28.686978
2026/03/28 18:05:00,GULLRWF2,2.97,New Gullen Range Wind Farm Pty Ltd,Gullen Range Wind Farm,Wind,107.0,2.78,Gullen Range Wind Farm,-34.34,149.27,2026-03-28T08:02:28.686978
2026/03/28 18:05:00,GUNNING1,0.68,Gunning Wind Energy Developments Pty Ltd,Gunning Wind Farm,Wind,47.0,1.45,Gunning Wind Farm,-34.813333,149.4,2026-03-28T08:02:28.686978
2026/03/28 18:05:00,HALLWF1,0.0,AGL SA Generation Pty Limited,Hallett 1 Wind Farm,Wind,95.0,0.0,Hallett 1 Wind Farm,-33.367778,138.728611,2026-03-28T08:02:28.686978
2026/03/28 18:05:00,HALLWF2,0.0,AGL SA Generation Pty Limited,Hallett 2 Wind Farm,Wind,71.0,0.0,Hallett 2 Wind Farm,-33.367778,138.728611,2026-03-28T08:02:28.686978
2026/03/28 18:05:00,HD1WF1,24.77,Hawkesdale Asset Pty Ltd as trustee for Hawkesdale Asset Trust,Hawkesdale Wind Farm,Wind,89.0,27.83,Hawkesdale Wind Farm,-38.147894,142.361381,2026-03-28T08:02:28.686978
2026/03/28 18:05:00,HDWF1,1.4,HWF1 Pty Ltd,Hornsdale Wind Farm,Wind,102.0,1.37,Hornsdale Wind Farm,-33.050556,138.543611,2026-03-28T08:02:28.686978
2026/03/28 18:05:00,HDWF2,6.0,HWF 2 Pty Ltd,Hornsdale Wind Farm 2,Wind,102.0,5.88,Hornsdale Wind Farm 2,-33.06,138.54,2026-03-28T08:02:28.686978
2026/03/28 18:05:00,HDWF3,3.6,HWF3 Pty Ltd,Hornsdale Wind Farm 3,Wind,109.0,3.3,Hornsdale Wind Farm 3,-33.06,138.54,2026-03-28T08:02:28.686978
2026/03/28 18:05:00,KABANWF1,32.97,Kaban Wind Farm Pty Ltd as trustee for Kaban Wind Farm Trust,Kaban Wind Farm,Wind,152.0,21.69,Kaban Wind Farm,-17.56,145.41,2026-03-28T08:02:28.686978
2026/03/28 18:05:00,KEPWF1,1.4,Kennedy Energy Park Pty Ltd,Kennedy Energy Park,Wind,43.0,3.26,Kennedy Energy Park,-20.88,144.42,2026-03-28T08:02:28.686978
2026/03/28 18:05:00,KIATAWF1,6.7,Kiata ProjectCo Pty Ltd Atf Kiata Project Trust,Kiata Wind Farm,Wind,31.0,21.61,Kiata Wind Farm,-36.4,141.75,2026-03-28T08:02:28.686978
2026/03/28 18:05:00,LGAPWF1,2.87,Lincoln Gap Wind Farm (Operations) Pty Ltd,Lincoln Gap Wind Farm,Wind,123.0,2.33,Lincoln Gap Wind Farm,-32.564279,137.557328,2026-03-28T08:02:28.686978
2026/03/28 18:05:00,LGAPWF1,2.87,Lincoln Gap Wind Farm (Operations) Pty Ltd,Lincoln Gap Wind Farm,Wind,123.0,2.33,Lincoln Gap Wind Farm,-32.564279,137.557328,2026-03-28T08:02:28.686978
2026/03/28 18:05:00,LGAPWF2,4.53,Lincoln Gap Wind Farm (Operations) Pty Ltd,Lincoln Gap Wind Farm,Wind,85.0,5.33,Lincoln Gap Wind Farm,-32.564279,137.557328,2026-03-28T08:02:28.686978
2026/03/28 18:05:00,LGAPWF2,4.53,Lincoln Gap Wind Farm (Operations) Pty Ltd,Lincoln Gap Wind Farm,Wind,85.0,5.33,Lincoln Gap Wind Farm,-32.564279,137.557328,2026-03-28T08:02:28.686978
2026/03/28 18:05:00,LKBONNY1,4.11,Lake Bonney Wind Power Pty Ltd,Lake Bonney Wind Farm Stage 1,Wind,81.0,5.07,Lake Bonney Wind Farm Stage 1,-37.76,140.4,2026-03-28T08:02:28.686978
2026/03/28 18:05:00,LKBONNY2,6.93,Lake Bonney Wind Power Pty Ltd,Lake Bonney Stage 2 Windfarm,Wind,159.0,4.36,Lake Bonney Stage 2 Windfarm,-37.76,140.4,2026-03-28T08:02:28.686978
2026/03/28 18:05:00,LKBONNY3,1.28,Lake Bonney Wind Power Pty Ltd,Lake Bonney Stage 3 Wind Farm,Wind,39.0,3.28,Lake Bonney Stage 3 Wind Farm,-37.737781,140.388137,2026-03-28T08:02:28.686978
2026/03/28 18:05:00,MACARTH1,52.5,AGL Hydro Partnership,Macarthur Wind Farm,Wind,420.0,12.5,Macarthur Wind Farm,-38.048957,142.192112,2026-03-28T08:02:28.686978
2026/03/28 18:05:00,MCINTYR1,22.51,MacIntyre UJV Operator Pty Ltd,MacIntyre Wind Farm,Wind,890.0,2.53,MacIntyre Wind Farm,-28.32,151.54,2026-03-28T08:02:28.686978
2026/03/28 18:05:00,MERCER01,57.4,Mt Mercer Windfarm Pty Ltd,Mt Mercer Wind Farm,Wind,131.0,43.82,Mt Mercer Wind Farm,-37.841111,143.871111,2026-03-28T08:02:28.686978
2026/03/28 18:05:00,MEWF1,63.91,Ergon Energy Queensland Pty Ltd ,Mount Emerald Wind Farm,Wind,178.0,35.9,Mount Emerald Wind Farm,-17.133007,145.380644,2026-03-28T08:02:28.686978
2026/03/28 18:05:00,MRTLSWF1,43.13,Mortlake South Wind Farm Pty Ltd,Mortlake South Wind Farm,Wind,153.0,28.19,Mortlake South Wind Farm,-38.127337,142.857801,2026-03-28T08:02:28.686978
2026/03/28 18:05:00,MTGELWF1,62.75,Mt. Gellibrand Wind Farm Pty Ltd,Mt Gellibrand Wind Farm,Wind,132.0,47.54,Mt Gellibrand Wind Farm,-38.23,143.77,2026-03-28T08:02:28.686978
2026/03/28 18:05:00,MTMILLAR,3.8,Mt Millar Wind Farm Pty Ltd,Mt Millar Wind Farm,Wind,70.0,5.43,Mt Millar Wind Farm,-33.624444,136.703611,2026-03-28T08:02:28.686978
2026/03/28 18:05:00,MUSSELR1,13.3,Hydro-Electric Corporation,Musselroe Wind Farm,Wind,168.0,7.92,Musselroe Wind Farm,-40.780225,148.010799,2026-03-28T08:02:28.686978
2026/03/28 18:05:00,MUWAWF1,65.31,Telstra Energy (Generation) Pty Ltd,Murra Warra Wind Farm,Wind,225.7,28.94,Murra Warra Wind Farm,-36.432404,142.317853,2026-03-28T08:02:28.686978
2026/03/28 18:05:00,MUWAWF2,81.7,Murra Warra II Project Co Pty Ltd ATF The Murra Warra II Project Trust,Murra Warra Wind Farm Stage 2,Wind,203.0,40.25,Murra Warra Wind Farm Stage 2,-36.43,142.32,2026-03-28T08:02:28.686978
2026/03/28 18:05:00,NBHWF1,0.4,AGL SA Generation Pty Limited,North Brown Hill Wind Farm,Wind,132.0,0.3,North Brown Hill Wind Farm,-33.367778,138.728611,2026-03-28T08:02:28.686978
2026/03/28 18:05:00,OAKLAND1,23.8,AGL Hydro Partnership,Oaklands Hill Wind Farm,Wind,63.0,37.78,Oaklands Hill Wind Farm,-37.683078,142.551678,2026-03-28T08:02:28.686978
2026/03/28 18:05:00,PAREPW1,69.59,Iberdrola Australia Energy Markets Pty Limited,Port Augusta Renewable Energy Park,Wind,201.0,34.62,Port Augusta Renewable Energy Park,-32.566944,137.856111,2026-03-28T08:02:28.686978
2026/03/28 18:05:00,RYANCWF1,23.33,Ryan Corner Development Pty Ltd,Ryan Corner Wind Farm,Wind,205.0,11.38,Ryan Corner Wind Farm,-38.271017,142.140647,2026-03-28T08:02:28.686978
2026/03/28 18:05:00,RYEPARK1,25.99,Rye Park Renewable Energy Pty Ltd as trustee for Rye Park Wind Farm Trust,Rye Park Renewable Energy,Wind,384.0,6.77,Rye Park Renewable Energy,-32.138333,148.972778,2026-03-28T08:02:28.686978
2026/03/28 18:05:00,SALTCRK1,20.0,Salt Creek Wind Farm Pty Ltd,Salt Creek Wind Farm,Wind,54.0,37.04,Salt Creek Wind Farm,-37.95,142.63,2026-03-28T08:02:28.686978
2026/03/28 18:05:00,SAPHWF1,51.6,The Trustee For The SWF1 Operations Trust,Sapphire Wind Farm,Wind,270.0,19.11,Sapphire Wind Farm,-29.7,151.41,2026-03-28T08:02:28.686978
2026/03/28 18:05:00,SNOWNTH1,2.9,Snowtown Wind Farm Stage 2 Pty Ltd,Snowtown Wind Farm Stage 2 North,Wind,144.0,2.01,Snowtown Wind Farm Stage 2 North,-33.83,138.118611,2026-03-28T08:02:28.686978
2026/03/28 18:05:00,SNOWSTH1,0.0,Snowtown Wind Farm Stage 2 Pty Ltd,Snowtown South Wind Farm,Wind,126.0,0.0,Snowtown South Wind Farm,-33.83,138.118611,2026-03-28T08:02:28.686978
2026/03/28 18:05:00,SNOWTWN1,0.0,Snowtown Wind Farm Pty Ltd,Snowtown Wind Farm Units 1 And 47,Wind,99.0,0.0,Snowtown Wind Farm Units 1 And 47,-33.83,138.118611,2026-03-28T08:02:28.686978
2026/03/28 18:05:00,STARHLWF,2.8,Starfish Hill Wind Farm Pty Ltd,Starfish Hill Wind Farm,Wind,35.0,8.0,Starfish Hill Wind Farm,-35.58,138.14,2026-03-28T08:02:28.686978
2026/03/28 18:05:00,STOCKYD1,434.8,Stockyard Hill Wind Farm Pty Ltd,Stockyard Hill Wind Farm,Wind,511.0,85.09,Stockyard Hill Wind Farm,-37.535833,143.251389,2026-03-28T08:02:28.686978
2026/03/28 18:05:00,STWF1,66.51,PARF Company 8 Pty Ltd as The Trustee for Silverton Project Trust,Silverton Wind Farm,Wind,198.0,33.59,Silverton Wind Farm,-37.683168,142.551678,2026-03-28T08:02:28.686978
2026/03/28 18:05:00,TARALGA1,1.67,Taralga Wind Farm Nominees No 2 Pty Ltd (ATF Taralga Wind Farm Operating Trust),Taralga Wind Farm,Wind,106.0,1.58,Taralga Wind Farm,-34.42352,149.826267,2026-03-28T08:02:28.686978
2026/03/28 18:05:00,WAMBOWF1,4.67,Stanwell Corporation Limited,Wambo Wind Farm 1,Wind,245.0,1.91,Wambo Wind Farm 1,-35.187301,149.524945,2026-03-28T08:02:28.686978
2026/03/28 18:05:00,WATERLWF,1.1,Waterloo Wind Farm Pty Ltd,Waterloo Wind Farm,Wind,130.0,0.85,Waterloo Wind Farm,-34.00094,138.911567,2026-03-28T08:02:28.686978
2026/03/28 18:05:00,WGWF1,4.1,Willogoleche Power Pty Ltd As The Trustee For The Willogoleche Operating Trust,Willogoleche Wind Farm,Wind,119.0,3.45,Willogoleche Wind Farm,-33.39,138.85,2026-03-28T08:02:28.686978
2026/03/28 18:05:00,WOODLWN1,4.45,Woodlawn Wind Pty Ltd,Woodlawn Wind Farm,Wind,48.0,9.27,Woodlawn Wind Farm,-35.08,149.62,2026-03-28T08:02:28.686978
2026/03/28 18:05:00,WPWF,26.39,AGL SA Generation Pty Limited,Wattle Point Wind Farm,Wind,91.0,29.0,Wattle Point Wind Farm,-35.111624,137.7219,2026-03-28T08:02:28.686978
2026/03/28 18:05:00,WRWF1,16.53,White Rock Wind Farm Pty Ltd,White Rock Wind Farm,Wind,172.0,9.61,White Rock Wind Farm,-29.79,151.54,2026-03-28T08:02:28.686978
2026/03/28 18:05:00,YENDWF1,9.64,Lal Lal Wind Farms Nom Co Pty Ltd,Yendon Wind Farm,Wind,142.0,6.79,Yendon Wind Farm,-37.629987,144.022717,2026-03-28T08:02:28.686978
