SETTLEMENTDATE,DUID,SCADAVALUE,Participant,Station Name,Fuel Source - Primary,MAX_CAP,utilisation_pct,Plant,Latitude,Longitude,timestamp_utc
2026/02/13 03:45:00,CAPTL_WF,27.72,Iberdrola Australia Holdings Pty Limited,Capital Wind Farm,Wind,140.0,19.8,Capital Wind Farm,-35.1,149.31,2026-02-12T17:44:46.435050
2026/02/13 03:45:00,CHALLHWF,21.3,Pacific Hydro Challicum Hills Pty Ltd,Challicum Hills Wind Farm,Wind,52.0,40.96,Challicum Hills Wind Farm,-37.38,143.11,2026-02-12T17:44:46.435050
2026/02/13 03:45:00,CULLRGWF,23.46,Cullerin Range Wind Farm Pty Ltd,Cullerin Range Wind Farm,Wind,30.0,78.2,Cullerin Range Wind Farm,-34.81,149.4,2026-02-12T17:44:46.435050
2026/02/13 03:45:00,DIAPURWF1,4.1,Y.E.S. Energy (SA) Pty Ltd,Diapur Wind Farm,Wind,7.0,58.57,Diapur Wind Farm,-36.3425,141.43,2026-02-12T17:44:46.435050
2026/02/13 03:45:00,MLWF1,1.52,Mortons Lane Windfarm Pty Limited,Mortons Lane Wind Farm,Wind,20.0,7.6,Mortons Lane Wind Farm,-37.84,142.45,2026-02-12T17:44:46.435050
2026/02/13 03:45:00,WAUBRAWF,72.06,Pyrenees Wind Energy Developments Pty Ltd,Waubra Wind Farm,Wind,192.0,37.53,Waubra Wind Farm,-37.394498,143.638982,2026-02-12T17:44:46.435050
2026/02/13 03:45:00,WOOLNTH1,60.12,Hydro-Electric Corporation,Woolnorth Studland Bay / Bluff Point Wind Farm,Wind,140.0,42.94,Woolnorth Studland Bay / Bluff Point Wind Farm,-40.69,144.72,2026-02-12T17:44:46.435050
2026/02/13 03:45:00,YAMBUKWF,6.2,Energy Pacific (Vic) Pty Ltd,Yambuk Wind Farm,Wind,30.0,20.67,Yambuk Wind Farm,-38.299083,142.027577,2026-02-12T17:44:46.435050
2026/02/13 03:45:00,YSWF1,8.4,Pacific Hydro Yaloak South Pty Ltd,Yaloak South Wind Farm,Wind,28.0,30.0,Yaloak South Wind Farm,-37.7163,144.242853,2026-02-12T17:44:46.435050
2026/02/13 03:45:00,ARWF1,49.9,Ararat Wind Farm Pty Ltd,Ararat Wind Farm,Wind,241.0,20.71,Ararat Wind Farm,-37.232778,143.031389,2026-02-12T17:44:46.435050
2026/02/13 03:45:00,BALDHWF1,0.0,Alinta Energy Retail Sales Pty Ltd,Bald Hills Wind Farm,Wind,106.0,0.0,Bald Hills Wind Farm,-38.79,145.93,2026-02-12T17:44:46.435050
2026/02/13 03:45:00,BANGOWF1,131.5,BWF Nominees Pty Ltd as The Trustee for BWF Trust,Bango 973 Wind Farm,Wind,155.0,84.84,Bango 973 Wind Farm,-34.551582,148.732808,2026-02-12T17:44:46.435050
2026/02/13 03:45:00,BANGOWF2,64.9,BWF Nominees Pty Ltd as The Trustee for BWF Trust,Bango 999 Wind Farm,Wind,82.0,79.15,Bango 999 Wind Farm,-34.551582,148.732808,2026-02-12T17:44:46.435050
2026/02/13 03:45:00,BLUFF1,45.6,AGL SA Generation Pty Limited,The Bluff Wind Farm,Wind,53.0,86.04,The Bluff Wind Farm,-33.367778,138.728611,2026-02-12T17:44:46.435050
2026/02/13 03:45:00,BOCORWF1,0.0,Boco Rock Wind Farm Pty Ltd,Boco Rock Wind Farm,Wind,111.0,0.0,Boco Rock Wind Farm,-36.578611,149.103333,2026-02-12T17:44:46.435050
2026/02/13 03:45:00,BRYB1WF1,22.35,Berrybank Development Pty Ltd,Berrybank Wind Farm,Wind,175.9,12.71,Berrybank Wind Farm,-37.94,143.52,2026-02-12T17:44:46.435050
2026/02/13 03:45:00,BRYB2WF2,16.4,Berrybank 2 Asset Pty Ltd as trustee for Berrybank 2 Asset Trust,Berrybank 2 Wind Farm,Wind,105.0,15.62,Berrybank 2 Wind Farm,-37.94,143.52,2026-02-12T17:44:46.435050
2026/02/13 03:45:00,BULGANA1,75.84,Bulgana Wind Farm Pty Ltd,Bulgana Green Power Hub,Wind,204.0,37.18,Bulgana Green Power Hub,-37.0975,142.973611,2026-02-12T17:44:46.435050
2026/02/13 03:45:00,CATHROCK,17.8,Cathedral Rocks Wind Farm Pty Ltd,Cathedral Rocks,Wind,66.0,26.97,Cathedral Rocks,-34.51,135.35,2026-02-12T17:44:46.435050
2026/02/13 03:45:00,CHYTWF1,52.58,Cherry Tree Wind Farm Pty Ltd as trustee for The Cherry Tree Project trust ,Cherry Tree Wind Farm,Wind,57.0,92.25,Cherry Tree Wind Farm,-37.1,145.26,2026-02-12T17:44:46.435050
2026/02/13 03:45:00,CLEMGPWF,53.09,Pacific Hydro Clements Gap Pty Ltd,Clements Gap Wind Farm,Wind,57.0,93.14,Clements Gap Wind Farm,-33.48,138.1,2026-02-12T17:44:46.435050
2026/02/13 03:45:00,CLRKCWF1,135.44,Stanwell Corporation Limited ,Clarke Creek Wind Farm,Wind,338.0,40.07,Clarke Creek Wind Farm,-22.85,149.45,2026-02-12T17:44:46.435050
2026/02/13 03:45:00,CLRKCWF2,33.31,Stanwell Corporation Limited ,Clarke Creek Wind Farm,Wind,101.0,32.98,Clarke Creek Wind Farm,-22.85,149.45,2026-02-12T17:44:46.435050
2026/02/13 03:45:00,CNUNDAWF,0.4,Canunda Power Pty Ltd,Canunda Wind Farm,Wind,46.0,0.87,Canunda Wind Farm,-37.73,140.39,2026-02-12T17:44:46.435050
2026/02/13 03:45:00,COLWF01,125.37,Collector Wind Farm Pty Ltd,Collector Wind Farm 1,Wind,219.0,57.25,Collector Wind Farm 1,-34.8719,149.3967,2026-02-12T17:44:46.435050
2026/02/13 03:45:00,COOPGWF1,0.0,PARF Company 10 Pty Limited as The Trustee for Coopers Gap Project Trust,Coopers Gap Wind Farm,Wind,440.0,0.0,Coopers Gap Wind Farm,-26.74,151.45,2026-02-12T17:44:46.435050
2026/02/13 03:45:00,CROOKWF2,50.92,Crookwell Development Pty Ltd ,Crookwell 2 Wind Farm,Wind,91.0,55.96,Crookwell 2 Wind Farm,-34.52,149.54,2026-02-12T17:44:46.435050
2026/02/13 03:45:00,CROOKWF3,22.21,Crookwell 3 Development Pty Ltd,Crookwell 3 Wind Farm,Wind,56.0,39.66,Crookwell 3 Wind Farm,-34.52,149.54,2026-02-12T17:44:46.435050
2026/02/13 03:45:00,CROWLWF1,12.9,Pacific Hydro Crowlands Pty Ltd ,Crowlands Wind Farm,Wind,79.0,16.33,Crowlands Wind Farm,-37.13,143.16,2026-02-12T17:44:46.435050
2026/02/13 03:45:00,CRURWF1,120.8,CRWF Nominees Pty Ltd As Trustee For The CRWF Trust,Crudine Ridge Wind Farm,Wind,138.0,87.54,Crudine Ridge Wind Farm,-32.97,149.64,2026-02-12T17:44:46.435050
2026/02/13 03:45:00,CTHLWF1,139.91,Wild Cattle Hill Pty Ltd,Cattle Hill Wind Farm,Wind,144.0,97.16,Cattle Hill Wind Farm,-42.15,146.69,2026-02-12T17:44:46.435050
2026/02/13 03:45:00,DULAWF1,0.0,Dulacca Energy Project Co Pty Ltd,Dulacca Wind Farm,Wind,173.0,0.0,Dulacca Wind Farm,-26.63,149.87,2026-02-12T17:44:46.435050
2026/02/13 03:45:00,DUNDWF1,24.57,Dundonnell Wind Farm Pty Ltd,Dundonnell Wind Farm,Wind,168.0,14.62,Dundonnell Wind Farm,-37.52,142.58,2026-02-12T17:44:46.435050
2026/02/13 03:45:00,DUNDWF2,11.2,Dundonnell Wind Farm Pty Ltd,Dundonnell Wind Farm,Wind,46.0,24.35,Dundonnell Wind Farm,-37.52,142.58,2026-02-12T17:44:46.435050
2026/02/13 03:45:00,DUNDWF3,20.52,Dundonnell Wind Farm Pty Ltd,Dundonnell Wind Farm,Wind,122.0,16.82,Dundonnell Wind Farm,-37.52,142.58,2026-02-12T17:44:46.435050
2026/02/13 03:45:00,ELAINWF1,16.96,Lal Lal Wind Farms Nom Co Pty Ltd,Elaine Wind Farm,Wind,82.0,20.68,Elaine Wind Farm,-37.36,144.0,2026-02-12T17:44:46.435050
2026/02/13 03:45:00,FLYCRKWF,64.32,Iberdrola Australia Energy Markets Pty Limited,Flyers Creek Wind Farm,Wind,140.0,45.94,Flyers Creek Wind Farm,-33.365556,148.981944,2026-02-12T17:44:46.435050
2026/02/13 03:45:00,GPWFEST1,56.01,Golden Plains WF1 Pty Ltd as Trustee for the Golden Plains WF1 Unit Trust,Golden Plains Wind Farm East,Wind,240.0,23.34,Golden Plains Wind Farm East,-37.945091,143.752614,2026-02-12T17:44:46.435050
2026/02/13 03:45:00,GPWFEST2,35.89,Golden Plains WF1 Pty Ltd as Trustee for the Golden Plains WF1 Unit Trust,Golden Plains Wind Farm East,Wind,253.0,14.19,Golden Plains Wind Farm East,-37.945091,143.752614,2026-02-12T17:44:46.435050
2026/02/13 03:45:00,GPWFEST3,34.27,Golden Plains WF1 Pty Ltd as Trustee for the Golden Plains WF1 Unit Trust,Golden Plains Wind Farm East,Wind,240.0,14.28,Golden Plains Wind Farm East,-37.945091,143.752614,2026-02-12T17:44:46.435050
2026/02/13 03:45:00,GRANWF1,21.29,Granville Harbour Operations Pty Ltd as The Trustee for Granville Harbour Operations Trust,Granville Harbour Wind Farm,Wind,111.0,19.18,Granville Harbour Wind Farm,-41.8,145.06,2026-02-12T17:44:46.435050
2026/02/13 03:45:00,GSWF1A,147.81,Goyder Wind Farm 1 Pty Ltd as the Trustee for Goyder Wind Farm 1 Trust,Goyder South Wind Farm 1A,Wind,201.0,73.54,Goyder South Wind Farm 1A,-33.679758,138.937597,2026-02-12T17:44:46.435050
2026/02/13 03:45:00,GSWF1B1,151.01,Goyder Wind Farm 1B Pty Ltd as the Trustee for the Goyder Wind Farm 1B Trust,Goyder South Wind Farm 1B,Wind,196.0,77.05,Goyder South Wind Farm 1B,-33.679758,138.937597,2026-02-12T17:44:46.435050
2026/02/13 03:45:00,GULLRWF1,92.28,New Gullen Range Wind Farm Pty Ltd,Gullen Range Wind Farm,Wind,161.0,57.32,Gullen Range Wind Farm,-34.34,149.27,2026-02-12T17:44:46.435050
2026/02/13 03:45:00,GULLRWF2,108.01,New Gullen Range Wind Farm Pty Ltd,Gullen Range Wind Farm,Wind,107.0,100.94,Gullen Range Wind Farm,-34.34,149.27,2026-02-12T17:44:46.435050
2026/02/13 03:45:00,GUNNING1,40.98,Gunning Wind Energy Developments Pty Ltd,Gunning Wind Farm,Wind,47.0,87.19,Gunning Wind Farm,-34.813333,149.4,2026-02-12T17:44:46.435050
2026/02/13 03:45:00,HALLWF1,69.77,AGL SA Generation Pty Limited,Hallett 1 Wind Farm,Wind,95.0,73.44,Hallett 1 Wind Farm,-33.367778,138.728611,2026-02-12T17:44:46.435050
2026/02/13 03:45:00,HALLWF2,61.49,AGL SA Generation Pty Limited,Hallett 2 Wind Farm,Wind,71.0,86.61,Hallett 2 Wind Farm,-33.367778,138.728611,2026-02-12T17:44:46.435050
2026/02/13 03:45:00,HD1WF1,17.1,Hawkesdale Asset Pty Ltd as trustee for Hawkesdale Asset Trust,Hawkesdale Wind Farm,Wind,89.0,19.21,Hawkesdale Wind Farm,-38.147894,142.361381,2026-02-12T17:44:46.435050
2026/02/13 03:45:00,HDWF1,79.4,HWF1 Pty Ltd,Hornsdale Wind Farm,Wind,102.0,77.84,Hornsdale Wind Farm,-33.050556,138.543611,2026-02-12T17:44:46.435050
2026/02/13 03:45:00,HDWF2,66.0,HWF 2 Pty Ltd,Hornsdale Wind Farm 2,Wind,102.0,64.71,Hornsdale Wind Farm 2,-33.06,138.54,2026-02-12T17:44:46.435050
2026/02/13 03:45:00,HDWF3,72.6,HWF3 Pty Ltd,Hornsdale Wind Farm 3,Wind,109.0,66.61,Hornsdale Wind Farm 3,-33.06,138.54,2026-02-12T17:44:46.435050
2026/02/13 03:45:00,KABANWF1,0.0,Kaban Wind Farm Pty Ltd as trustee for Kaban Wind Farm Trust,Kaban Wind Farm,Wind,152.0,0.0,Kaban Wind Farm,-17.56,145.41,2026-02-12T17:44:46.435050
2026/02/13 03:45:00,KEPWF1,14.0,Kennedy Energy Park Pty Ltd,Kennedy Energy Park,Wind,43.0,32.56,Kennedy Energy Park,-20.88,144.42,2026-02-12T17:44:46.435050
2026/02/13 03:45:00,KIATAWF1,20.9,Kiata ProjectCo Pty Ltd Atf Kiata Project Trust,Kiata Wind Farm,Wind,31.0,67.42,Kiata Wind Farm,-36.4,141.75,2026-02-12T17:44:46.435050
2026/02/13 03:45:00,LGAPWF1,52.89,Lincoln Gap Wind Farm (Operations) Pty Ltd,Lincoln Gap Wind Farm,Wind,123.0,43.0,Lincoln Gap Wind Farm,-32.564279,137.557328,2026-02-12T17:44:46.435050
2026/02/13 03:45:00,LGAPWF1,52.89,Lincoln Gap Wind Farm (Operations) Pty Ltd,Lincoln Gap Wind Farm,Wind,123.0,43.0,Lincoln Gap Wind Farm,-32.564279,137.557328,2026-02-12T17:44:46.435050
2026/02/13 03:45:00,LGAPWF2,46.04,Lincoln Gap Wind Farm (Operations) Pty Ltd,Lincoln Gap Wind Farm,Wind,85.0,54.16,Lincoln Gap Wind Farm,-32.564279,137.557328,2026-02-12T17:44:46.435050
2026/02/13 03:45:00,LGAPWF2,46.04,Lincoln Gap Wind Farm (Operations) Pty Ltd,Lincoln Gap Wind Farm,Wind,85.0,54.16,Lincoln Gap Wind Farm,-32.564279,137.557328,2026-02-12T17:44:46.435050
2026/02/13 03:45:00,LKBONNY1,0.0,Lake Bonney Wind Power Pty Ltd,Lake Bonney Wind Farm Stage 1,Wind,81.0,0.0,Lake Bonney Wind Farm Stage 1,-37.76,140.4,2026-02-12T17:44:46.435050
2026/02/13 03:45:00,LKBONNY2,3.15,Lake Bonney Wind Power Pty Ltd,Lake Bonney Stage 2 Windfarm,Wind,159.0,1.98,Lake Bonney Stage 2 Windfarm,-37.76,140.4,2026-02-12T17:44:46.435050
2026/02/13 03:45:00,LKBONNY3,1.95,Lake Bonney Wind Power Pty Ltd,Lake Bonney Stage 3 Wind Farm,Wind,39.0,5.0,Lake Bonney Stage 3 Wind Farm,-37.737781,140.388137,2026-02-12T17:44:46.435050
2026/02/13 03:45:00,MACARTH1,18.6,AGL Hydro Partnership,Macarthur Wind Farm,Wind,420.0,4.43,Macarthur Wind Farm,-38.048957,142.192112,2026-02-12T17:44:46.435050
2026/02/13 03:45:00,MCINTYR1,262.29,MacIntyre UJV Operator Pty Ltd,MacIntyre Wind Farm,Wind,890.0,29.47,MacIntyre Wind Farm,-28.32,151.54,2026-02-12T17:44:46.435050
2026/02/13 03:45:00,MERCER01,7.6,Mt Mercer Windfarm Pty Ltd,Mt Mercer Wind Farm,Wind,131.0,5.8,Mt Mercer Wind Farm,-37.841111,143.871111,2026-02-12T17:44:46.435050
2026/02/13 03:45:00,MEWF1,8.0,Ergon Energy Queensland Pty Ltd ,Mount Emerald Wind Farm,Wind,178.0,4.49,Mount Emerald Wind Farm,-17.133007,145.380644,2026-02-12T17:44:46.435050
2026/02/13 03:45:00,MRTLSWF1,14.47,Mortlake South Wind Farm Pty Ltd,Mortlake South Wind Farm,Wind,153.0,9.46,Mortlake South Wind Farm,-38.127337,142.857801,2026-02-12T17:44:46.435050
2026/02/13 03:45:00,MTGELWF1,8.25,Mt. Gellibrand Wind Farm Pty Ltd,Mt Gellibrand Wind Farm,Wind,132.0,6.25,Mt Gellibrand Wind Farm,-38.23,143.77,2026-02-12T17:44:46.435050
2026/02/13 03:45:00,MTMILLAR,26.4,Mt Millar Wind Farm Pty Ltd,Mt Millar Wind Farm,Wind,70.0,37.71,Mt Millar Wind Farm,-33.624444,136.703611,2026-02-12T17:44:46.435050
2026/02/13 03:45:00,MUSSELR1,35.6,Hydro-Electric Corporation,Musselroe Wind Farm,Wind,168.0,21.19,Musselroe Wind Farm,-40.780225,148.010799,2026-02-12T17:44:46.435050
2026/02/13 03:45:00,MUWAWF1,166.88,Telstra Energy (Generation) Pty Ltd,Murra Warra Wind Farm,Wind,225.7,73.94,Murra Warra Wind Farm,-36.432404,142.317853,2026-02-12T17:44:46.435050
2026/02/13 03:45:00,MUWAWF2,133.1,Murra Warra II Project Co Pty Ltd ATF The Murra Warra II Project Trust,Murra Warra Wind Farm Stage 2,Wind,203.0,65.57,Murra Warra Wind Farm Stage 2,-36.43,142.32,2026-02-12T17:44:46.435050
2026/02/13 03:45:00,NBHWF1,103.5,AGL SA Generation Pty Limited,North Brown Hill Wind Farm,Wind,132.0,78.41,North Brown Hill Wind Farm,-33.367778,138.728611,2026-02-12T17:44:46.435050
2026/02/13 03:45:00,OAKLAND1,12.4,AGL Hydro Partnership,Oaklands Hill Wind Farm,Wind,63.0,19.68,Oaklands Hill Wind Farm,-37.683078,142.551678,2026-02-12T17:44:46.435050
2026/02/13 03:45:00,PAREPW1,102.13,Iberdrola Australia Energy Markets Pty Limited,Port Augusta Renewable Energy Park,Wind,201.0,50.81,Port Augusta Renewable Energy Park,-32.566944,137.856111,2026-02-12T17:44:46.435050
2026/02/13 03:45:00,RYANCWF1,28.8,Ryan Corner Development Pty Ltd,Ryan Corner Wind Farm,Wind,205.0,14.05,Ryan Corner Wind Farm,-38.271017,142.140647,2026-02-12T17:44:46.435050
2026/02/13 03:45:00,RYEPARK1,311.68,Rye Park Renewable Energy Pty Ltd as trustee for Rye Park Wind Farm Trust,Rye Park Renewable Energy,Wind,384.0,81.17,Rye Park Renewable Energy,-32.138333,148.972778,2026-02-12T17:44:46.435050
2026/02/13 03:45:00,SALTCRK1,5.34,Salt Creek Wind Farm Pty Ltd,Salt Creek Wind Farm,Wind,54.0,9.89,Salt Creek Wind Farm,-37.95,142.63,2026-02-12T17:44:46.435050
2026/02/13 03:45:00,SAPHWF1,85.04,The Trustee For The SWF1 Operations Trust,Sapphire Wind Farm,Wind,270.0,31.5,Sapphire Wind Farm,-29.7,151.41,2026-02-12T17:44:46.435050
2026/02/13 03:45:00,SNOWNTH1,124.5,Snowtown Wind Farm Stage 2 Pty Ltd,Snowtown Wind Farm Stage 2 North,Wind,144.0,86.46,Snowtown Wind Farm Stage 2 North,-33.83,138.118611,2026-02-12T17:44:46.435050
2026/02/13 03:45:00,SNOWSTH1,99.6,Snowtown Wind Farm Stage 2 Pty Ltd,Snowtown South Wind Farm,Wind,126.0,79.05,Snowtown South Wind Farm,-33.83,138.118611,2026-02-12T17:44:46.435050
2026/02/13 03:45:00,SNOWTWN1,88.85,Snowtown Wind Farm Pty Ltd,Snowtown Wind Farm Units 1 And 47,Wind,99.0,89.75,Snowtown Wind Farm Units 1 And 47,-33.83,138.118611,2026-02-12T17:44:46.435050
2026/02/13 03:45:00,STARHLWF,21.49,Starfish Hill Wind Farm Pty Ltd,Starfish Hill Wind Farm,Wind,35.0,61.4,Starfish Hill Wind Farm,-35.58,138.14,2026-02-12T17:44:46.435050
2026/02/13 03:45:00,STOCKYD1,147.09,Stockyard Hill Wind Farm Pty Ltd,Stockyard Hill Wind Farm,Wind,511.0,28.78,Stockyard Hill Wind Farm,-37.535833,143.251389,2026-02-12T17:44:46.435050
2026/02/13 03:45:00,STWF1,104.59,PARF Company 8 Pty Ltd as The Trustee for Silverton Project Trust,Silverton Wind Farm,Wind,198.0,52.82,Silverton Wind Farm,-37.683168,142.551678,2026-02-12T17:44:46.435050
2026/02/13 03:45:00,TARALGA1,16.14,Taralga Wind Farm Nominees No 2 Pty Ltd (ATF Taralga Wind Farm Operating Trust),Taralga Wind Farm,Wind,106.0,15.23,Taralga Wind Farm,-34.42352,149.826267,2026-02-12T17:44:46.435050
2026/02/13 03:45:00,WAMBOWF1,0.0,Stanwell Corporation Limited,Wambo Wind Farm 1,Wind,245.0,0.0,Wambo Wind Farm 1,-35.187301,149.524945,2026-02-12T17:44:46.435050
2026/02/13 03:45:00,WATERLWF,107.7,Waterloo Wind Farm Pty Ltd,Waterloo Wind Farm,Wind,130.0,82.85,Waterloo Wind Farm,-34.00094,138.911567,2026-02-12T17:44:46.435050
2026/02/13 03:45:00,WGWF1,109.8,Willogoleche Power Pty Ltd As The Trustee For The Willogoleche Operating Trust,Willogoleche Wind Farm,Wind,119.0,92.27,Willogoleche Wind Farm,-33.39,138.85,2026-02-12T17:44:46.435050
2026/02/13 03:45:00,WOODLWN1,13.45,Woodlawn Wind Pty Ltd,Woodlawn Wind Farm,Wind,48.0,28.02,Woodlawn Wind Farm,-35.08,149.62,2026-02-12T17:44:46.435050
2026/02/13 03:45:00,WPWF,56.93,AGL SA Generation Pty Limited,Wattle Point Wind Farm,Wind,91.0,62.56,Wattle Point Wind Farm,-35.111624,137.7219,2026-02-12T17:44:46.435050
2026/02/13 03:45:00,WRWF1,141.84,White Rock Wind Farm Pty Ltd,White Rock Wind Farm,Wind,172.0,82.47,White Rock Wind Farm,-29.79,151.54,2026-02-12T17:44:46.435050
2026/02/13 03:45:00,YENDWF1,33.13,Lal Lal Wind Farms Nom Co Pty Ltd,Yendon Wind Farm,Wind,142.0,23.33,Yendon Wind Farm,-37.629987,144.022717,2026-02-12T17:44:46.435050
