SETTLEMENTDATE,DUID,SCADAVALUE,Participant,Station Name,Fuel Source - Primary,MAX_CAP,utilisation_pct,Plant,Latitude,Longitude,timestamp_utc
2026/02/18 08:45:00,CAPTL_WF,78.31,Iberdrola Australia Holdings Pty Limited,Capital Wind Farm,Wind,140.0,55.94,Capital Wind Farm,-35.1,149.31,2026-02-17T22:44:20.482209
2026/02/18 08:45:00,CHALLHWF,0.0,Pacific Hydro Challicum Hills Pty Ltd,Challicum Hills Wind Farm,Wind,52.0,0.0,Challicum Hills Wind Farm,-37.38,143.11,2026-02-17T22:44:20.482209
2026/02/18 08:45:00,CULLRGWF,20.13,Cullerin Range Wind Farm Pty Ltd,Cullerin Range Wind Farm,Wind,30.0,67.1,Cullerin Range Wind Farm,-34.81,149.4,2026-02-17T22:44:20.482209
2026/02/18 08:45:00,DIAPURWF1,0.4,Y.E.S. Energy (SA) Pty Ltd,Diapur Wind Farm,Wind,7.0,5.71,Diapur Wind Farm,-36.3425,141.43,2026-02-17T22:44:20.482209
2026/02/18 08:45:00,MLWF1,4.92,Mortons Lane Windfarm Pty Limited,Mortons Lane Wind Farm,Wind,20.0,24.6,Mortons Lane Wind Farm,-37.84,142.45,2026-02-17T22:44:20.482209
2026/02/18 08:45:00,WAUBRAWF,59.34,Pyrenees Wind Energy Developments Pty Ltd,Waubra Wind Farm,Wind,192.0,30.91,Waubra Wind Farm,-37.394498,143.638982,2026-02-17T22:44:20.482209
2026/02/18 08:45:00,WOOLNTH1,83.21,Hydro-Electric Corporation,Woolnorth Studland Bay / Bluff Point Wind Farm,Wind,140.0,59.44,Woolnorth Studland Bay / Bluff Point Wind Farm,-40.69,144.72,2026-02-17T22:44:20.482209
2026/02/18 08:45:00,YAMBUKWF,-0.1,Energy Pacific (Vic) Pty Ltd,Yambuk Wind Farm,Wind,30.0,-0.33,Yambuk Wind Farm,-38.299083,142.027577,2026-02-17T22:44:20.482209
2026/02/18 08:45:00,YSWF1,0.0,Pacific Hydro Yaloak South Pty Ltd,Yaloak South Wind Farm,Wind,28.0,0.0,Yaloak South Wind Farm,-37.7163,144.242853,2026-02-17T22:44:20.482209
2026/02/18 08:45:00,ARWF1,42.1,Ararat Wind Farm Pty Ltd,Ararat Wind Farm,Wind,241.0,17.47,Ararat Wind Farm,-37.232778,143.031389,2026-02-17T22:44:20.482209
2026/02/18 08:45:00,BALDHWF1,42.53,Alinta Energy Retail Sales Pty Ltd,Bald Hills Wind Farm,Wind,106.0,40.12,Bald Hills Wind Farm,-38.79,145.93,2026-02-17T22:44:20.482209
2026/02/18 08:45:00,BANGOWF1,24.3,BWF Nominees Pty Ltd as The Trustee for BWF Trust,Bango 973 Wind Farm,Wind,155.0,15.68,Bango 973 Wind Farm,-34.551582,148.732808,2026-02-17T22:44:20.482209
2026/02/18 08:45:00,BANGOWF2,14.6,BWF Nominees Pty Ltd as The Trustee for BWF Trust,Bango 999 Wind Farm,Wind,82.0,17.8,Bango 999 Wind Farm,-34.551582,148.732808,2026-02-17T22:44:20.482209
2026/02/18 08:45:00,BLUFF1,0.0,AGL SA Generation Pty Limited,The Bluff Wind Farm,Wind,53.0,0.0,The Bluff Wind Farm,-33.367778,138.728611,2026-02-17T22:44:20.482209
2026/02/18 08:45:00,BOCORWF1,17.5,Boco Rock Wind Farm Pty Ltd,Boco Rock Wind Farm,Wind,111.0,15.77,Boco Rock Wind Farm,-36.578611,149.103333,2026-02-17T22:44:20.482209
2026/02/18 08:45:00,BRYB1WF1,41.41,Berrybank Development Pty Ltd,Berrybank Wind Farm,Wind,175.9,23.54,Berrybank Wind Farm,-37.94,143.52,2026-02-17T22:44:20.482209
2026/02/18 08:45:00,BRYB2WF2,27.62,Berrybank 2 Asset Pty Ltd as trustee for Berrybank 2 Asset Trust,Berrybank 2 Wind Farm,Wind,105.0,26.3,Berrybank 2 Wind Farm,-37.94,143.52,2026-02-17T22:44:20.482209
2026/02/18 08:45:00,BULGANA1,5.75,Bulgana Wind Farm Pty Ltd,Bulgana Green Power Hub,Wind,204.0,2.82,Bulgana Green Power Hub,-37.0975,142.973611,2026-02-17T22:44:20.482209
2026/02/18 08:45:00,CATHROCK,0.0,Cathedral Rocks Wind Farm Pty Ltd,Cathedral Rocks,Wind,66.0,0.0,Cathedral Rocks,-34.51,135.35,2026-02-17T22:44:20.482209
2026/02/18 08:45:00,CHYTWF1,11.32,Cherry Tree Wind Farm Pty Ltd as trustee for The Cherry Tree Project trust ,Cherry Tree Wind Farm,Wind,57.0,19.86,Cherry Tree Wind Farm,-37.1,145.26,2026-02-17T22:44:20.482209
2026/02/18 08:45:00,CLEMGPWF,0.0,Pacific Hydro Clements Gap Pty Ltd,Clements Gap Wind Farm,Wind,57.0,0.0,Clements Gap Wind Farm,-33.48,138.1,2026-02-17T22:44:20.482209
2026/02/18 08:45:00,CLRKCWF1,210.05,Stanwell Corporation Limited ,Clarke Creek Wind Farm,Wind,338.0,62.14,Clarke Creek Wind Farm,-22.85,149.45,2026-02-17T22:44:20.482209
2026/02/18 08:45:00,CLRKCWF2,49.75,Stanwell Corporation Limited ,Clarke Creek Wind Farm,Wind,101.0,49.26,Clarke Creek Wind Farm,-22.85,149.45,2026-02-17T22:44:20.482209
2026/02/18 08:45:00,CNUNDAWF,13.82,Canunda Power Pty Ltd,Canunda Wind Farm,Wind,46.0,30.04,Canunda Wind Farm,-37.73,140.39,2026-02-17T22:44:20.482209
2026/02/18 08:45:00,COLWF01,105.48,Collector Wind Farm Pty Ltd,Collector Wind Farm 1,Wind,219.0,48.16,Collector Wind Farm 1,-34.8719,149.3967,2026-02-17T22:44:20.482209
2026/02/18 08:45:00,COOPGWF1,0.0,PARF Company 10 Pty Limited as The Trustee for Coopers Gap Project Trust,Coopers Gap Wind Farm,Wind,440.0,0.0,Coopers Gap Wind Farm,-26.74,151.45,2026-02-17T22:44:20.482209
2026/02/18 08:45:00,CROOKWF2,81.78,Crookwell Development Pty Ltd ,Crookwell 2 Wind Farm,Wind,91.0,89.87,Crookwell 2 Wind Farm,-34.52,149.54,2026-02-17T22:44:20.482209
2026/02/18 08:45:00,CROOKWF3,52.16,Crookwell 3 Development Pty Ltd,Crookwell 3 Wind Farm,Wind,56.0,93.14,Crookwell 3 Wind Farm,-34.52,149.54,2026-02-17T22:44:20.482209
2026/02/18 08:45:00,CROWLWF1,10.39,Pacific Hydro Crowlands Pty Ltd ,Crowlands Wind Farm,Wind,79.0,13.15,Crowlands Wind Farm,-37.13,143.16,2026-02-17T22:44:20.482209
2026/02/18 08:45:00,CRURWF1,124.5,CRWF Nominees Pty Ltd As Trustee For The CRWF Trust,Crudine Ridge Wind Farm,Wind,138.0,90.22,Crudine Ridge Wind Farm,-32.97,149.64,2026-02-17T22:44:20.482209
2026/02/18 08:45:00,CTHLWF1,121.06,Wild Cattle Hill Pty Ltd,Cattle Hill Wind Farm,Wind,144.0,84.07,Cattle Hill Wind Farm,-42.15,146.69,2026-02-17T22:44:20.482209
2026/02/18 08:45:00,DULAWF1,14.6,Dulacca Energy Project Co Pty Ltd,Dulacca Wind Farm,Wind,173.0,8.44,Dulacca Wind Farm,-26.63,149.87,2026-02-17T22:44:20.482209
2026/02/18 08:45:00,DUNDWF1,16.16,Dundonnell Wind Farm Pty Ltd,Dundonnell Wind Farm,Wind,168.0,9.62,Dundonnell Wind Farm,-37.52,142.58,2026-02-17T22:44:20.482209
2026/02/18 08:45:00,DUNDWF2,11.02,Dundonnell Wind Farm Pty Ltd,Dundonnell Wind Farm,Wind,46.0,23.96,Dundonnell Wind Farm,-37.52,142.58,2026-02-17T22:44:20.482209
2026/02/18 08:45:00,DUNDWF3,32.75,Dundonnell Wind Farm Pty Ltd,Dundonnell Wind Farm,Wind,122.0,26.84,Dundonnell Wind Farm,-37.52,142.58,2026-02-17T22:44:20.482209
2026/02/18 08:45:00,ELAINWF1,0.0,Lal Lal Wind Farms Nom Co Pty Ltd,Elaine Wind Farm,Wind,82.0,0.0,Elaine Wind Farm,-37.36,144.0,2026-02-17T22:44:20.482209
2026/02/18 08:45:00,FLYCRKWF,50.94,Iberdrola Australia Energy Markets Pty Limited,Flyers Creek Wind Farm,Wind,140.0,36.39,Flyers Creek Wind Farm,-33.365556,148.981944,2026-02-17T22:44:20.482209
2026/02/18 08:45:00,GPWFEST1,0.0,Golden Plains WF1 Pty Ltd as Trustee for the Golden Plains WF1 Unit Trust,Golden Plains Wind Farm East,Wind,240.0,0.0,Golden Plains Wind Farm East,-37.945091,143.752614,2026-02-17T22:44:20.482209
2026/02/18 08:45:00,GPWFEST2,0.0,Golden Plains WF1 Pty Ltd as Trustee for the Golden Plains WF1 Unit Trust,Golden Plains Wind Farm East,Wind,253.0,0.0,Golden Plains Wind Farm East,-37.945091,143.752614,2026-02-17T22:44:20.482209
2026/02/18 08:45:00,GPWFEST3,0.0,Golden Plains WF1 Pty Ltd as Trustee for the Golden Plains WF1 Unit Trust,Golden Plains Wind Farm East,Wind,240.0,0.0,Golden Plains Wind Farm East,-37.945091,143.752614,2026-02-17T22:44:20.482209
2026/02/18 08:45:00,GRANWF1,0.0,Granville Harbour Operations Pty Ltd as The Trustee for Granville Harbour Operations Trust,Granville Harbour Wind Farm,Wind,111.0,0.0,Granville Harbour Wind Farm,-41.8,145.06,2026-02-17T22:44:20.482209
2026/02/18 08:45:00,GSWF1A,2.89,Goyder Wind Farm 1 Pty Ltd as the Trustee for Goyder Wind Farm 1 Trust,Goyder South Wind Farm 1A,Wind,201.0,1.44,Goyder South Wind Farm 1A,-33.679758,138.937597,2026-02-17T22:44:20.482209
2026/02/18 08:45:00,GSWF1B1,0.0,Goyder Wind Farm 1B Pty Ltd as the Trustee for the Goyder Wind Farm 1B Trust,Goyder South Wind Farm 1B,Wind,196.0,0.0,Goyder South Wind Farm 1B,-33.679758,138.937597,2026-02-17T22:44:20.482209
2026/02/18 08:45:00,GULLRWF1,127.16,New Gullen Range Wind Farm Pty Ltd,Gullen Range Wind Farm,Wind,161.0,78.98,Gullen Range Wind Farm,-34.34,149.27,2026-02-17T22:44:20.482209
2026/02/18 08:45:00,GULLRWF2,91.22,New Gullen Range Wind Farm Pty Ltd,Gullen Range Wind Farm,Wind,107.0,85.25,Gullen Range Wind Farm,-34.34,149.27,2026-02-17T22:44:20.482209
2026/02/18 08:45:00,GUNNING1,32.81,Gunning Wind Energy Developments Pty Ltd,Gunning Wind Farm,Wind,47.0,69.81,Gunning Wind Farm,-34.813333,149.4,2026-02-17T22:44:20.482209
2026/02/18 08:45:00,HALLWF1,1.43,AGL SA Generation Pty Limited,Hallett 1 Wind Farm,Wind,95.0,1.51,Hallett 1 Wind Farm,-33.367778,138.728611,2026-02-17T22:44:20.482209
2026/02/18 08:45:00,HALLWF2,0.0,AGL SA Generation Pty Limited,Hallett 2 Wind Farm,Wind,71.0,0.0,Hallett 2 Wind Farm,-33.367778,138.728611,2026-02-17T22:44:20.482209
2026/02/18 08:45:00,HD1WF1,0.0,Hawkesdale Asset Pty Ltd as trustee for Hawkesdale Asset Trust,Hawkesdale Wind Farm,Wind,89.0,0.0,Hawkesdale Wind Farm,-38.147894,142.361381,2026-02-17T22:44:20.482209
2026/02/18 08:45:00,HDWF1,11.8,HWF1 Pty Ltd,Hornsdale Wind Farm,Wind,102.0,11.57,Hornsdale Wind Farm,-33.050556,138.543611,2026-02-17T22:44:20.482209
2026/02/18 08:45:00,HDWF2,12.1,HWF 2 Pty Ltd,Hornsdale Wind Farm 2,Wind,102.0,11.86,Hornsdale Wind Farm 2,-33.06,138.54,2026-02-17T22:44:20.482209
2026/02/18 08:45:00,HDWF3,12.2,HWF3 Pty Ltd,Hornsdale Wind Farm 3,Wind,109.0,11.19,Hornsdale Wind Farm 3,-33.06,138.54,2026-02-17T22:44:20.482209
2026/02/18 08:45:00,KABANWF1,2.6,Kaban Wind Farm Pty Ltd as trustee for Kaban Wind Farm Trust,Kaban Wind Farm,Wind,152.0,1.71,Kaban Wind Farm,-17.56,145.41,2026-02-17T22:44:20.482209
2026/02/18 08:45:00,KEPWF1,0.0,Kennedy Energy Park Pty Ltd,Kennedy Energy Park,Wind,43.0,0.0,Kennedy Energy Park,-20.88,144.42,2026-02-17T22:44:20.482209
2026/02/18 08:45:00,KIATAWF1,0.0,Kiata ProjectCo Pty Ltd Atf Kiata Project Trust,Kiata Wind Farm,Wind,31.0,0.0,Kiata Wind Farm,-36.4,141.75,2026-02-17T22:44:20.482209
2026/02/18 08:45:00,LGAPWF1,29.44,Lincoln Gap Wind Farm (Operations) Pty Ltd,Lincoln Gap Wind Farm,Wind,123.0,23.93,Lincoln Gap Wind Farm,-32.564279,137.557328,2026-02-17T22:44:20.482209
2026/02/18 08:45:00,LGAPWF1,29.44,Lincoln Gap Wind Farm (Operations) Pty Ltd,Lincoln Gap Wind Farm,Wind,123.0,23.93,Lincoln Gap Wind Farm,-32.564279,137.557328,2026-02-17T22:44:20.482209
2026/02/18 08:45:00,LGAPWF2,33.05,Lincoln Gap Wind Farm (Operations) Pty Ltd,Lincoln Gap Wind Farm,Wind,85.0,38.88,Lincoln Gap Wind Farm,-32.564279,137.557328,2026-02-17T22:44:20.482209
2026/02/18 08:45:00,LGAPWF2,33.05,Lincoln Gap Wind Farm (Operations) Pty Ltd,Lincoln Gap Wind Farm,Wind,85.0,38.88,Lincoln Gap Wind Farm,-32.564279,137.557328,2026-02-17T22:44:20.482209
2026/02/18 08:45:00,LKBONNY1,22.33,Lake Bonney Wind Power Pty Ltd,Lake Bonney Wind Farm Stage 1,Wind,81.0,27.57,Lake Bonney Wind Farm Stage 1,-37.76,140.4,2026-02-17T22:44:20.482209
2026/02/18 08:45:00,LKBONNY2,56.15,Lake Bonney Wind Power Pty Ltd,Lake Bonney Stage 2 Windfarm,Wind,159.0,35.31,Lake Bonney Stage 2 Windfarm,-37.76,140.4,2026-02-17T22:44:20.482209
2026/02/18 08:45:00,LKBONNY3,15.07,Lake Bonney Wind Power Pty Ltd,Lake Bonney Stage 3 Wind Farm,Wind,39.0,38.64,Lake Bonney Stage 3 Wind Farm,-37.737781,140.388137,2026-02-17T22:44:20.482209
2026/02/18 08:45:00,MACARTH1,91.4,AGL Hydro Partnership,Macarthur Wind Farm,Wind,420.0,21.76,Macarthur Wind Farm,-38.048957,142.192112,2026-02-17T22:44:20.482209
2026/02/18 08:45:00,MCINTYR1,0.0,MacIntyre UJV Operator Pty Ltd,MacIntyre Wind Farm,Wind,890.0,0.0,MacIntyre Wind Farm,-28.32,151.54,2026-02-17T22:44:20.482209
2026/02/18 08:45:00,MERCER01,0.0,Mt Mercer Windfarm Pty Ltd,Mt Mercer Wind Farm,Wind,131.0,0.0,Mt Mercer Wind Farm,-37.841111,143.871111,2026-02-17T22:44:20.482209
2026/02/18 08:45:00,MEWF1,0.0,Ergon Energy Queensland Pty Ltd ,Mount Emerald Wind Farm,Wind,178.0,0.0,Mount Emerald Wind Farm,-17.133007,145.380644,2026-02-17T22:44:20.482209
2026/02/18 08:45:00,MRTLSWF1,35.2,Mortlake South Wind Farm Pty Ltd,Mortlake South Wind Farm,Wind,153.0,23.01,Mortlake South Wind Farm,-38.127337,142.857801,2026-02-17T22:44:20.482209
2026/02/18 08:45:00,MTGELWF1,45.46,Mt. Gellibrand Wind Farm Pty Ltd,Mt Gellibrand Wind Farm,Wind,132.0,34.44,Mt Gellibrand Wind Farm,-38.23,143.77,2026-02-17T22:44:20.482209
2026/02/18 08:45:00,MTMILLAR,4.8,Mt Millar Wind Farm Pty Ltd,Mt Millar Wind Farm,Wind,70.0,6.86,Mt Millar Wind Farm,-33.624444,136.703611,2026-02-17T22:44:20.482209
2026/02/18 08:45:00,MUSSELR1,125.4,Hydro-Electric Corporation,Musselroe Wind Farm,Wind,168.0,74.64,Musselroe Wind Farm,-40.780225,148.010799,2026-02-17T22:44:20.482209
2026/02/18 08:45:00,MUWAWF1,0.0,Telstra Energy (Generation) Pty Ltd,Murra Warra Wind Farm,Wind,225.7,0.0,Murra Warra Wind Farm,-36.432404,142.317853,2026-02-17T22:44:20.482209
2026/02/18 08:45:00,MUWAWF2,0.0,Murra Warra II Project Co Pty Ltd ATF The Murra Warra II Project Trust,Murra Warra Wind Farm Stage 2,Wind,203.0,0.0,Murra Warra Wind Farm Stage 2,-36.43,142.32,2026-02-17T22:44:20.482209
2026/02/18 08:45:00,NBHWF1,7.8,AGL SA Generation Pty Limited,North Brown Hill Wind Farm,Wind,132.0,5.91,North Brown Hill Wind Farm,-33.367778,138.728611,2026-02-17T22:44:20.482209
2026/02/18 08:45:00,OAKLAND1,10.9,AGL Hydro Partnership,Oaklands Hill Wind Farm,Wind,63.0,17.3,Oaklands Hill Wind Farm,-37.683078,142.551678,2026-02-17T22:44:20.482209
2026/02/18 08:45:00,PAREPW1,46.55,Iberdrola Australia Energy Markets Pty Limited,Port Augusta Renewable Energy Park,Wind,201.0,23.16,Port Augusta Renewable Energy Park,-32.566944,137.856111,2026-02-17T22:44:20.482209
2026/02/18 08:45:00,RYANCWF1,0.0,Ryan Corner Development Pty Ltd,Ryan Corner Wind Farm,Wind,205.0,0.0,Ryan Corner Wind Farm,-38.271017,142.140647,2026-02-17T22:44:20.482209
2026/02/18 08:45:00,RYEPARK1,119.22,Rye Park Renewable Energy Pty Ltd as trustee for Rye Park Wind Farm Trust,Rye Park Renewable Energy,Wind,384.0,31.05,Rye Park Renewable Energy,-32.138333,148.972778,2026-02-17T22:44:20.482209
2026/02/18 08:45:00,SALTCRK1,0.0,Salt Creek Wind Farm Pty Ltd,Salt Creek Wind Farm,Wind,54.0,0.0,Salt Creek Wind Farm,-37.95,142.63,2026-02-17T22:44:20.482209
2026/02/18 08:45:00,SAPHWF1,9.39,The Trustee For The SWF1 Operations Trust,Sapphire Wind Farm,Wind,270.0,3.48,Sapphire Wind Farm,-29.7,151.41,2026-02-17T22:44:20.482209
2026/02/18 08:45:00,SNOWNTH1,6.5,Snowtown Wind Farm Stage 2 Pty Ltd,Snowtown Wind Farm Stage 2 North,Wind,144.0,4.51,Snowtown Wind Farm Stage 2 North,-33.83,138.118611,2026-02-17T22:44:20.482209
2026/02/18 08:45:00,SNOWSTH1,4.4,Snowtown Wind Farm Stage 2 Pty Ltd,Snowtown South Wind Farm,Wind,126.0,3.49,Snowtown South Wind Farm,-33.83,138.118611,2026-02-17T22:44:20.482209
2026/02/18 08:45:00,SNOWTWN1,0.0,Snowtown Wind Farm Pty Ltd,Snowtown Wind Farm Units 1 And 47,Wind,99.0,0.0,Snowtown Wind Farm Units 1 And 47,-33.83,138.118611,2026-02-17T22:44:20.482209
2026/02/18 08:45:00,STARHLWF,3.7,Starfish Hill Wind Farm Pty Ltd,Starfish Hill Wind Farm,Wind,35.0,10.57,Starfish Hill Wind Farm,-35.58,138.14,2026-02-17T22:44:20.482209
2026/02/18 08:45:00,STOCKYD1,121.12,Stockyard Hill Wind Farm Pty Ltd,Stockyard Hill Wind Farm,Wind,511.0,23.7,Stockyard Hill Wind Farm,-37.535833,143.251389,2026-02-17T22:44:20.482209
2026/02/18 08:45:00,STWF1,126.97,PARF Company 8 Pty Ltd as The Trustee for Silverton Project Trust,Silverton Wind Farm,Wind,198.0,64.13,Silverton Wind Farm,-37.683168,142.551678,2026-02-17T22:44:20.482209
2026/02/18 08:45:00,TARALGA1,0.0,Taralga Wind Farm Nominees No 2 Pty Ltd (ATF Taralga Wind Farm Operating Trust),Taralga Wind Farm,Wind,106.0,0.0,Taralga Wind Farm,-34.42352,149.826267,2026-02-17T22:44:20.482209
2026/02/18 08:45:00,WAMBOWF1,13.88,Stanwell Corporation Limited,Wambo Wind Farm 1,Wind,245.0,5.67,Wambo Wind Farm 1,-35.187301,149.524945,2026-02-17T22:44:20.482209
2026/02/18 08:45:00,WATERLWF,0.6,Waterloo Wind Farm Pty Ltd,Waterloo Wind Farm,Wind,130.0,0.46,Waterloo Wind Farm,-34.00094,138.911567,2026-02-17T22:44:20.482209
2026/02/18 08:45:00,WGWF1,0.0,Willogoleche Power Pty Ltd As The Trustee For The Willogoleche Operating Trust,Willogoleche Wind Farm,Wind,119.0,0.0,Willogoleche Wind Farm,-33.39,138.85,2026-02-17T22:44:20.482209
2026/02/18 08:45:00,WOODLWN1,26.42,Woodlawn Wind Pty Ltd,Woodlawn Wind Farm,Wind,48.0,55.04,Woodlawn Wind Farm,-35.08,149.62,2026-02-17T22:44:20.482209
2026/02/18 08:45:00,WPWF,0.0,AGL SA Generation Pty Limited,Wattle Point Wind Farm,Wind,91.0,0.0,Wattle Point Wind Farm,-35.111624,137.7219,2026-02-17T22:44:20.482209
2026/02/18 08:45:00,WRWF1,28.22,White Rock Wind Farm Pty Ltd,White Rock Wind Farm,Wind,172.0,16.41,White Rock Wind Farm,-29.79,151.54,2026-02-17T22:44:20.482209
2026/02/18 08:45:00,YENDWF1,0.0,Lal Lal Wind Farms Nom Co Pty Ltd,Yendon Wind Farm,Wind,142.0,0.0,Yendon Wind Farm,-37.629987,144.022717,2026-02-17T22:44:20.482209
