SETTLEMENTDATE,DUID,SCADAVALUE,Participant,Station Name,Fuel Source - Primary,MAX_CAP,utilisation_pct,Plant,Latitude,Longitude,timestamp_utc
2026/02/02 18:05:00,CAPTL_WF,78.77,Iberdrola Australia Holdings Pty Limited,Capital Wind Farm,Wind,140.0,56.26,Capital Wind Farm,-35.1,149.31,2026-02-02T08:04:35.437289
2026/02/02 18:05:00,CHALLHWF,17.4,Pacific Hydro Challicum Hills Pty Ltd,Challicum Hills Wind Farm,Wind,52.0,33.46,Challicum Hills Wind Farm,-37.38,143.11,2026-02-02T08:04:35.437289
2026/02/02 18:05:00,CULLRGWF,25.19,Cullerin Range Wind Farm Pty Ltd,Cullerin Range Wind Farm,Wind,30.0,83.97,Cullerin Range Wind Farm,-34.81,149.4,2026-02-02T08:04:35.437289
2026/02/02 18:05:00,DIAPURWF1,0.2,Y.E.S. Energy (SA) Pty Ltd,Diapur Wind Farm,Wind,7.0,2.86,Diapur Wind Farm,-36.3425,141.43,2026-02-02T08:04:35.437289
2026/02/02 18:05:00,MLWF1,7.44,Mortons Lane Windfarm Pty Limited,Mortons Lane Wind Farm,Wind,20.0,37.2,Mortons Lane Wind Farm,-37.84,142.45,2026-02-02T08:04:35.437289
2026/02/02 18:05:00,WAUBRAWF,73.72,Pyrenees Wind Energy Developments Pty Ltd,Waubra Wind Farm,Wind,192.0,38.4,Waubra Wind Farm,-37.394498,143.638982,2026-02-02T08:04:35.437289
2026/02/02 18:05:00,WOOLNTH1,43.28,Hydro-Electric Corporation,Woolnorth Studland Bay / Bluff Point Wind Farm,Wind,140.0,30.91,Woolnorth Studland Bay / Bluff Point Wind Farm,-40.69,144.72,2026-02-02T08:04:35.437289
2026/02/02 18:05:00,YAMBUKWF,9.1,Energy Pacific (Vic) Pty Ltd,Yambuk Wind Farm,Wind,30.0,30.33,Yambuk Wind Farm,-38.299083,142.027577,2026-02-02T08:04:35.437289
2026/02/02 18:05:00,YSWF1,9.6,Pacific Hydro Yaloak South Pty Ltd,Yaloak South Wind Farm,Wind,28.0,34.29,Yaloak South Wind Farm,-37.7163,144.242853,2026-02-02T08:04:35.437289
2026/02/02 18:05:00,ARWF1,57.8,Ararat Wind Farm Pty Ltd,Ararat Wind Farm,Wind,241.0,23.98,Ararat Wind Farm,-37.232778,143.031389,2026-02-02T08:04:35.437289
2026/02/02 18:05:00,BALDHWF1,7.36,Alinta Energy Retail Sales Pty Ltd,Bald Hills Wind Farm,Wind,106.0,6.94,Bald Hills Wind Farm,-38.79,145.93,2026-02-02T08:04:35.437289
2026/02/02 18:05:00,BANGOWF1,130.2,BWF Nominees Pty Ltd as The Trustee for BWF Trust,Bango 973 Wind Farm,Wind,155.0,84.0,Bango 973 Wind Farm,-34.551582,148.732808,2026-02-02T08:04:35.437289
2026/02/02 18:05:00,BANGOWF2,70.1,BWF Nominees Pty Ltd as The Trustee for BWF Trust,Bango 999 Wind Farm,Wind,82.0,85.49,Bango 999 Wind Farm,-34.551582,148.732808,2026-02-02T08:04:35.437289
2026/02/02 18:05:00,BLUFF1,7.7,AGL SA Generation Pty Limited,The Bluff Wind Farm,Wind,53.0,14.53,The Bluff Wind Farm,-33.367778,138.728611,2026-02-02T08:04:35.437289
2026/02/02 18:05:00,BOCORWF1,16.47,Boco Rock Wind Farm Pty Ltd,Boco Rock Wind Farm,Wind,111.0,14.84,Boco Rock Wind Farm,-36.578611,149.103333,2026-02-02T08:04:35.437289
2026/02/02 18:05:00,BRYB1WF1,109.9,Berrybank Development Pty Ltd,Berrybank Wind Farm,Wind,175.9,62.48,Berrybank Wind Farm,-37.94,143.52,2026-02-02T08:04:35.437289
2026/02/02 18:05:00,BRYB2WF2,65.01,Berrybank 2 Asset Pty Ltd as trustee for Berrybank 2 Asset Trust,Berrybank 2 Wind Farm,Wind,105.0,61.91,Berrybank 2 Wind Farm,-37.94,143.52,2026-02-02T08:04:35.437289
2026/02/02 18:05:00,BULGANA1,0.0,Bulgana Wind Farm Pty Ltd,Bulgana Green Power Hub,Wind,204.0,0.0,Bulgana Green Power Hub,-37.0975,142.973611,2026-02-02T08:04:35.437289
2026/02/02 18:05:00,CATHROCK,24.7,Cathedral Rocks Wind Farm Pty Ltd,Cathedral Rocks,Wind,66.0,37.42,Cathedral Rocks,-34.51,135.35,2026-02-02T08:04:35.437289
2026/02/02 18:05:00,CHYTWF1,37.37,Cherry Tree Wind Farm Pty Ltd as trustee for The Cherry Tree Project trust ,Cherry Tree Wind Farm,Wind,57.0,65.56,Cherry Tree Wind Farm,-37.1,145.26,2026-02-02T08:04:35.437289
2026/02/02 18:05:00,CLEMGPWF,14.33,Pacific Hydro Clements Gap Pty Ltd,Clements Gap Wind Farm,Wind,57.0,25.14,Clements Gap Wind Farm,-33.48,138.1,2026-02-02T08:04:35.437289
2026/02/02 18:05:00,CLRKCWF1,280.51,Stanwell Corporation Limited ,Clarke Creek Wind Farm,Wind,338.0,82.99,Clarke Creek Wind Farm,-22.85,149.45,2026-02-02T08:04:35.437289
2026/02/02 18:05:00,CLRKCWF2,85.52,Stanwell Corporation Limited ,Clarke Creek Wind Farm,Wind,101.0,84.67,Clarke Creek Wind Farm,-22.85,149.45,2026-02-02T08:04:35.437289
2026/02/02 18:05:00,CNUNDAWF,28.03,Canunda Power Pty Ltd,Canunda Wind Farm,Wind,46.0,60.93,Canunda Wind Farm,-37.73,140.39,2026-02-02T08:04:35.437289
2026/02/02 18:05:00,COLWF01,137.24,Collector Wind Farm Pty Ltd,Collector Wind Farm 1,Wind,219.0,62.67,Collector Wind Farm 1,-34.8719,149.3967,2026-02-02T08:04:35.437289
2026/02/02 18:05:00,COOPGWF1,361.84,PARF Company 10 Pty Limited as The Trustee for Coopers Gap Project Trust,Coopers Gap Wind Farm,Wind,440.0,82.24,Coopers Gap Wind Farm,-26.74,151.45,2026-02-02T08:04:35.437289
2026/02/02 18:05:00,CROOKWF2,79.33,Crookwell Development Pty Ltd ,Crookwell 2 Wind Farm,Wind,91.0,87.18,Crookwell 2 Wind Farm,-34.52,149.54,2026-02-02T08:04:35.437289
2026/02/02 18:05:00,CROOKWF3,46.46,Crookwell 3 Development Pty Ltd,Crookwell 3 Wind Farm,Wind,56.0,82.96,Crookwell 3 Wind Farm,-34.52,149.54,2026-02-02T08:04:35.437289
2026/02/02 18:05:00,CROWLWF1,24.93,Pacific Hydro Crowlands Pty Ltd ,Crowlands Wind Farm,Wind,79.0,31.56,Crowlands Wind Farm,-37.13,143.16,2026-02-02T08:04:35.437289
2026/02/02 18:05:00,CRURWF1,128.8,CRWF Nominees Pty Ltd As Trustee For The CRWF Trust,Crudine Ridge Wind Farm,Wind,138.0,93.33,Crudine Ridge Wind Farm,-32.97,149.64,2026-02-02T08:04:35.437289
2026/02/02 18:05:00,CTHLWF1,0.0,Wild Cattle Hill Pty Ltd,Cattle Hill Wind Farm,Wind,144.0,0.0,Cattle Hill Wind Farm,-42.15,146.69,2026-02-02T08:04:35.437289
2026/02/02 18:05:00,DULAWF1,166.4,Dulacca Energy Project Co Pty Ltd,Dulacca Wind Farm,Wind,173.0,96.18,Dulacca Wind Farm,-26.63,149.87,2026-02-02T08:04:35.437289
2026/02/02 18:05:00,DUNDWF1,42.67,Dundonnell Wind Farm Pty Ltd,Dundonnell Wind Farm,Wind,168.0,25.4,Dundonnell Wind Farm,-37.52,142.58,2026-02-02T08:04:35.437289
2026/02/02 18:05:00,DUNDWF2,13.79,Dundonnell Wind Farm Pty Ltd,Dundonnell Wind Farm,Wind,46.0,29.98,Dundonnell Wind Farm,-37.52,142.58,2026-02-02T08:04:35.437289
2026/02/02 18:05:00,DUNDWF3,44.13,Dundonnell Wind Farm Pty Ltd,Dundonnell Wind Farm,Wind,122.0,36.17,Dundonnell Wind Farm,-37.52,142.58,2026-02-02T08:04:35.437289
2026/02/02 18:05:00,ELAINWF1,36.87,Lal Lal Wind Farms Nom Co Pty Ltd,Elaine Wind Farm,Wind,82.0,44.96,Elaine Wind Farm,-37.36,144.0,2026-02-02T08:04:35.437289
2026/02/02 18:05:00,FLYCRKWF,68.26,Iberdrola Australia Energy Markets Pty Limited,Flyers Creek Wind Farm,Wind,140.0,48.76,Flyers Creek Wind Farm,-33.365556,148.981944,2026-02-02T08:04:35.437289
2026/02/02 18:05:00,GPWFEST1,139.21,Golden Plains WF1 Pty Ltd as Trustee for the Golden Plains WF1 Unit Trust,Golden Plains Wind Farm East,Wind,240.0,58.0,Golden Plains Wind Farm East,-37.945091,143.752614,2026-02-02T08:04:35.437289
2026/02/02 18:05:00,GPWFEST2,124.84,Golden Plains WF1 Pty Ltd as Trustee for the Golden Plains WF1 Unit Trust,Golden Plains Wind Farm East,Wind,253.0,49.34,Golden Plains Wind Farm East,-37.945091,143.752614,2026-02-02T08:04:35.437289
2026/02/02 18:05:00,GPWFEST3,131.05,Golden Plains WF1 Pty Ltd as Trustee for the Golden Plains WF1 Unit Trust,Golden Plains Wind Farm East,Wind,240.0,54.6,Golden Plains Wind Farm East,-37.945091,143.752614,2026-02-02T08:04:35.437289
2026/02/02 18:05:00,GRANWF1,11.05,Granville Harbour Operations Pty Ltd as The Trustee for Granville Harbour Operations Trust,Granville Harbour Wind Farm,Wind,111.0,9.95,Granville Harbour Wind Farm,-41.8,145.06,2026-02-02T08:04:35.437289
2026/02/02 18:05:00,GSWF1A,66.53,Goyder Wind Farm 1 Pty Ltd as the Trustee for Goyder Wind Farm 1 Trust,Goyder South Wind Farm 1A,Wind,201.0,33.1,Goyder South Wind Farm 1A,-33.679758,138.937597,2026-02-02T08:04:35.437289
2026/02/02 18:05:00,GSWF1B1,22.63,Goyder Wind Farm 1B Pty Ltd as the Trustee for the Goyder Wind Farm 1B Trust,Goyder South Wind Farm 1B,Wind,196.0,11.55,Goyder South Wind Farm 1B,-33.679758,138.937597,2026-02-02T08:04:35.437289
2026/02/02 18:05:00,GULLRWF1,124.68,New Gullen Range Wind Farm Pty Ltd,Gullen Range Wind Farm,Wind,161.0,77.44,Gullen Range Wind Farm,-34.34,149.27,2026-02-02T08:04:35.437289
2026/02/02 18:05:00,GULLRWF2,92.62,New Gullen Range Wind Farm Pty Ltd,Gullen Range Wind Farm,Wind,107.0,86.56,Gullen Range Wind Farm,-34.34,149.27,2026-02-02T08:04:35.437289
2026/02/02 18:05:00,GUNNING1,43.61,Gunning Wind Energy Developments Pty Ltd,Gunning Wind Farm,Wind,47.0,92.79,Gunning Wind Farm,-34.813333,149.4,2026-02-02T08:04:35.437289
2026/02/02 18:05:00,HALLWF1,19.3,AGL SA Generation Pty Limited,Hallett 1 Wind Farm,Wind,95.0,20.32,Hallett 1 Wind Farm,-33.367778,138.728611,2026-02-02T08:04:35.437289
2026/02/02 18:05:00,HALLWF2,28.95,AGL SA Generation Pty Limited,Hallett 2 Wind Farm,Wind,71.0,40.77,Hallett 2 Wind Farm,-33.367778,138.728611,2026-02-02T08:04:35.437289
2026/02/02 18:05:00,HD1WF1,33.74,Hawkesdale Asset Pty Ltd as trustee for Hawkesdale Asset Trust,Hawkesdale Wind Farm,Wind,89.0,37.91,Hawkesdale Wind Farm,-38.147894,142.361381,2026-02-02T08:04:35.437289
2026/02/02 18:05:00,HDWF1,14.0,HWF1 Pty Ltd,Hornsdale Wind Farm,Wind,102.0,13.73,Hornsdale Wind Farm,-33.050556,138.543611,2026-02-02T08:04:35.437289
2026/02/02 18:05:00,HDWF2,13.6,HWF 2 Pty Ltd,Hornsdale Wind Farm 2,Wind,102.0,13.33,Hornsdale Wind Farm 2,-33.06,138.54,2026-02-02T08:04:35.437289
2026/02/02 18:05:00,HDWF3,19.0,HWF3 Pty Ltd,Hornsdale Wind Farm 3,Wind,109.0,17.43,Hornsdale Wind Farm 3,-33.06,138.54,2026-02-02T08:04:35.437289
2026/02/02 18:05:00,KABANWF1,8.52,Kaban Wind Farm Pty Ltd as trustee for Kaban Wind Farm Trust,Kaban Wind Farm,Wind,152.0,5.61,Kaban Wind Farm,-17.56,145.41,2026-02-02T08:04:35.437289
2026/02/02 18:05:00,KEPWF1,0.0,Kennedy Energy Park Pty Ltd,Kennedy Energy Park,Wind,43.0,0.0,Kennedy Energy Park,-20.88,144.42,2026-02-02T08:04:35.437289
2026/02/02 18:05:00,KIATAWF1,6.5,Kiata ProjectCo Pty Ltd Atf Kiata Project Trust,Kiata Wind Farm,Wind,31.0,20.97,Kiata Wind Farm,-36.4,141.75,2026-02-02T08:04:35.437289
2026/02/02 18:05:00,LGAPWF1,8.54,Lincoln Gap Wind Farm (Operations) Pty Ltd,Lincoln Gap Wind Farm,Wind,123.0,6.94,Lincoln Gap Wind Farm,-32.564279,137.557328,2026-02-02T08:04:35.437289
2026/02/02 18:05:00,LGAPWF1,8.54,Lincoln Gap Wind Farm (Operations) Pty Ltd,Lincoln Gap Wind Farm,Wind,123.0,6.94,Lincoln Gap Wind Farm,-32.564279,137.557328,2026-02-02T08:04:35.437289
2026/02/02 18:05:00,LGAPWF2,16.9,Lincoln Gap Wind Farm (Operations) Pty Ltd,Lincoln Gap Wind Farm,Wind,85.0,19.88,Lincoln Gap Wind Farm,-32.564279,137.557328,2026-02-02T08:04:35.437289
2026/02/02 18:05:00,LGAPWF2,16.9,Lincoln Gap Wind Farm (Operations) Pty Ltd,Lincoln Gap Wind Farm,Wind,85.0,19.88,Lincoln Gap Wind Farm,-32.564279,137.557328,2026-02-02T08:04:35.437289
2026/02/02 18:05:00,LKBONNY1,35.63,Lake Bonney Wind Power Pty Ltd,Lake Bonney Wind Farm Stage 1,Wind,81.0,43.99,Lake Bonney Wind Farm Stage 1,-37.76,140.4,2026-02-02T08:04:35.437289
2026/02/02 18:05:00,LKBONNY2,79.2,Lake Bonney Wind Power Pty Ltd,Lake Bonney Stage 2 Windfarm,Wind,159.0,49.81,Lake Bonney Stage 2 Windfarm,-37.76,140.4,2026-02-02T08:04:35.437289
2026/02/02 18:05:00,LKBONNY3,21.27,Lake Bonney Wind Power Pty Ltd,Lake Bonney Stage 3 Wind Farm,Wind,39.0,54.54,Lake Bonney Stage 3 Wind Farm,-37.737781,140.388137,2026-02-02T08:04:35.437289
2026/02/02 18:05:00,MACARTH1,115.3,AGL Hydro Partnership,Macarthur Wind Farm,Wind,420.0,27.45,Macarthur Wind Farm,-38.048957,142.192112,2026-02-02T08:04:35.437289
2026/02/02 18:05:00,MCINTYR1,294.17,MacIntyre UJV Operator Pty Ltd,MacIntyre Wind Farm,Wind,890.0,33.05,MacIntyre Wind Farm,-28.32,151.54,2026-02-02T08:04:35.437289
2026/02/02 18:05:00,MERCER01,57.2,Mt Mercer Windfarm Pty Ltd,Mt Mercer Wind Farm,Wind,131.0,43.66,Mt Mercer Wind Farm,-37.841111,143.871111,2026-02-02T08:04:35.437289
2026/02/02 18:05:00,MEWF1,0.0,Ergon Energy Queensland Pty Ltd ,Mount Emerald Wind Farm,Wind,178.0,0.0,Mount Emerald Wind Farm,-17.133007,145.380644,2026-02-02T08:04:35.437289
2026/02/02 18:05:00,MRTLSWF1,48.57,Mortlake South Wind Farm Pty Ltd,Mortlake South Wind Farm,Wind,153.0,31.75,Mortlake South Wind Farm,-38.127337,142.857801,2026-02-02T08:04:35.437289
2026/02/02 18:05:00,MTGELWF1,74.89,Mt. Gellibrand Wind Farm Pty Ltd,Mt Gellibrand Wind Farm,Wind,132.0,56.73,Mt Gellibrand Wind Farm,-38.23,143.77,2026-02-02T08:04:35.437289
2026/02/02 18:05:00,MTMILLAR,7.2,Mt Millar Wind Farm Pty Ltd,Mt Millar Wind Farm,Wind,70.0,10.29,Mt Millar Wind Farm,-33.624444,136.703611,2026-02-02T08:04:35.437289
2026/02/02 18:05:00,MUSSELR1,8.5,Hydro-Electric Corporation,Musselroe Wind Farm,Wind,168.0,5.06,Musselroe Wind Farm,-40.780225,148.010799,2026-02-02T08:04:35.437289
2026/02/02 18:05:00,MUWAWF1,63.58,Telstra Energy (Generation) Pty Ltd,Murra Warra Wind Farm,Wind,225.7,28.17,Murra Warra Wind Farm,-36.432404,142.317853,2026-02-02T08:04:35.437289
2026/02/02 18:05:00,MUWAWF2,44.9,Murra Warra II Project Co Pty Ltd ATF The Murra Warra II Project Trust,Murra Warra Wind Farm Stage 2,Wind,203.0,22.12,Murra Warra Wind Farm Stage 2,-36.43,142.32,2026-02-02T08:04:35.437289
2026/02/02 18:05:00,NBHWF1,20.3,AGL SA Generation Pty Limited,North Brown Hill Wind Farm,Wind,132.0,15.38,North Brown Hill Wind Farm,-33.367778,138.728611,2026-02-02T08:04:35.437289
2026/02/02 18:05:00,OAKLAND1,6.5,AGL Hydro Partnership,Oaklands Hill Wind Farm,Wind,63.0,10.32,Oaklands Hill Wind Farm,-37.683078,142.551678,2026-02-02T08:04:35.437289
2026/02/02 18:05:00,PAREPW1,108.89,Iberdrola Australia Energy Markets Pty Limited,Port Augusta Renewable Energy Park,Wind,201.0,54.17,Port Augusta Renewable Energy Park,-32.566944,137.856111,2026-02-02T08:04:35.437289
2026/02/02 18:05:00,RYANCWF1,82.25,Ryan Corner Development Pty Ltd,Ryan Corner Wind Farm,Wind,205.0,40.12,Ryan Corner Wind Farm,-38.271017,142.140647,2026-02-02T08:04:35.437289
2026/02/02 18:05:00,RYEPARK1,353.74,Rye Park Renewable Energy Pty Ltd as trustee for Rye Park Wind Farm Trust,Rye Park Renewable Energy,Wind,384.0,92.12,Rye Park Renewable Energy,-32.138333,148.972778,2026-02-02T08:04:35.437289
2026/02/02 18:05:00,SALTCRK1,16.66,Salt Creek Wind Farm Pty Ltd,Salt Creek Wind Farm,Wind,54.0,30.85,Salt Creek Wind Farm,-37.95,142.63,2026-02-02T08:04:35.437289
2026/02/02 18:05:00,SAPHWF1,250.39,The Trustee For The SWF1 Operations Trust,Sapphire Wind Farm,Wind,270.0,92.74,Sapphire Wind Farm,-29.7,151.41,2026-02-02T08:04:35.437289
2026/02/02 18:05:00,SNOWNTH1,22.2,Snowtown Wind Farm Stage 2 Pty Ltd,Snowtown Wind Farm Stage 2 North,Wind,144.0,15.42,Snowtown Wind Farm Stage 2 North,-33.83,138.118611,2026-02-02T08:04:35.437289
2026/02/02 18:05:00,SNOWSTH1,29.4,Snowtown Wind Farm Stage 2 Pty Ltd,Snowtown South Wind Farm,Wind,126.0,23.33,Snowtown South Wind Farm,-33.83,138.118611,2026-02-02T08:04:35.437289
2026/02/02 18:05:00,SNOWTWN1,15.83,Snowtown Wind Farm Pty Ltd,Snowtown Wind Farm Units 1 And 47,Wind,99.0,15.99,Snowtown Wind Farm Units 1 And 47,-33.83,138.118611,2026-02-02T08:04:35.437289
2026/02/02 18:05:00,STARHLWF,20.09,Starfish Hill Wind Farm Pty Ltd,Starfish Hill Wind Farm,Wind,35.0,57.4,Starfish Hill Wind Farm,-35.58,138.14,2026-02-02T08:04:35.437289
2026/02/02 18:05:00,STOCKYD1,242.24,Stockyard Hill Wind Farm Pty Ltd,Stockyard Hill Wind Farm,Wind,511.0,47.41,Stockyard Hill Wind Farm,-37.535833,143.251389,2026-02-02T08:04:35.437289
2026/02/02 18:05:00,STWF1,0.0,PARF Company 8 Pty Ltd as The Trustee for Silverton Project Trust,Silverton Wind Farm,Wind,198.0,0.0,Silverton Wind Farm,-37.683168,142.551678,2026-02-02T08:04:35.437289
2026/02/02 18:05:00,TARALGA1,67.07,Taralga Wind Farm Nominees No 2 Pty Ltd (ATF Taralga Wind Farm Operating Trust),Taralga Wind Farm,Wind,106.0,63.27,Taralga Wind Farm,-34.42352,149.826267,2026-02-02T08:04:35.437289
2026/02/02 18:05:00,WAMBOWF1,110.97,Stanwell Corporation Limited,Wambo Wind Farm 1,Wind,245.0,45.29,Wambo Wind Farm 1,-35.187301,149.524945,2026-02-02T08:04:35.437289
2026/02/02 18:05:00,WATERLWF,39.8,Waterloo Wind Farm Pty Ltd,Waterloo Wind Farm,Wind,130.0,30.62,Waterloo Wind Farm,-34.00094,138.911567,2026-02-02T08:04:35.437289
2026/02/02 18:05:00,WGWF1,30.6,Willogoleche Power Pty Ltd As The Trustee For The Willogoleche Operating Trust,Willogoleche Wind Farm,Wind,119.0,25.71,Willogoleche Wind Farm,-33.39,138.85,2026-02-02T08:04:35.437289
2026/02/02 18:05:00,WOODLWN1,33.02,Woodlawn Wind Pty Ltd,Woodlawn Wind Farm,Wind,48.0,68.79,Woodlawn Wind Farm,-35.08,149.62,2026-02-02T08:04:35.437289
2026/02/02 18:05:00,WPWF,44.82,AGL SA Generation Pty Limited,Wattle Point Wind Farm,Wind,91.0,49.25,Wattle Point Wind Farm,-35.111624,137.7219,2026-02-02T08:04:35.437289
2026/02/02 18:05:00,WRWF1,161.77,White Rock Wind Farm Pty Ltd,White Rock Wind Farm,Wind,172.0,94.05,White Rock Wind Farm,-29.79,151.54,2026-02-02T08:04:35.437289
2026/02/02 18:05:00,YENDWF1,59.6,Lal Lal Wind Farms Nom Co Pty Ltd,Yendon Wind Farm,Wind,142.0,41.97,Yendon Wind Farm,-37.629987,144.022717,2026-02-02T08:04:35.437289
