SETTLEMENTDATE,DUID,SCADAVALUE,Participant,Station Name,Fuel Source - Primary,MAX_CAP,utilisation_pct,Plant,Latitude,Longitude,timestamp_utc
2026/03/14 05:50:00,CAPTL_WF,30.67,Iberdrola Australia Holdings Pty Limited,Capital Wind Farm,Wind,140.0,21.91,Capital Wind Farm,-35.1,149.31,2026-03-13T19:48:43.960982
2026/03/14 05:50:00,CHALLHWF,4.9,Pacific Hydro Challicum Hills Pty Ltd,Challicum Hills Wind Farm,Wind,52.0,9.42,Challicum Hills Wind Farm,-37.38,143.11,2026-03-13T19:48:43.960982
2026/03/14 05:50:00,CULLRGWF,14.34,Cullerin Range Wind Farm Pty Ltd,Cullerin Range Wind Farm,Wind,30.0,47.8,Cullerin Range Wind Farm,-34.81,149.4,2026-03-13T19:48:43.960982
2026/03/14 05:50:00,DIAPURWF1,6.5,Y.E.S. Energy (SA) Pty Ltd,Diapur Wind Farm,Wind,7.0,92.86,Diapur Wind Farm,-36.3425,141.43,2026-03-13T19:48:43.960982
2026/03/14 05:50:00,MLWF1,3.4,Mortons Lane Windfarm Pty Limited,Mortons Lane Wind Farm,Wind,20.0,17.0,Mortons Lane Wind Farm,-37.84,142.45,2026-03-13T19:48:43.960982
2026/03/14 05:50:00,WAUBRAWF,1.62,Pyrenees Wind Energy Developments Pty Ltd,Waubra Wind Farm,Wind,192.0,0.84,Waubra Wind Farm,-37.394498,143.638982,2026-03-13T19:48:43.960982
2026/03/14 05:50:00,WOOLNTH1,15.42,Hydro-Electric Corporation,Woolnorth Studland Bay / Bluff Point Wind Farm,Wind,140.0,11.01,Woolnorth Studland Bay / Bluff Point Wind Farm,-40.69,144.72,2026-03-13T19:48:43.960982
2026/03/14 05:50:00,YAMBUKWF,6.0,Energy Pacific (Vic) Pty Ltd,Yambuk Wind Farm,Wind,30.0,20.0,Yambuk Wind Farm,-38.299083,142.027577,2026-03-13T19:48:43.960982
2026/03/14 05:50:00,YSWF1,1.9,Pacific Hydro Yaloak South Pty Ltd,Yaloak South Wind Farm,Wind,28.0,6.79,Yaloak South Wind Farm,-37.7163,144.242853,2026-03-13T19:48:43.960982
2026/03/14 05:50:00,ARWF1,0.7,Ararat Wind Farm Pty Ltd,Ararat Wind Farm,Wind,241.0,0.29,Ararat Wind Farm,-37.232778,143.031389,2026-03-13T19:48:43.960982
2026/03/14 05:50:00,BALDHWF1,0.0,Alinta Energy Retail Sales Pty Ltd,Bald Hills Wind Farm,Wind,106.0,0.0,Bald Hills Wind Farm,-38.79,145.93,2026-03-13T19:48:43.960982
2026/03/14 05:50:00,BANGOWF1,122.1,BWF Nominees Pty Ltd as The Trustee for BWF Trust,Bango 973 Wind Farm,Wind,155.0,78.77,Bango 973 Wind Farm,-34.551582,148.732808,2026-03-13T19:48:43.960982
2026/03/14 05:50:00,BANGOWF2,82.1,BWF Nominees Pty Ltd as The Trustee for BWF Trust,Bango 999 Wind Farm,Wind,82.0,100.12,Bango 999 Wind Farm,-34.551582,148.732808,2026-03-13T19:48:43.960982
2026/03/14 05:50:00,BLUFF1,7.5,AGL SA Generation Pty Limited,The Bluff Wind Farm,Wind,53.0,14.15,The Bluff Wind Farm,-33.367778,138.728611,2026-03-13T19:48:43.960982
2026/03/14 05:50:00,BOCORWF1,12.9,Boco Rock Wind Farm Pty Ltd,Boco Rock Wind Farm,Wind,111.0,11.62,Boco Rock Wind Farm,-36.578611,149.103333,2026-03-13T19:48:43.960982
2026/03/14 05:50:00,BRYB1WF1,45.79,Berrybank Development Pty Ltd,Berrybank Wind Farm,Wind,175.9,26.03,Berrybank Wind Farm,-37.94,143.52,2026-03-13T19:48:43.960982
2026/03/14 05:50:00,BRYB2WF2,35.0,Berrybank 2 Asset Pty Ltd as trustee for Berrybank 2 Asset Trust,Berrybank 2 Wind Farm,Wind,105.0,33.33,Berrybank 2 Wind Farm,-37.94,143.52,2026-03-13T19:48:43.960982
2026/03/14 05:50:00,BULGANA1,4.17,Bulgana Wind Farm Pty Ltd,Bulgana Green Power Hub,Wind,204.0,2.04,Bulgana Green Power Hub,-37.0975,142.973611,2026-03-13T19:48:43.960982
2026/03/14 05:50:00,CATHROCK,23.0,Cathedral Rocks Wind Farm Pty Ltd,Cathedral Rocks,Wind,66.0,34.85,Cathedral Rocks,-34.51,135.35,2026-03-13T19:48:43.960982
2026/03/14 05:50:00,CHYTWF1,1.6,Cherry Tree Wind Farm Pty Ltd as trustee for The Cherry Tree Project trust ,Cherry Tree Wind Farm,Wind,57.0,2.81,Cherry Tree Wind Farm,-37.1,145.26,2026-03-13T19:48:43.960982
2026/03/14 05:50:00,CLEMGPWF,37.53,Pacific Hydro Clements Gap Pty Ltd,Clements Gap Wind Farm,Wind,57.0,65.84,Clements Gap Wind Farm,-33.48,138.1,2026-03-13T19:48:43.960982
2026/03/14 05:50:00,CLRKCWF1,297.7,Stanwell Corporation Limited ,Clarke Creek Wind Farm,Wind,338.0,88.08,Clarke Creek Wind Farm,-22.85,149.45,2026-03-13T19:48:43.960982
2026/03/14 05:50:00,CLRKCWF2,88.19,Stanwell Corporation Limited ,Clarke Creek Wind Farm,Wind,101.0,87.32,Clarke Creek Wind Farm,-22.85,149.45,2026-03-13T19:48:43.960982
2026/03/14 05:50:00,CNUNDAWF,4.51,Canunda Power Pty Ltd,Canunda Wind Farm,Wind,46.0,9.8,Canunda Wind Farm,-37.73,140.39,2026-03-13T19:48:43.960982
2026/03/14 05:50:00,COLWF01,30.98,Collector Wind Farm Pty Ltd,Collector Wind Farm 1,Wind,219.0,14.15,Collector Wind Farm 1,-34.8719,149.3967,2026-03-13T19:48:43.960982
2026/03/14 05:50:00,COOPGWF1,291.47,PARF Company 10 Pty Limited as The Trustee for Coopers Gap Project Trust,Coopers Gap Wind Farm,Wind,440.0,66.24,Coopers Gap Wind Farm,-26.74,151.45,2026-03-13T19:48:43.960982
2026/03/14 05:50:00,CROOKWF2,6.86,Crookwell Development Pty Ltd ,Crookwell 2 Wind Farm,Wind,91.0,7.54,Crookwell 2 Wind Farm,-34.52,149.54,2026-03-13T19:48:43.960982
2026/03/14 05:50:00,CROOKWF3,6.46,Crookwell 3 Development Pty Ltd,Crookwell 3 Wind Farm,Wind,56.0,11.54,Crookwell 3 Wind Farm,-34.52,149.54,2026-03-13T19:48:43.960982
2026/03/14 05:50:00,CROWLWF1,4.6,Pacific Hydro Crowlands Pty Ltd ,Crowlands Wind Farm,Wind,79.0,5.82,Crowlands Wind Farm,-37.13,143.16,2026-03-13T19:48:43.960982
2026/03/14 05:50:00,CRURWF1,115.3,CRWF Nominees Pty Ltd As Trustee For The CRWF Trust,Crudine Ridge Wind Farm,Wind,138.0,83.55,Crudine Ridge Wind Farm,-32.97,149.64,2026-03-13T19:48:43.960982
2026/03/14 05:50:00,CTHLWF1,18.58,Wild Cattle Hill Pty Ltd,Cattle Hill Wind Farm,Wind,144.0,12.9,Cattle Hill Wind Farm,-42.15,146.69,2026-03-13T19:48:43.960982
2026/03/14 05:50:00,DULAWF1,113.1,Dulacca Energy Project Co Pty Ltd,Dulacca Wind Farm,Wind,173.0,65.38,Dulacca Wind Farm,-26.63,149.87,2026-03-13T19:48:43.960982
2026/03/14 05:50:00,DUNDWF1,28.27,Dundonnell Wind Farm Pty Ltd,Dundonnell Wind Farm,Wind,168.0,16.83,Dundonnell Wind Farm,-37.52,142.58,2026-03-13T19:48:43.960982
2026/03/14 05:50:00,DUNDWF2,10.12,Dundonnell Wind Farm Pty Ltd,Dundonnell Wind Farm,Wind,46.0,22.0,Dundonnell Wind Farm,-37.52,142.58,2026-03-13T19:48:43.960982
2026/03/14 05:50:00,DUNDWF3,18.65,Dundonnell Wind Farm Pty Ltd,Dundonnell Wind Farm,Wind,122.0,15.29,Dundonnell Wind Farm,-37.52,142.58,2026-03-13T19:48:43.960982
2026/03/14 05:50:00,ELAINWF1,24.3,Lal Lal Wind Farms Nom Co Pty Ltd,Elaine Wind Farm,Wind,82.0,29.63,Elaine Wind Farm,-37.36,144.0,2026-03-13T19:48:43.960982
2026/03/14 05:50:00,FLYCRKWF,80.42,Iberdrola Australia Energy Markets Pty Limited,Flyers Creek Wind Farm,Wind,140.0,57.44,Flyers Creek Wind Farm,-33.365556,148.981944,2026-03-13T19:48:43.960982
2026/03/14 05:50:00,GPWFEST1,60.15,Golden Plains WF1 Pty Ltd as Trustee for the Golden Plains WF1 Unit Trust,Golden Plains Wind Farm East,Wind,240.0,25.06,Golden Plains Wind Farm East,-37.945091,143.752614,2026-03-13T19:48:43.960982
2026/03/14 05:50:00,GPWFEST2,71.99,Golden Plains WF1 Pty Ltd as Trustee for the Golden Plains WF1 Unit Trust,Golden Plains Wind Farm East,Wind,253.0,28.45,Golden Plains Wind Farm East,-37.945091,143.752614,2026-03-13T19:48:43.960982
2026/03/14 05:50:00,GPWFEST3,60.02,Golden Plains WF1 Pty Ltd as Trustee for the Golden Plains WF1 Unit Trust,Golden Plains Wind Farm East,Wind,240.0,25.01,Golden Plains Wind Farm East,-37.945091,143.752614,2026-03-13T19:48:43.960982
2026/03/14 05:50:00,GRANWF1,0.0,Granville Harbour Operations Pty Ltd as The Trustee for Granville Harbour Operations Trust,Granville Harbour Wind Farm,Wind,111.0,0.0,Granville Harbour Wind Farm,-41.8,145.06,2026-03-13T19:48:43.960982
2026/03/14 05:50:00,GSWF1A,174.37,Goyder Wind Farm 1 Pty Ltd as the Trustee for Goyder Wind Farm 1 Trust,Goyder South Wind Farm 1A,Wind,201.0,86.75,Goyder South Wind Farm 1A,-33.679758,138.937597,2026-03-13T19:48:43.960982
2026/03/14 05:50:00,GSWF1B1,151.38,Goyder Wind Farm 1B Pty Ltd as the Trustee for the Goyder Wind Farm 1B Trust,Goyder South Wind Farm 1B,Wind,196.0,77.23,Goyder South Wind Farm 1B,-33.679758,138.937597,2026-03-13T19:48:43.960982
2026/03/14 05:50:00,GULLRWF1,46.18,New Gullen Range Wind Farm Pty Ltd,Gullen Range Wind Farm,Wind,161.0,28.68,Gullen Range Wind Farm,-34.34,149.27,2026-03-13T19:48:43.960982
2026/03/14 05:50:00,GULLRWF2,95.82,New Gullen Range Wind Farm Pty Ltd,Gullen Range Wind Farm,Wind,107.0,89.55,Gullen Range Wind Farm,-34.34,149.27,2026-03-13T19:48:43.960982
2026/03/14 05:50:00,GUNNING1,22.64,Gunning Wind Energy Developments Pty Ltd,Gunning Wind Farm,Wind,47.0,48.17,Gunning Wind Farm,-34.813333,149.4,2026-03-13T19:48:43.960982
2026/03/14 05:50:00,HALLWF1,75.21,AGL SA Generation Pty Limited,Hallett 1 Wind Farm,Wind,95.0,79.17,Hallett 1 Wind Farm,-33.367778,138.728611,2026-03-13T19:48:43.960982
2026/03/14 05:50:00,HALLWF2,57.08,AGL SA Generation Pty Limited,Hallett 2 Wind Farm,Wind,71.0,80.39,Hallett 2 Wind Farm,-33.367778,138.728611,2026-03-13T19:48:43.960982
2026/03/14 05:50:00,HD1WF1,23.0,Hawkesdale Asset Pty Ltd as trustee for Hawkesdale Asset Trust,Hawkesdale Wind Farm,Wind,89.0,25.84,Hawkesdale Wind Farm,-38.147894,142.361381,2026-03-13T19:48:43.960982
2026/03/14 05:50:00,HDWF1,56.9,HWF1 Pty Ltd,Hornsdale Wind Farm,Wind,102.0,55.78,Hornsdale Wind Farm,-33.050556,138.543611,2026-03-13T19:48:43.960982
2026/03/14 05:50:00,HDWF2,42.9,HWF 2 Pty Ltd,Hornsdale Wind Farm 2,Wind,102.0,42.06,Hornsdale Wind Farm 2,-33.06,138.54,2026-03-13T19:48:43.960982
2026/03/14 05:50:00,HDWF3,54.7,HWF3 Pty Ltd,Hornsdale Wind Farm 3,Wind,109.0,50.18,Hornsdale Wind Farm 3,-33.06,138.54,2026-03-13T19:48:43.960982
2026/03/14 05:50:00,KABANWF1,34.41,Kaban Wind Farm Pty Ltd as trustee for Kaban Wind Farm Trust,Kaban Wind Farm,Wind,152.0,22.64,Kaban Wind Farm,-17.56,145.41,2026-03-13T19:48:43.960982
2026/03/14 05:50:00,KEPWF1,27.2,Kennedy Energy Park Pty Ltd,Kennedy Energy Park,Wind,43.0,63.26,Kennedy Energy Park,-20.88,144.42,2026-03-13T19:48:43.960982
2026/03/14 05:50:00,KIATAWF1,12.7,Kiata ProjectCo Pty Ltd Atf Kiata Project Trust,Kiata Wind Farm,Wind,31.0,40.97,Kiata Wind Farm,-36.4,141.75,2026-03-13T19:48:43.960982
2026/03/14 05:50:00,LGAPWF1,32.79,Lincoln Gap Wind Farm (Operations) Pty Ltd,Lincoln Gap Wind Farm,Wind,123.0,26.66,Lincoln Gap Wind Farm,-32.564279,137.557328,2026-03-13T19:48:43.960982
2026/03/14 05:50:00,LGAPWF1,32.79,Lincoln Gap Wind Farm (Operations) Pty Ltd,Lincoln Gap Wind Farm,Wind,123.0,26.66,Lincoln Gap Wind Farm,-32.564279,137.557328,2026-03-13T19:48:43.960982
2026/03/14 05:50:00,LGAPWF2,42.1,Lincoln Gap Wind Farm (Operations) Pty Ltd,Lincoln Gap Wind Farm,Wind,85.0,49.53,Lincoln Gap Wind Farm,-32.564279,137.557328,2026-03-13T19:48:43.960982
2026/03/14 05:50:00,LGAPWF2,42.1,Lincoln Gap Wind Farm (Operations) Pty Ltd,Lincoln Gap Wind Farm,Wind,85.0,49.53,Lincoln Gap Wind Farm,-32.564279,137.557328,2026-03-13T19:48:43.960982
2026/03/14 05:50:00,LKBONNY1,12.5,Lake Bonney Wind Power Pty Ltd,Lake Bonney Wind Farm Stage 1,Wind,81.0,15.43,Lake Bonney Wind Farm Stage 1,-37.76,140.4,2026-03-13T19:48:43.960982
2026/03/14 05:50:00,LKBONNY2,22.88,Lake Bonney Wind Power Pty Ltd,Lake Bonney Stage 2 Windfarm,Wind,159.0,14.39,Lake Bonney Stage 2 Windfarm,-37.76,140.4,2026-03-13T19:48:43.960982
2026/03/14 05:50:00,LKBONNY3,6.59,Lake Bonney Wind Power Pty Ltd,Lake Bonney Stage 3 Wind Farm,Wind,39.0,16.9,Lake Bonney Stage 3 Wind Farm,-37.737781,140.388137,2026-03-13T19:48:43.960982
2026/03/14 05:50:00,MACARTH1,69.4,AGL Hydro Partnership,Macarthur Wind Farm,Wind,420.0,16.52,Macarthur Wind Farm,-38.048957,142.192112,2026-03-13T19:48:43.960982
2026/03/14 05:50:00,MCINTYR1,410.47,MacIntyre UJV Operator Pty Ltd,MacIntyre Wind Farm,Wind,890.0,46.12,MacIntyre Wind Farm,-28.32,151.54,2026-03-13T19:48:43.960982
2026/03/14 05:50:00,MERCER01,41.1,Mt Mercer Windfarm Pty Ltd,Mt Mercer Wind Farm,Wind,131.0,31.37,Mt Mercer Wind Farm,-37.841111,143.871111,2026-03-13T19:48:43.960982
2026/03/14 05:50:00,MEWF1,126.9,Ergon Energy Queensland Pty Ltd ,Mount Emerald Wind Farm,Wind,178.0,71.29,Mount Emerald Wind Farm,-17.133007,145.380644,2026-03-13T19:48:43.960982
2026/03/14 05:50:00,MRTLSWF1,3.66,Mortlake South Wind Farm Pty Ltd,Mortlake South Wind Farm,Wind,153.0,2.39,Mortlake South Wind Farm,-38.127337,142.857801,2026-03-13T19:48:43.960982
2026/03/14 05:50:00,MTGELWF1,20.93,Mt. Gellibrand Wind Farm Pty Ltd,Mt Gellibrand Wind Farm,Wind,132.0,15.86,Mt Gellibrand Wind Farm,-38.23,143.77,2026-03-13T19:48:43.960982
2026/03/14 05:50:00,MTMILLAR,9.6,Mt Millar Wind Farm Pty Ltd,Mt Millar Wind Farm,Wind,70.0,13.71,Mt Millar Wind Farm,-33.624444,136.703611,2026-03-13T19:48:43.960982
2026/03/14 05:50:00,MUSSELR1,31.6,Hydro-Electric Corporation,Musselroe Wind Farm,Wind,168.0,18.81,Musselroe Wind Farm,-40.780225,148.010799,2026-03-13T19:48:43.960982
2026/03/14 05:50:00,MUWAWF1,120.31,Telstra Energy (Generation) Pty Ltd,Murra Warra Wind Farm,Wind,225.7,53.31,Murra Warra Wind Farm,-36.432404,142.317853,2026-03-13T19:48:43.960982
2026/03/14 05:50:00,MUWAWF2,92.8,Murra Warra II Project Co Pty Ltd ATF The Murra Warra II Project Trust,Murra Warra Wind Farm Stage 2,Wind,203.0,45.71,Murra Warra Wind Farm Stage 2,-36.43,142.32,2026-03-13T19:48:43.960982
2026/03/14 05:50:00,NBHWF1,101.9,AGL SA Generation Pty Limited,North Brown Hill Wind Farm,Wind,132.0,77.2,North Brown Hill Wind Farm,-33.367778,138.728611,2026-03-13T19:48:43.960982
2026/03/14 05:50:00,OAKLAND1,22.9,AGL Hydro Partnership,Oaklands Hill Wind Farm,Wind,63.0,36.35,Oaklands Hill Wind Farm,-37.683078,142.551678,2026-03-13T19:48:43.960982
2026/03/14 05:50:00,PAREPW1,67.21,Iberdrola Australia Energy Markets Pty Limited,Port Augusta Renewable Energy Park,Wind,201.0,33.44,Port Augusta Renewable Energy Park,-32.566944,137.856111,2026-03-13T19:48:43.960982
2026/03/14 05:50:00,RYANCWF1,37.48,Ryan Corner Development Pty Ltd,Ryan Corner Wind Farm,Wind,205.0,18.28,Ryan Corner Wind Farm,-38.271017,142.140647,2026-03-13T19:48:43.960982
2026/03/14 05:50:00,RYEPARK1,330.17,Rye Park Renewable Energy Pty Ltd as trustee for Rye Park Wind Farm Trust,Rye Park Renewable Energy,Wind,384.0,85.98,Rye Park Renewable Energy,-32.138333,148.972778,2026-03-13T19:48:43.960982
2026/03/14 05:50:00,SALTCRK1,3.08,Salt Creek Wind Farm Pty Ltd,Salt Creek Wind Farm,Wind,54.0,5.7,Salt Creek Wind Farm,-37.95,142.63,2026-03-13T19:48:43.960982
2026/03/14 05:50:00,SAPHWF1,259.37,The Trustee For The SWF1 Operations Trust,Sapphire Wind Farm,Wind,270.0,96.06,Sapphire Wind Farm,-29.7,151.41,2026-03-13T19:48:43.960982
2026/03/14 05:50:00,SNOWNTH1,88.3,Snowtown Wind Farm Stage 2 Pty Ltd,Snowtown Wind Farm Stage 2 North,Wind,144.0,61.32,Snowtown Wind Farm Stage 2 North,-33.83,138.118611,2026-03-13T19:48:43.960982
2026/03/14 05:50:00,SNOWSTH1,70.8,Snowtown Wind Farm Stage 2 Pty Ltd,Snowtown South Wind Farm,Wind,126.0,56.19,Snowtown South Wind Farm,-33.83,138.118611,2026-03-13T19:48:43.960982
2026/03/14 05:50:00,SNOWTWN1,77.05,Snowtown Wind Farm Pty Ltd,Snowtown Wind Farm Units 1 And 47,Wind,99.0,77.83,Snowtown Wind Farm Units 1 And 47,-33.83,138.118611,2026-03-13T19:48:43.960982
2026/03/14 05:50:00,STARHLWF,17.99,Starfish Hill Wind Farm Pty Ltd,Starfish Hill Wind Farm,Wind,35.0,51.4,Starfish Hill Wind Farm,-35.58,138.14,2026-03-13T19:48:43.960982
2026/03/14 05:50:00,STOCKYD1,51.01,Stockyard Hill Wind Farm Pty Ltd,Stockyard Hill Wind Farm,Wind,511.0,9.98,Stockyard Hill Wind Farm,-37.535833,143.251389,2026-03-13T19:48:43.960982
2026/03/14 05:50:00,STWF1,142.84,PARF Company 8 Pty Ltd as The Trustee for Silverton Project Trust,Silverton Wind Farm,Wind,198.0,72.14,Silverton Wind Farm,-37.683168,142.551678,2026-03-13T19:48:43.960982
2026/03/14 05:50:00,TARALGA1,19.62,Taralga Wind Farm Nominees No 2 Pty Ltd (ATF Taralga Wind Farm Operating Trust),Taralga Wind Farm,Wind,106.0,18.51,Taralga Wind Farm,-34.42352,149.826267,2026-03-13T19:48:43.960982
2026/03/14 05:50:00,WAMBOWF1,183.4,Stanwell Corporation Limited,Wambo Wind Farm 1,Wind,245.0,74.86,Wambo Wind Farm 1,-35.187301,149.524945,2026-03-13T19:48:43.960982
2026/03/14 05:50:00,WATERLWF,114.7,Waterloo Wind Farm Pty Ltd,Waterloo Wind Farm,Wind,130.0,88.23,Waterloo Wind Farm,-34.00094,138.911567,2026-03-13T19:48:43.960982
2026/03/14 05:50:00,WGWF1,105.4,Willogoleche Power Pty Ltd As The Trustee For The Willogoleche Operating Trust,Willogoleche Wind Farm,Wind,119.0,88.57,Willogoleche Wind Farm,-33.39,138.85,2026-03-13T19:48:43.960982
2026/03/14 05:50:00,WOODLWN1,13.21,Woodlawn Wind Pty Ltd,Woodlawn Wind Farm,Wind,48.0,27.52,Woodlawn Wind Farm,-35.08,149.62,2026-03-13T19:48:43.960982
2026/03/14 05:50:00,WPWF,9.82,AGL SA Generation Pty Limited,Wattle Point Wind Farm,Wind,91.0,10.79,Wattle Point Wind Farm,-35.111624,137.7219,2026-03-13T19:48:43.960982
2026/03/14 05:50:00,WRWF1,159.3,White Rock Wind Farm Pty Ltd,White Rock Wind Farm,Wind,172.0,92.62,White Rock Wind Farm,-29.79,151.54,2026-03-13T19:48:43.960982
2026/03/14 05:50:00,YENDWF1,31.67,Lal Lal Wind Farms Nom Co Pty Ltd,Yendon Wind Farm,Wind,142.0,22.3,Yendon Wind Farm,-37.629987,144.022717,2026-03-13T19:48:43.960982
