SETTLEMENTDATE,DUID,SCADAVALUE,Participant,Station Name,Fuel Source - Primary,MAX_CAP,utilisation_pct,Plant,Latitude,Longitude,timestamp_utc
2026/04/04 07:25:00,CAPTL_WF,39.65,Iberdrola Australia Holdings Pty Limited,Capital Wind Farm,Wind,140.0,28.32,Capital Wind Farm,-35.1,149.31,2026-04-03T21:25:41.260053
2026/04/04 07:25:00,CHALLHWF,25.0,Pacific Hydro Challicum Hills Pty Ltd,Challicum Hills Wind Farm,Wind,52.0,48.08,Challicum Hills Wind Farm,-37.38,143.11,2026-04-03T21:25:41.260053
2026/04/04 07:25:00,CULLRGWF,21.0,Cullerin Range Wind Farm Pty Ltd,Cullerin Range Wind Farm,Wind,30.0,70.0,Cullerin Range Wind Farm,-34.81,149.4,2026-04-03T21:25:41.260053
2026/04/04 07:25:00,DIAPURWF1,6.5,Y.E.S. Energy (SA) Pty Ltd,Diapur Wind Farm,Wind,7.0,92.86,Diapur Wind Farm,-36.3425,141.43,2026-04-03T21:25:41.260053
2026/04/04 07:25:00,MLWF1,9.99,Mortons Lane Windfarm Pty Limited,Mortons Lane Wind Farm,Wind,20.0,49.95,Mortons Lane Wind Farm,-37.84,142.45,2026-04-03T21:25:41.260053
2026/04/04 07:25:00,WAUBRAWF,152.62,Pyrenees Wind Energy Developments Pty Ltd,Waubra Wind Farm,Wind,192.0,79.49,Waubra Wind Farm,-37.394498,143.638982,2026-04-03T21:25:41.260053
2026/04/04 07:25:00,WOOLNTH1,14.62,Hydro-Electric Corporation,Woolnorth Studland Bay / Bluff Point Wind Farm,Wind,140.0,10.44,Woolnorth Studland Bay / Bluff Point Wind Farm,-40.69,144.72,2026-04-03T21:25:41.260053
2026/04/04 07:25:00,YAMBUKWF,3.5,Energy Pacific (Vic) Pty Ltd,Yambuk Wind Farm,Wind,30.0,11.67,Yambuk Wind Farm,-38.299083,142.027577,2026-04-03T21:25:41.260053
2026/04/04 07:25:00,YSWF1,6.1,Pacific Hydro Yaloak South Pty Ltd,Yaloak South Wind Farm,Wind,28.0,21.79,Yaloak South Wind Farm,-37.7163,144.242853,2026-04-03T21:25:41.260053
2026/04/04 07:25:00,ARWF1,95.8,Ararat Wind Farm Pty Ltd,Ararat Wind Farm,Wind,241.0,39.75,Ararat Wind Farm,-37.232778,143.031389,2026-04-03T21:25:41.260053
2026/04/04 07:25:00,BALDHWF1,4.33,Alinta Energy Retail Sales Pty Ltd,Bald Hills Wind Farm,Wind,106.0,4.08,Bald Hills Wind Farm,-38.79,145.93,2026-04-03T21:25:41.260053
2026/04/04 07:25:00,BANGOWF1,73.1,BWF Nominees Pty Ltd as The Trustee for BWF Trust,Bango 973 Wind Farm,Wind,155.0,47.16,Bango 973 Wind Farm,-34.551582,148.732808,2026-04-03T21:25:41.260053
2026/04/04 07:25:00,BANGOWF2,40.9,BWF Nominees Pty Ltd as The Trustee for BWF Trust,Bango 999 Wind Farm,Wind,82.0,49.88,Bango 999 Wind Farm,-34.551582,148.732808,2026-04-03T21:25:41.260053
2026/04/04 07:25:00,BLUFF1,13.5,AGL SA Generation Pty Limited,The Bluff Wind Farm,Wind,53.0,25.47,The Bluff Wind Farm,-33.367778,138.728611,2026-04-03T21:25:41.260053
2026/04/04 07:25:00,BOCORWF1,4.7,Boco Rock Wind Farm Pty Ltd,Boco Rock Wind Farm,Wind,111.0,4.23,Boco Rock Wind Farm,-36.578611,149.103333,2026-04-03T21:25:41.260053
2026/04/04 07:25:00,BRYB1WF1,56.91,Berrybank Development Pty Ltd,Berrybank Wind Farm,Wind,175.9,32.35,Berrybank Wind Farm,-37.94,143.52,2026-04-03T21:25:41.260053
2026/04/04 07:25:00,BRYB2WF2,29.3,Berrybank 2 Asset Pty Ltd as trustee for Berrybank 2 Asset Trust,Berrybank 2 Wind Farm,Wind,105.0,27.9,Berrybank 2 Wind Farm,-37.94,143.52,2026-04-03T21:25:41.260053
2026/04/04 07:25:00,BULGANA1,0.0,Bulgana Wind Farm Pty Ltd,Bulgana Green Power Hub,Wind,204.0,0.0,Bulgana Green Power Hub,-37.0975,142.973611,2026-04-03T21:25:41.260053
2026/04/04 07:25:00,CATHROCK,45.0,Cathedral Rocks Wind Farm Pty Ltd,Cathedral Rocks,Wind,66.0,68.18,Cathedral Rocks,-34.51,135.35,2026-04-03T21:25:41.260053
2026/04/04 07:25:00,CHYTWF1,49.86,Cherry Tree Wind Farm Pty Ltd as trustee for The Cherry Tree Project trust ,Cherry Tree Wind Farm,Wind,57.0,87.47,Cherry Tree Wind Farm,-37.1,145.26,2026-04-03T21:25:41.260053
2026/04/04 07:25:00,CLEMGPWF,47.33,Pacific Hydro Clements Gap Pty Ltd,Clements Gap Wind Farm,Wind,57.0,83.04,Clements Gap Wind Farm,-33.48,138.1,2026-04-03T21:25:41.260053
2026/04/04 07:25:00,CLRKCWF1,207.45,Stanwell Corporation Limited ,Clarke Creek Wind Farm,Wind,338.0,61.38,Clarke Creek Wind Farm,-22.85,149.45,2026-04-03T21:25:41.260053
2026/04/04 07:25:00,CLRKCWF2,74.1,Stanwell Corporation Limited ,Clarke Creek Wind Farm,Wind,101.0,73.37,Clarke Creek Wind Farm,-22.85,149.45,2026-04-03T21:25:41.260053
2026/04/04 07:25:00,CNUNDAWF,10.21,Canunda Power Pty Ltd,Canunda Wind Farm,Wind,46.0,22.2,Canunda Wind Farm,-37.73,140.39,2026-04-03T21:25:41.260053
2026/04/04 07:25:00,COLWF01,99.23,Collector Wind Farm Pty Ltd,Collector Wind Farm 1,Wind,219.0,45.31,Collector Wind Farm 1,-34.8719,149.3967,2026-04-03T21:25:41.260053
2026/04/04 07:25:00,COOPGWF1,263.86,PARF Company 10 Pty Limited as The Trustee for Coopers Gap Project Trust,Coopers Gap Wind Farm,Wind,440.0,59.97,Coopers Gap Wind Farm,-26.74,151.45,2026-04-03T21:25:41.260053
2026/04/04 07:25:00,CROOKWF2,12.31,Crookwell Development Pty Ltd ,Crookwell 2 Wind Farm,Wind,91.0,13.53,Crookwell 2 Wind Farm,-34.52,149.54,2026-04-03T21:25:41.260053
2026/04/04 07:25:00,CROOKWF3,11.62,Crookwell 3 Development Pty Ltd,Crookwell 3 Wind Farm,Wind,56.0,20.75,Crookwell 3 Wind Farm,-34.52,149.54,2026-04-03T21:25:41.260053
2026/04/04 07:25:00,CROWLWF1,66.96,Pacific Hydro Crowlands Pty Ltd ,Crowlands Wind Farm,Wind,79.0,84.76,Crowlands Wind Farm,-37.13,143.16,2026-04-03T21:25:41.260053
2026/04/04 07:25:00,CRURWF1,42.2,CRWF Nominees Pty Ltd As Trustee For The CRWF Trust,Crudine Ridge Wind Farm,Wind,138.0,30.58,Crudine Ridge Wind Farm,-32.97,149.64,2026-04-03T21:25:41.260053
2026/04/04 07:25:00,CTHLWF1,0.0,Wild Cattle Hill Pty Ltd,Cattle Hill Wind Farm,Wind,144.0,0.0,Cattle Hill Wind Farm,-42.15,146.69,2026-04-03T21:25:41.260053
2026/04/04 07:25:00,DULAWF1,27.4,Dulacca Energy Project Co Pty Ltd,Dulacca Wind Farm,Wind,173.0,15.84,Dulacca Wind Farm,-26.63,149.87,2026-04-03T21:25:41.260053
2026/04/04 07:25:00,DUNDWF1,62.7,Dundonnell Wind Farm Pty Ltd,Dundonnell Wind Farm,Wind,168.0,37.32,Dundonnell Wind Farm,-37.52,142.58,2026-04-03T21:25:41.260053
2026/04/04 07:25:00,DUNDWF2,16.79,Dundonnell Wind Farm Pty Ltd,Dundonnell Wind Farm,Wind,46.0,36.5,Dundonnell Wind Farm,-37.52,142.58,2026-04-03T21:25:41.260053
2026/04/04 07:25:00,DUNDWF3,41.75,Dundonnell Wind Farm Pty Ltd,Dundonnell Wind Farm,Wind,122.0,34.22,Dundonnell Wind Farm,-37.52,142.58,2026-04-03T21:25:41.260053
2026/04/04 07:25:00,ELAINWF1,53.82,Lal Lal Wind Farms Nom Co Pty Ltd,Elaine Wind Farm,Wind,82.0,65.63,Elaine Wind Farm,-37.36,144.0,2026-04-03T21:25:41.260053
2026/04/04 07:25:00,FLYCRKWF,82.92,Iberdrola Australia Energy Markets Pty Limited,Flyers Creek Wind Farm,Wind,140.0,59.23,Flyers Creek Wind Farm,-33.365556,148.981944,2026-04-03T21:25:41.260053
2026/04/04 07:25:00,GPWFEST1,174.69,Golden Plains WF1 Pty Ltd as Trustee for the Golden Plains WF1 Unit Trust,Golden Plains Wind Farm East,Wind,240.0,72.79,Golden Plains Wind Farm East,-37.945091,143.752614,2026-04-03T21:25:41.260053
2026/04/04 07:25:00,GPWFEST2,181.51,Golden Plains WF1 Pty Ltd as Trustee for the Golden Plains WF1 Unit Trust,Golden Plains Wind Farm East,Wind,253.0,71.74,Golden Plains Wind Farm East,-37.945091,143.752614,2026-04-03T21:25:41.260053
2026/04/04 07:25:00,GPWFEST3,108.5,Golden Plains WF1 Pty Ltd as Trustee for the Golden Plains WF1 Unit Trust,Golden Plains Wind Farm East,Wind,240.0,45.21,Golden Plains Wind Farm East,-37.945091,143.752614,2026-04-03T21:25:41.260053
2026/04/04 07:25:00,GRANWF1,1.2,Granville Harbour Operations Pty Ltd as The Trustee for Granville Harbour Operations Trust,Granville Harbour Wind Farm,Wind,111.0,1.08,Granville Harbour Wind Farm,-41.8,145.06,2026-04-03T21:25:41.260053
2026/04/04 07:25:00,GSWF1A,143.97,Goyder Wind Farm 1 Pty Ltd as the Trustee for Goyder Wind Farm 1 Trust,Goyder South Wind Farm 1A,Wind,201.0,71.63,Goyder South Wind Farm 1A,-33.679758,138.937597,2026-04-03T21:25:41.260053
2026/04/04 07:25:00,GSWF1B1,72.83,Goyder Wind Farm 1B Pty Ltd as the Trustee for the Goyder Wind Farm 1B Trust,Goyder South Wind Farm 1B,Wind,196.0,37.16,Goyder South Wind Farm 1B,-33.679758,138.937597,2026-04-03T21:25:41.260053
2026/04/04 07:25:00,GULLRWF1,58.78,New Gullen Range Wind Farm Pty Ltd,Gullen Range Wind Farm,Wind,161.0,36.51,Gullen Range Wind Farm,-34.34,149.27,2026-04-03T21:25:41.260053
2026/04/04 07:25:00,GULLRWF2,98.64,New Gullen Range Wind Farm Pty Ltd,Gullen Range Wind Farm,Wind,107.0,92.19,Gullen Range Wind Farm,-34.34,149.27,2026-04-03T21:25:41.260053
2026/04/04 07:25:00,GUNNING1,33.17,Gunning Wind Energy Developments Pty Ltd,Gunning Wind Farm,Wind,47.0,70.57,Gunning Wind Farm,-34.813333,149.4,2026-04-03T21:25:41.260053
2026/04/04 07:25:00,HALLWF1,48.22,AGL SA Generation Pty Limited,Hallett 1 Wind Farm,Wind,95.0,50.76,Hallett 1 Wind Farm,-33.367778,138.728611,2026-04-03T21:25:41.260053
2026/04/04 07:25:00,HALLWF2,32.78,AGL SA Generation Pty Limited,Hallett 2 Wind Farm,Wind,71.0,46.17,Hallett 2 Wind Farm,-33.367778,138.728611,2026-04-03T21:25:41.260053
2026/04/04 07:25:00,HD1WF1,60.05,Hawkesdale Asset Pty Ltd as trustee for Hawkesdale Asset Trust,Hawkesdale Wind Farm,Wind,89.0,67.47,Hawkesdale Wind Farm,-38.147894,142.361381,2026-04-03T21:25:41.260053
2026/04/04 07:25:00,HDWF1,78.5,HWF1 Pty Ltd,Hornsdale Wind Farm,Wind,102.0,76.96,Hornsdale Wind Farm,-33.050556,138.543611,2026-04-03T21:25:41.260053
2026/04/04 07:25:00,HDWF2,92.7,HWF 2 Pty Ltd,Hornsdale Wind Farm 2,Wind,102.0,90.88,Hornsdale Wind Farm 2,-33.06,138.54,2026-04-03T21:25:41.260053
2026/04/04 07:25:00,HDWF3,84.0,HWF3 Pty Ltd,Hornsdale Wind Farm 3,Wind,109.0,77.06,Hornsdale Wind Farm 3,-33.06,138.54,2026-04-03T21:25:41.260053
2026/04/04 07:25:00,KABANWF1,60.28,Kaban Wind Farm Pty Ltd as trustee for Kaban Wind Farm Trust,Kaban Wind Farm,Wind,152.0,39.66,Kaban Wind Farm,-17.56,145.41,2026-04-03T21:25:41.260053
2026/04/04 07:25:00,KEPWF1,27.2,Kennedy Energy Park Pty Ltd,Kennedy Energy Park,Wind,43.0,63.26,Kennedy Energy Park,-20.88,144.42,2026-04-03T21:25:41.260053
2026/04/04 07:25:00,KIATAWF1,22.0,Kiata ProjectCo Pty Ltd Atf Kiata Project Trust,Kiata Wind Farm,Wind,31.0,70.97,Kiata Wind Farm,-36.4,141.75,2026-04-03T21:25:41.260053
2026/04/04 07:25:00,LGAPWF1,18.37,Lincoln Gap Wind Farm (Operations) Pty Ltd,Lincoln Gap Wind Farm,Wind,123.0,14.93,Lincoln Gap Wind Farm,-32.564279,137.557328,2026-04-03T21:25:41.260053
2026/04/04 07:25:00,LGAPWF1,18.37,Lincoln Gap Wind Farm (Operations) Pty Ltd,Lincoln Gap Wind Farm,Wind,123.0,14.93,Lincoln Gap Wind Farm,-32.564279,137.557328,2026-04-03T21:25:41.260053
2026/04/04 07:25:00,LGAPWF2,29.07,Lincoln Gap Wind Farm (Operations) Pty Ltd,Lincoln Gap Wind Farm,Wind,85.0,34.2,Lincoln Gap Wind Farm,-32.564279,137.557328,2026-04-03T21:25:41.260053
2026/04/04 07:25:00,LGAPWF2,29.07,Lincoln Gap Wind Farm (Operations) Pty Ltd,Lincoln Gap Wind Farm,Wind,85.0,34.2,Lincoln Gap Wind Farm,-32.564279,137.557328,2026-04-03T21:25:41.260053
2026/04/04 07:25:00,LKBONNY1,15.18,Lake Bonney Wind Power Pty Ltd,Lake Bonney Wind Farm Stage 1,Wind,81.0,18.74,Lake Bonney Wind Farm Stage 1,-37.76,140.4,2026-04-03T21:25:41.260053
2026/04/04 07:25:00,LKBONNY2,41.03,Lake Bonney Wind Power Pty Ltd,Lake Bonney Stage 2 Windfarm,Wind,159.0,25.81,Lake Bonney Stage 2 Windfarm,-37.76,140.4,2026-04-03T21:25:41.260053
2026/04/04 07:25:00,LKBONNY3,12.0,Lake Bonney Wind Power Pty Ltd,Lake Bonney Stage 3 Wind Farm,Wind,39.0,30.77,Lake Bonney Stage 3 Wind Farm,-37.737781,140.388137,2026-04-03T21:25:41.260053
2026/04/04 07:25:00,MACARTH1,128.8,AGL Hydro Partnership,Macarthur Wind Farm,Wind,420.0,30.67,Macarthur Wind Farm,-38.048957,142.192112,2026-04-03T21:25:41.260053
2026/04/04 07:25:00,MCINTYR1,95.46,MacIntyre UJV Operator Pty Ltd,MacIntyre Wind Farm,Wind,890.0,10.73,MacIntyre Wind Farm,-28.32,151.54,2026-04-03T21:25:41.260053
2026/04/04 07:25:00,MERCER01,67.8,Mt Mercer Windfarm Pty Ltd,Mt Mercer Wind Farm,Wind,131.0,51.76,Mt Mercer Wind Farm,-37.841111,143.871111,2026-04-03T21:25:41.260053
2026/04/04 07:25:00,MEWF1,81.81,Ergon Energy Queensland Pty Ltd ,Mount Emerald Wind Farm,Wind,178.0,45.96,Mount Emerald Wind Farm,-17.133007,145.380644,2026-04-03T21:25:41.260053
2026/04/04 07:25:00,MRTLSWF1,65.09,Mortlake South Wind Farm Pty Ltd,Mortlake South Wind Farm,Wind,153.0,42.54,Mortlake South Wind Farm,-38.127337,142.857801,2026-04-03T21:25:41.260053
2026/04/04 07:25:00,MTGELWF1,22.54,Mt. Gellibrand Wind Farm Pty Ltd,Mt Gellibrand Wind Farm,Wind,132.0,17.08,Mt Gellibrand Wind Farm,-38.23,143.77,2026-04-03T21:25:41.260053
2026/04/04 07:25:00,MTMILLAR,12.0,Mt Millar Wind Farm Pty Ltd,Mt Millar Wind Farm,Wind,70.0,17.14,Mt Millar Wind Farm,-33.624444,136.703611,2026-04-03T21:25:41.260053
2026/04/04 07:25:00,MUSSELR1,54.0,Hydro-Electric Corporation,Musselroe Wind Farm,Wind,168.0,32.14,Musselroe Wind Farm,-40.780225,148.010799,2026-04-03T21:25:41.260053
2026/04/04 07:25:00,MUWAWF1,40.3,Telstra Energy (Generation) Pty Ltd,Murra Warra Wind Farm,Wind,225.7,17.86,Murra Warra Wind Farm,-36.432404,142.317853,2026-04-03T21:25:41.260053
2026/04/04 07:25:00,MUWAWF2,157.8,Murra Warra II Project Co Pty Ltd ATF The Murra Warra II Project Trust,Murra Warra Wind Farm Stage 2,Wind,203.0,77.73,Murra Warra Wind Farm Stage 2,-36.43,142.32,2026-04-03T21:25:41.260053
2026/04/04 07:25:00,NBHWF1,92.6,AGL SA Generation Pty Limited,North Brown Hill Wind Farm,Wind,132.0,70.15,North Brown Hill Wind Farm,-33.367778,138.728611,2026-04-03T21:25:41.260053
2026/04/04 07:25:00,OAKLAND1,36.6,AGL Hydro Partnership,Oaklands Hill Wind Farm,Wind,63.0,58.1,Oaklands Hill Wind Farm,-37.683078,142.551678,2026-04-03T21:25:41.260053
2026/04/04 07:25:00,PAREPW1,132.53,Iberdrola Australia Energy Markets Pty Limited,Port Augusta Renewable Energy Park,Wind,201.0,65.94,Port Augusta Renewable Energy Park,-32.566944,137.856111,2026-04-03T21:25:41.260053
2026/04/04 07:25:00,RYANCWF1,89.45,Ryan Corner Development Pty Ltd,Ryan Corner Wind Farm,Wind,205.0,43.63,Ryan Corner Wind Farm,-38.271017,142.140647,2026-04-03T21:25:41.260053
2026/04/04 07:25:00,RYEPARK1,204.25,Rye Park Renewable Energy Pty Ltd as trustee for Rye Park Wind Farm Trust,Rye Park Renewable Energy,Wind,384.0,53.19,Rye Park Renewable Energy,-32.138333,148.972778,2026-04-03T21:25:41.260053
2026/04/04 07:25:00,SALTCRK1,13.77,Salt Creek Wind Farm Pty Ltd,Salt Creek Wind Farm,Wind,54.0,25.5,Salt Creek Wind Farm,-37.95,142.63,2026-04-03T21:25:41.260053
2026/04/04 07:25:00,SAPHWF1,229.38,The Trustee For The SWF1 Operations Trust,Sapphire Wind Farm,Wind,270.0,84.96,Sapphire Wind Farm,-29.7,151.41,2026-04-03T21:25:41.260053
2026/04/04 07:25:00,SNOWNTH1,48.1,Snowtown Wind Farm Stage 2 Pty Ltd,Snowtown Wind Farm Stage 2 North,Wind,144.0,33.4,Snowtown Wind Farm Stage 2 North,-33.83,138.118611,2026-04-03T21:25:41.260053
2026/04/04 07:25:00,SNOWSTH1,66.3,Snowtown Wind Farm Stage 2 Pty Ltd,Snowtown South Wind Farm,Wind,126.0,52.62,Snowtown South Wind Farm,-33.83,138.118611,2026-04-03T21:25:41.260053
2026/04/04 07:25:00,SNOWTWN1,64.8,Snowtown Wind Farm Pty Ltd,Snowtown Wind Farm Units 1 And 47,Wind,99.0,65.45,Snowtown Wind Farm Units 1 And 47,-33.83,138.118611,2026-04-03T21:25:41.260053
2026/04/04 07:25:00,STARHLWF,29.09,Starfish Hill Wind Farm Pty Ltd,Starfish Hill Wind Farm,Wind,35.0,83.11,Starfish Hill Wind Farm,-35.58,138.14,2026-04-03T21:25:41.260053
2026/04/04 07:25:00,STOCKYD1,337.85,Stockyard Hill Wind Farm Pty Ltd,Stockyard Hill Wind Farm,Wind,511.0,66.12,Stockyard Hill Wind Farm,-37.535833,143.251389,2026-04-03T21:25:41.260053
2026/04/04 07:25:00,STWF1,146.1,PARF Company 8 Pty Ltd as The Trustee for Silverton Project Trust,Silverton Wind Farm,Wind,198.0,73.79,Silverton Wind Farm,-37.683168,142.551678,2026-04-03T21:25:41.260053
2026/04/04 07:25:00,TARALGA1,20.07,Taralga Wind Farm Nominees No 2 Pty Ltd (ATF Taralga Wind Farm Operating Trust),Taralga Wind Farm,Wind,106.0,18.93,Taralga Wind Farm,-34.42352,149.826267,2026-04-03T21:25:41.260053
2026/04/04 07:25:00,WAMBOWF1,107.27,Stanwell Corporation Limited,Wambo Wind Farm 1,Wind,245.0,43.78,Wambo Wind Farm 1,-35.187301,149.524945,2026-04-03T21:25:41.260053
2026/04/04 07:25:00,WATERLWF,84.8,Waterloo Wind Farm Pty Ltd,Waterloo Wind Farm,Wind,130.0,65.23,Waterloo Wind Farm,-34.00094,138.911567,2026-04-03T21:25:41.260053
2026/04/04 07:25:00,WGWF1,48.4,Willogoleche Power Pty Ltd As The Trustee For The Willogoleche Operating Trust,Willogoleche Wind Farm,Wind,119.0,40.67,Willogoleche Wind Farm,-33.39,138.85,2026-04-03T21:25:41.260053
2026/04/04 07:25:00,WOODLWN1,21.78,Woodlawn Wind Pty Ltd,Woodlawn Wind Farm,Wind,48.0,45.38,Woodlawn Wind Farm,-35.08,149.62,2026-04-03T21:25:41.260053
2026/04/04 07:25:00,WPWF,38.17,AGL SA Generation Pty Limited,Wattle Point Wind Farm,Wind,91.0,41.95,Wattle Point Wind Farm,-35.111624,137.7219,2026-04-03T21:25:41.260053
2026/04/04 07:25:00,WRWF1,153.9,White Rock Wind Farm Pty Ltd,White Rock Wind Farm,Wind,172.0,89.48,White Rock Wind Farm,-29.79,151.54,2026-04-03T21:25:41.260053
2026/04/04 07:25:00,YENDWF1,63.38,Lal Lal Wind Farms Nom Co Pty Ltd,Yendon Wind Farm,Wind,142.0,44.63,Yendon Wind Farm,-37.629987,144.022717,2026-04-03T21:25:41.260053
