SETTLEMENTDATE,DUID,SCADAVALUE,Participant,Station Name,Fuel Source - Primary,MAX_CAP,utilisation_pct,Plant,Latitude,Longitude,timestamp_utc
2026/02/25 21:55:00,CAPTL_WF,117.96,Iberdrola Australia Holdings Pty Limited,Capital Wind Farm,Wind,140.0,84.26,Capital Wind Farm,-35.1,149.31,2026-02-25T11:54:40.689083
2026/02/25 21:55:00,CHALLHWF,33.1,Pacific Hydro Challicum Hills Pty Ltd,Challicum Hills Wind Farm,Wind,52.0,63.65,Challicum Hills Wind Farm,-37.38,143.11,2026-02-25T11:54:40.689083
2026/02/25 21:55:00,CULLRGWF,26.03,Cullerin Range Wind Farm Pty Ltd,Cullerin Range Wind Farm,Wind,30.0,86.77,Cullerin Range Wind Farm,-34.81,149.4,2026-02-25T11:54:40.689083
2026/02/25 21:55:00,DIAPURWF1,8.3,Y.E.S. Energy (SA) Pty Ltd,Diapur Wind Farm,Wind,7.0,118.57,Diapur Wind Farm,-36.3425,141.43,2026-02-25T11:54:40.689083
2026/02/25 21:55:00,MLWF1,11.01,Mortons Lane Windfarm Pty Limited,Mortons Lane Wind Farm,Wind,20.0,55.05,Mortons Lane Wind Farm,-37.84,142.45,2026-02-25T11:54:40.689083
2026/02/25 21:55:00,WAUBRAWF,160.31,Pyrenees Wind Energy Developments Pty Ltd,Waubra Wind Farm,Wind,192.0,83.49,Waubra Wind Farm,-37.394498,143.638982,2026-02-25T11:54:40.689083
2026/02/25 21:55:00,WOOLNTH1,5.17,Hydro-Electric Corporation,Woolnorth Studland Bay / Bluff Point Wind Farm,Wind,140.0,3.69,Woolnorth Studland Bay / Bluff Point Wind Farm,-40.69,144.72,2026-02-25T11:54:40.689083
2026/02/25 21:55:00,YAMBUKWF,13.0,Energy Pacific (Vic) Pty Ltd,Yambuk Wind Farm,Wind,30.0,43.33,Yambuk Wind Farm,-38.299083,142.027577,2026-02-25T11:54:40.689083
2026/02/25 21:55:00,YSWF1,5.6,Pacific Hydro Yaloak South Pty Ltd,Yaloak South Wind Farm,Wind,28.0,20.0,Yaloak South Wind Farm,-37.7163,144.242853,2026-02-25T11:54:40.689083
2026/02/25 21:55:00,ARWF1,117.5,Ararat Wind Farm Pty Ltd,Ararat Wind Farm,Wind,241.0,48.76,Ararat Wind Farm,-37.232778,143.031389,2026-02-25T11:54:40.689083
2026/02/25 21:55:00,BALDHWF1,91.86,Alinta Energy Retail Sales Pty Ltd,Bald Hills Wind Farm,Wind,106.0,86.66,Bald Hills Wind Farm,-38.79,145.93,2026-02-25T11:54:40.689083
2026/02/25 21:55:00,BANGOWF1,114.4,BWF Nominees Pty Ltd as The Trustee for BWF Trust,Bango 973 Wind Farm,Wind,155.0,73.81,Bango 973 Wind Farm,-34.551582,148.732808,2026-02-25T11:54:40.689083
2026/02/25 21:55:00,BANGOWF2,70.0,BWF Nominees Pty Ltd as The Trustee for BWF Trust,Bango 999 Wind Farm,Wind,82.0,85.37,Bango 999 Wind Farm,-34.551582,148.732808,2026-02-25T11:54:40.689083
2026/02/25 21:55:00,BLUFF1,1.7,AGL SA Generation Pty Limited,The Bluff Wind Farm,Wind,53.0,3.21,The Bluff Wind Farm,-33.367778,138.728611,2026-02-25T11:54:40.689083
2026/02/25 21:55:00,BOCORWF1,19.95,Boco Rock Wind Farm Pty Ltd,Boco Rock Wind Farm,Wind,111.0,17.97,Boco Rock Wind Farm,-36.578611,149.103333,2026-02-25T11:54:40.689083
2026/02/25 21:55:00,BRYB1WF1,55.81,Berrybank Development Pty Ltd,Berrybank Wind Farm,Wind,175.9,31.73,Berrybank Wind Farm,-37.94,143.52,2026-02-25T11:54:40.689083
2026/02/25 21:55:00,BRYB2WF2,30.14,Berrybank 2 Asset Pty Ltd as trustee for Berrybank 2 Asset Trust,Berrybank 2 Wind Farm,Wind,105.0,28.7,Berrybank 2 Wind Farm,-37.94,143.52,2026-02-25T11:54:40.689083
2026/02/25 21:55:00,BULGANA1,130.36,Bulgana Wind Farm Pty Ltd,Bulgana Green Power Hub,Wind,204.0,63.9,Bulgana Green Power Hub,-37.0975,142.973611,2026-02-25T11:54:40.689083
2026/02/25 21:55:00,CATHROCK,27.2,Cathedral Rocks Wind Farm Pty Ltd,Cathedral Rocks,Wind,66.0,41.21,Cathedral Rocks,-34.51,135.35,2026-02-25T11:54:40.689083
2026/02/25 21:55:00,CHYTWF1,56.49,Cherry Tree Wind Farm Pty Ltd as trustee for The Cherry Tree Project trust ,Cherry Tree Wind Farm,Wind,57.0,99.11,Cherry Tree Wind Farm,-37.1,145.26,2026-02-25T11:54:40.689083
2026/02/25 21:55:00,CLEMGPWF,52.08,Pacific Hydro Clements Gap Pty Ltd,Clements Gap Wind Farm,Wind,57.0,91.37,Clements Gap Wind Farm,-33.48,138.1,2026-02-25T11:54:40.689083
2026/02/25 21:55:00,CLRKCWF1,0.0,Stanwell Corporation Limited ,Clarke Creek Wind Farm,Wind,338.0,0.0,Clarke Creek Wind Farm,-22.85,149.45,2026-02-25T11:54:40.689083
2026/02/25 21:55:00,CLRKCWF2,0.01,Stanwell Corporation Limited ,Clarke Creek Wind Farm,Wind,101.0,0.01,Clarke Creek Wind Farm,-22.85,149.45,2026-02-25T11:54:40.689083
2026/02/25 21:55:00,CNUNDAWF,33.24,Canunda Power Pty Ltd,Canunda Wind Farm,Wind,46.0,72.26,Canunda Wind Farm,-37.73,140.39,2026-02-25T11:54:40.689083
2026/02/25 21:55:00,COLWF01,0.0,Collector Wind Farm Pty Ltd,Collector Wind Farm 1,Wind,219.0,0.0,Collector Wind Farm 1,-34.8719,149.3967,2026-02-25T11:54:40.689083
2026/02/25 21:55:00,COOPGWF1,344.72,PARF Company 10 Pty Limited as The Trustee for Coopers Gap Project Trust,Coopers Gap Wind Farm,Wind,440.0,78.35,Coopers Gap Wind Farm,-26.74,151.45,2026-02-25T11:54:40.689083
2026/02/25 21:55:00,CROOKWF2,38.86,Crookwell Development Pty Ltd ,Crookwell 2 Wind Farm,Wind,91.0,42.7,Crookwell 2 Wind Farm,-34.52,149.54,2026-02-25T11:54:40.689083
2026/02/25 21:55:00,CROOKWF3,14.93,Crookwell 3 Development Pty Ltd,Crookwell 3 Wind Farm,Wind,56.0,26.66,Crookwell 3 Wind Farm,-34.52,149.54,2026-02-25T11:54:40.689083
2026/02/25 21:55:00,CROWLWF1,52.64,Pacific Hydro Crowlands Pty Ltd ,Crowlands Wind Farm,Wind,79.0,66.63,Crowlands Wind Farm,-37.13,143.16,2026-02-25T11:54:40.689083
2026/02/25 21:55:00,CRURWF1,56.8,CRWF Nominees Pty Ltd As Trustee For The CRWF Trust,Crudine Ridge Wind Farm,Wind,138.0,41.16,Crudine Ridge Wind Farm,-32.97,149.64,2026-02-25T11:54:40.689083
2026/02/25 21:55:00,CTHLWF1,23.29,Wild Cattle Hill Pty Ltd,Cattle Hill Wind Farm,Wind,144.0,16.17,Cattle Hill Wind Farm,-42.15,146.69,2026-02-25T11:54:40.689083
2026/02/25 21:55:00,DULAWF1,150.9,Dulacca Energy Project Co Pty Ltd,Dulacca Wind Farm,Wind,173.0,87.23,Dulacca Wind Farm,-26.63,149.87,2026-02-25T11:54:40.689083
2026/02/25 21:55:00,DUNDWF1,71.97,Dundonnell Wind Farm Pty Ltd,Dundonnell Wind Farm,Wind,168.0,42.84,Dundonnell Wind Farm,-37.52,142.58,2026-02-25T11:54:40.689083
2026/02/25 21:55:00,DUNDWF2,24.52,Dundonnell Wind Farm Pty Ltd,Dundonnell Wind Farm,Wind,46.0,53.3,Dundonnell Wind Farm,-37.52,142.58,2026-02-25T11:54:40.689083
2026/02/25 21:55:00,DUNDWF3,55.05,Dundonnell Wind Farm Pty Ltd,Dundonnell Wind Farm,Wind,122.0,45.12,Dundonnell Wind Farm,-37.52,142.58,2026-02-25T11:54:40.689083
2026/02/25 21:55:00,ELAINWF1,33.39,Lal Lal Wind Farms Nom Co Pty Ltd,Elaine Wind Farm,Wind,82.0,40.72,Elaine Wind Farm,-37.36,144.0,2026-02-25T11:54:40.689083
2026/02/25 21:55:00,FLYCRKWF,46.85,Iberdrola Australia Energy Markets Pty Limited,Flyers Creek Wind Farm,Wind,140.0,33.46,Flyers Creek Wind Farm,-33.365556,148.981944,2026-02-25T11:54:40.689083
2026/02/25 21:55:00,GPWFEST1,68.73,Golden Plains WF1 Pty Ltd as Trustee for the Golden Plains WF1 Unit Trust,Golden Plains Wind Farm East,Wind,240.0,28.64,Golden Plains Wind Farm East,-37.945091,143.752614,2026-02-25T11:54:40.689083
2026/02/25 21:55:00,GPWFEST2,62.25,Golden Plains WF1 Pty Ltd as Trustee for the Golden Plains WF1 Unit Trust,Golden Plains Wind Farm East,Wind,253.0,24.6,Golden Plains Wind Farm East,-37.945091,143.752614,2026-02-25T11:54:40.689083
2026/02/25 21:55:00,GPWFEST3,50.99,Golden Plains WF1 Pty Ltd as Trustee for the Golden Plains WF1 Unit Trust,Golden Plains Wind Farm East,Wind,240.0,21.25,Golden Plains Wind Farm East,-37.945091,143.752614,2026-02-25T11:54:40.689083
2026/02/25 21:55:00,GRANWF1,54.89,Granville Harbour Operations Pty Ltd as The Trustee for Granville Harbour Operations Trust,Granville Harbour Wind Farm,Wind,111.0,49.45,Granville Harbour Wind Farm,-41.8,145.06,2026-02-25T11:54:40.689083
2026/02/25 21:55:00,GSWF1A,153.87,Goyder Wind Farm 1 Pty Ltd as the Trustee for Goyder Wind Farm 1 Trust,Goyder South Wind Farm 1A,Wind,201.0,76.55,Goyder South Wind Farm 1A,-33.679758,138.937597,2026-02-25T11:54:40.689083
2026/02/25 21:55:00,GSWF1B1,108.45,Goyder Wind Farm 1B Pty Ltd as the Trustee for the Goyder Wind Farm 1B Trust,Goyder South Wind Farm 1B,Wind,196.0,55.33,Goyder South Wind Farm 1B,-33.679758,138.937597,2026-02-25T11:54:40.689083
2026/02/25 21:55:00,GULLRWF1,70.64,New Gullen Range Wind Farm Pty Ltd,Gullen Range Wind Farm,Wind,161.0,43.88,Gullen Range Wind Farm,-34.34,149.27,2026-02-25T11:54:40.689083
2026/02/25 21:55:00,GULLRWF2,94.95,New Gullen Range Wind Farm Pty Ltd,Gullen Range Wind Farm,Wind,107.0,88.74,Gullen Range Wind Farm,-34.34,149.27,2026-02-25T11:54:40.689083
2026/02/25 21:55:00,GUNNING1,41.18,Gunning Wind Energy Developments Pty Ltd,Gunning Wind Farm,Wind,47.0,87.62,Gunning Wind Farm,-34.813333,149.4,2026-02-25T11:54:40.689083
2026/02/25 21:55:00,HALLWF1,58.39,AGL SA Generation Pty Limited,Hallett 1 Wind Farm,Wind,95.0,61.46,Hallett 1 Wind Farm,-33.367778,138.728611,2026-02-25T11:54:40.689083
2026/02/25 21:55:00,HALLWF2,56.74,AGL SA Generation Pty Limited,Hallett 2 Wind Farm,Wind,71.0,79.92,Hallett 2 Wind Farm,-33.367778,138.728611,2026-02-25T11:54:40.689083
2026/02/25 21:55:00,HD1WF1,42.13,Hawkesdale Asset Pty Ltd as trustee for Hawkesdale Asset Trust,Hawkesdale Wind Farm,Wind,89.0,47.34,Hawkesdale Wind Farm,-38.147894,142.361381,2026-02-25T11:54:40.689083
2026/02/25 21:55:00,HDWF1,74.5,HWF1 Pty Ltd,Hornsdale Wind Farm,Wind,102.0,73.04,Hornsdale Wind Farm,-33.050556,138.543611,2026-02-25T11:54:40.689083
2026/02/25 21:55:00,HDWF2,82.3,HWF 2 Pty Ltd,Hornsdale Wind Farm 2,Wind,102.0,80.69,Hornsdale Wind Farm 2,-33.06,138.54,2026-02-25T11:54:40.689083
2026/02/25 21:55:00,HDWF3,86.4,HWF3 Pty Ltd,Hornsdale Wind Farm 3,Wind,109.0,79.27,Hornsdale Wind Farm 3,-33.06,138.54,2026-02-25T11:54:40.689083
2026/02/25 21:55:00,KABANWF1,32.56,Kaban Wind Farm Pty Ltd as trustee for Kaban Wind Farm Trust,Kaban Wind Farm,Wind,152.0,21.42,Kaban Wind Farm,-17.56,145.41,2026-02-25T11:54:40.689083
2026/02/25 21:55:00,KEPWF1,40.1,Kennedy Energy Park Pty Ltd,Kennedy Energy Park,Wind,43.0,93.26,Kennedy Energy Park,-20.88,144.42,2026-02-25T11:54:40.689083
2026/02/25 21:55:00,KIATAWF1,29.0,Kiata ProjectCo Pty Ltd Atf Kiata Project Trust,Kiata Wind Farm,Wind,31.0,93.55,Kiata Wind Farm,-36.4,141.75,2026-02-25T11:54:40.689083
2026/02/25 21:55:00,LGAPWF1,24.04,Lincoln Gap Wind Farm (Operations) Pty Ltd,Lincoln Gap Wind Farm,Wind,123.0,19.54,Lincoln Gap Wind Farm,-32.564279,137.557328,2026-02-25T11:54:40.689083
2026/02/25 21:55:00,LGAPWF1,24.04,Lincoln Gap Wind Farm (Operations) Pty Ltd,Lincoln Gap Wind Farm,Wind,123.0,19.54,Lincoln Gap Wind Farm,-32.564279,137.557328,2026-02-25T11:54:40.689083
2026/02/25 21:55:00,LGAPWF2,72.0,Lincoln Gap Wind Farm (Operations) Pty Ltd,Lincoln Gap Wind Farm,Wind,85.0,84.71,Lincoln Gap Wind Farm,-32.564279,137.557328,2026-02-25T11:54:40.689083
2026/02/25 21:55:00,LGAPWF2,72.0,Lincoln Gap Wind Farm (Operations) Pty Ltd,Lincoln Gap Wind Farm,Wind,85.0,84.71,Lincoln Gap Wind Farm,-32.564279,137.557328,2026-02-25T11:54:40.689083
2026/02/25 21:55:00,LKBONNY1,36.17,Lake Bonney Wind Power Pty Ltd,Lake Bonney Wind Farm Stage 1,Wind,81.0,44.65,Lake Bonney Wind Farm Stage 1,-37.76,140.4,2026-02-25T11:54:40.689083
2026/02/25 21:55:00,LKBONNY2,104.56,Lake Bonney Wind Power Pty Ltd,Lake Bonney Stage 2 Windfarm,Wind,159.0,65.76,Lake Bonney Stage 2 Windfarm,-37.76,140.4,2026-02-25T11:54:40.689083
2026/02/25 21:55:00,LKBONNY3,19.98,Lake Bonney Wind Power Pty Ltd,Lake Bonney Stage 3 Wind Farm,Wind,39.0,51.23,Lake Bonney Stage 3 Wind Farm,-37.737781,140.388137,2026-02-25T11:54:40.689083
2026/02/25 21:55:00,MACARTH1,125.2,AGL Hydro Partnership,Macarthur Wind Farm,Wind,420.0,29.81,Macarthur Wind Farm,-38.048957,142.192112,2026-02-25T11:54:40.689083
2026/02/25 21:55:00,MCINTYR1,227.0,MacIntyre UJV Operator Pty Ltd,MacIntyre Wind Farm,Wind,890.0,25.51,MacIntyre Wind Farm,-28.32,151.54,2026-02-25T11:54:40.689083
2026/02/25 21:55:00,MERCER01,28.3,Mt Mercer Windfarm Pty Ltd,Mt Mercer Wind Farm,Wind,131.0,21.6,Mt Mercer Wind Farm,-37.841111,143.871111,2026-02-25T11:54:40.689083
2026/02/25 21:55:00,MEWF1,66.19,Ergon Energy Queensland Pty Ltd ,Mount Emerald Wind Farm,Wind,178.0,37.19,Mount Emerald Wind Farm,-17.133007,145.380644,2026-02-25T11:54:40.689083
2026/02/25 21:55:00,MRTLSWF1,26.0,Mortlake South Wind Farm Pty Ltd,Mortlake South Wind Farm,Wind,153.0,16.99,Mortlake South Wind Farm,-38.127337,142.857801,2026-02-25T11:54:40.689083
2026/02/25 21:55:00,MTGELWF1,8.92,Mt. Gellibrand Wind Farm Pty Ltd,Mt Gellibrand Wind Farm,Wind,132.0,6.76,Mt Gellibrand Wind Farm,-38.23,143.77,2026-02-25T11:54:40.689083
2026/02/25 21:55:00,MTMILLAR,24.9,Mt Millar Wind Farm Pty Ltd,Mt Millar Wind Farm,Wind,70.0,35.57,Mt Millar Wind Farm,-33.624444,136.703611,2026-02-25T11:54:40.689083
2026/02/25 21:55:00,MUSSELR1,70.8,Hydro-Electric Corporation,Musselroe Wind Farm,Wind,168.0,42.14,Musselroe Wind Farm,-40.780225,148.010799,2026-02-25T11:54:40.689083
2026/02/25 21:55:00,MUWAWF1,150.67,Telstra Energy (Generation) Pty Ltd,Murra Warra Wind Farm,Wind,225.7,66.76,Murra Warra Wind Farm,-36.432404,142.317853,2026-02-25T11:54:40.689083
2026/02/25 21:55:00,MUWAWF2,135.9,Murra Warra II Project Co Pty Ltd ATF The Murra Warra II Project Trust,Murra Warra Wind Farm Stage 2,Wind,203.0,66.95,Murra Warra Wind Farm Stage 2,-36.43,142.32,2026-02-25T11:54:40.689083
2026/02/25 21:55:00,NBHWF1,112.6,AGL SA Generation Pty Limited,North Brown Hill Wind Farm,Wind,132.0,85.3,North Brown Hill Wind Farm,-33.367778,138.728611,2026-02-25T11:54:40.689083
2026/02/25 21:55:00,OAKLAND1,30.7,AGL Hydro Partnership,Oaklands Hill Wind Farm,Wind,63.0,48.73,Oaklands Hill Wind Farm,-37.683078,142.551678,2026-02-25T11:54:40.689083
2026/02/25 21:55:00,PAREPW1,29.58,Iberdrola Australia Energy Markets Pty Limited,Port Augusta Renewable Energy Park,Wind,201.0,14.72,Port Augusta Renewable Energy Park,-32.566944,137.856111,2026-02-25T11:54:40.689083
2026/02/25 21:55:00,RYANCWF1,132.94,Ryan Corner Development Pty Ltd,Ryan Corner Wind Farm,Wind,205.0,64.85,Ryan Corner Wind Farm,-38.271017,142.140647,2026-02-25T11:54:40.689083
2026/02/25 21:55:00,RYEPARK1,303.96,Rye Park Renewable Energy Pty Ltd as trustee for Rye Park Wind Farm Trust,Rye Park Renewable Energy,Wind,384.0,79.16,Rye Park Renewable Energy,-32.138333,148.972778,2026-02-25T11:54:40.689083
2026/02/25 21:55:00,SALTCRK1,25.47,Salt Creek Wind Farm Pty Ltd,Salt Creek Wind Farm,Wind,54.0,47.17,Salt Creek Wind Farm,-37.95,142.63,2026-02-25T11:54:40.689083
2026/02/25 21:55:00,SAPHWF1,226.47,The Trustee For The SWF1 Operations Trust,Sapphire Wind Farm,Wind,270.0,83.88,Sapphire Wind Farm,-29.7,151.41,2026-02-25T11:54:40.689083
2026/02/25 21:55:00,SNOWNTH1,138.2,Snowtown Wind Farm Stage 2 Pty Ltd,Snowtown Wind Farm Stage 2 North,Wind,144.0,95.97,Snowtown Wind Farm Stage 2 North,-33.83,138.118611,2026-02-25T11:54:40.689083
2026/02/25 21:55:00,SNOWSTH1,124.8,Snowtown Wind Farm Stage 2 Pty Ltd,Snowtown South Wind Farm,Wind,126.0,99.05,Snowtown South Wind Farm,-33.83,138.118611,2026-02-25T11:54:40.689083
2026/02/25 21:55:00,SNOWTWN1,78.59,Snowtown Wind Farm Pty Ltd,Snowtown Wind Farm Units 1 And 47,Wind,99.0,79.38,Snowtown Wind Farm Units 1 And 47,-33.83,138.118611,2026-02-25T11:54:40.689083
2026/02/25 21:55:00,STARHLWF,23.89,Starfish Hill Wind Farm Pty Ltd,Starfish Hill Wind Farm,Wind,35.0,68.26,Starfish Hill Wind Farm,-35.58,138.14,2026-02-25T11:54:40.689083
2026/02/25 21:55:00,STOCKYD1,382.86,Stockyard Hill Wind Farm Pty Ltd,Stockyard Hill Wind Farm,Wind,511.0,74.92,Stockyard Hill Wind Farm,-37.535833,143.251389,2026-02-25T11:54:40.689083
2026/02/25 21:55:00,STWF1,53.64,PARF Company 8 Pty Ltd as The Trustee for Silverton Project Trust,Silverton Wind Farm,Wind,198.0,27.09,Silverton Wind Farm,-37.683168,142.551678,2026-02-25T11:54:40.689083
2026/02/25 21:55:00,TARALGA1,27.83,Taralga Wind Farm Nominees No 2 Pty Ltd (ATF Taralga Wind Farm Operating Trust),Taralga Wind Farm,Wind,106.0,26.25,Taralga Wind Farm,-34.42352,149.826267,2026-02-25T11:54:40.689083
2026/02/25 21:55:00,WAMBOWF1,0.0,Stanwell Corporation Limited,Wambo Wind Farm 1,Wind,245.0,0.0,Wambo Wind Farm 1,-35.187301,149.524945,2026-02-25T11:54:40.689083
2026/02/25 21:55:00,WATERLWF,72.0,Waterloo Wind Farm Pty Ltd,Waterloo Wind Farm,Wind,130.0,55.38,Waterloo Wind Farm,-34.00094,138.911567,2026-02-25T11:54:40.689083
2026/02/25 21:55:00,WGWF1,101.6,Willogoleche Power Pty Ltd As The Trustee For The Willogoleche Operating Trust,Willogoleche Wind Farm,Wind,119.0,85.38,Willogoleche Wind Farm,-33.39,138.85,2026-02-25T11:54:40.689083
2026/02/25 21:55:00,WOODLWN1,43.82,Woodlawn Wind Pty Ltd,Woodlawn Wind Farm,Wind,48.0,91.29,Woodlawn Wind Farm,-35.08,149.62,2026-02-25T11:54:40.689083
2026/02/25 21:55:00,WPWF,61.1,AGL SA Generation Pty Limited,Wattle Point Wind Farm,Wind,91.0,67.14,Wattle Point Wind Farm,-35.111624,137.7219,2026-02-25T11:54:40.689083
2026/02/25 21:55:00,WRWF1,128.97,White Rock Wind Farm Pty Ltd,White Rock Wind Farm,Wind,172.0,74.98,White Rock Wind Farm,-29.79,151.54,2026-02-25T11:54:40.689083
2026/02/25 21:55:00,YENDWF1,41.97,Lal Lal Wind Farms Nom Co Pty Ltd,Yendon Wind Farm,Wind,142.0,29.56,Yendon Wind Farm,-37.629987,144.022717,2026-02-25T11:54:40.689083
