SETTLEMENTDATE,DUID,SCADAVALUE,Participant,Station Name,Fuel Source - Primary,MAX_CAP,utilisation_pct,Plant,Latitude,Longitude,timestamp_utc
2026/04/22 05:50:00,CAPTL_WF,0.0,Iberdrola Australia Holdings Pty Limited,Capital Wind Farm,Wind,140.0,0.0,Capital Wind Farm,-35.1,149.31,2026-04-21T19:59:30.349501
2026/04/22 05:50:00,CHALLHWF,32.5,Pacific Hydro Challicum Hills Pty Ltd,Challicum Hills Wind Farm,Wind,52.0,62.5,Challicum Hills Wind Farm,-37.38,143.11,2026-04-21T19:59:30.349501
2026/04/22 05:50:00,CULLRGWF,4.85,Cullerin Range Wind Farm Pty Ltd,Cullerin Range Wind Farm,Wind,30.0,16.17,Cullerin Range Wind Farm,-34.81,149.4,2026-04-21T19:59:30.349501
2026/04/22 05:50:00,DIAPURWF1,7.3,Y.E.S. Energy (SA) Pty Ltd,Diapur Wind Farm,Wind,7.0,104.29,Diapur Wind Farm,-36.3425,141.43,2026-04-21T19:59:30.349501
2026/04/22 05:50:00,MLWF1,12.96,Mortons Lane Windfarm Pty Limited,Mortons Lane Wind Farm,Wind,20.0,64.8,Mortons Lane Wind Farm,-37.84,142.45,2026-04-21T19:59:30.349501
2026/04/22 05:50:00,WAUBRAWF,87.01,Pyrenees Wind Energy Developments Pty Ltd,Waubra Wind Farm,Wind,192.0,45.32,Waubra Wind Farm,-37.394498,143.638982,2026-04-21T19:59:30.349501
2026/04/22 05:50:00,WOOLNTH1,119.71,Hydro-Electric Corporation,Woolnorth Studland Bay / Bluff Point Wind Farm,Wind,140.0,85.51,Woolnorth Studland Bay / Bluff Point Wind Farm,-40.69,144.72,2026-04-21T19:59:30.349501
2026/04/22 05:50:00,YAMBUKWF,18.6,Energy Pacific (Vic) Pty Ltd,Yambuk Wind Farm,Wind,30.0,62.0,Yambuk Wind Farm,-38.299083,142.027577,2026-04-21T19:59:30.349501
2026/04/22 05:50:00,YSWF1,15.1,Pacific Hydro Yaloak South Pty Ltd,Yaloak South Wind Farm,Wind,28.0,53.93,Yaloak South Wind Farm,-37.7163,144.242853,2026-04-21T19:59:30.349501
2026/04/22 05:50:00,ARWF1,68.1,Ararat Wind Farm Pty Ltd,Ararat Wind Farm,Wind,241.0,28.26,Ararat Wind Farm,-37.232778,143.031389,2026-04-21T19:59:30.349501
2026/04/22 05:50:00,BALDHWF1,45.66,Alinta Energy Retail Sales Pty Ltd,Bald Hills Wind Farm,Wind,106.0,43.08,Bald Hills Wind Farm,-38.79,145.93,2026-04-21T19:59:30.349501
2026/04/22 05:50:00,BANGOWF1,67.8,BWF Nominees Pty Ltd as The Trustee for BWF Trust,Bango 973 Wind Farm,Wind,155.0,43.74,Bango 973 Wind Farm,-34.551582,148.732808,2026-04-21T19:59:30.349501
2026/04/22 05:50:00,BANGOWF2,37.2,BWF Nominees Pty Ltd as The Trustee for BWF Trust,Bango 999 Wind Farm,Wind,82.0,45.37,Bango 999 Wind Farm,-34.551582,148.732808,2026-04-21T19:59:30.349501
2026/04/22 05:50:00,BLUFF1,10.7,AGL SA Generation Pty Limited,The Bluff Wind Farm,Wind,53.0,20.19,The Bluff Wind Farm,-33.367778,138.728611,2026-04-21T19:59:30.349501
2026/04/22 05:50:00,BOCORWF1,4.47,Boco Rock Wind Farm Pty Ltd,Boco Rock Wind Farm,Wind,111.0,4.03,Boco Rock Wind Farm,-36.578611,149.103333,2026-04-21T19:59:30.349501
2026/04/22 05:50:00,BRYB1WF1,98.67,Berrybank Development Pty Ltd,Berrybank Wind Farm,Wind,175.9,56.09,Berrybank Wind Farm,-37.94,143.52,2026-04-21T19:59:30.349501
2026/04/22 05:50:00,BRYB2WF2,41.15,Berrybank 2 Asset Pty Ltd as trustee for Berrybank 2 Asset Trust,Berrybank 2 Wind Farm,Wind,105.0,39.19,Berrybank 2 Wind Farm,-37.94,143.52,2026-04-21T19:59:30.349501
2026/04/22 05:50:00,BULGANA1,42.92,Bulgana Wind Farm Pty Ltd,Bulgana Green Power Hub,Wind,204.0,21.04,Bulgana Green Power Hub,-37.0975,142.973611,2026-04-21T19:59:30.349501
2026/04/22 05:50:00,CATHROCK,12.3,Cathedral Rocks Wind Farm Pty Ltd,Cathedral Rocks,Wind,66.0,18.64,Cathedral Rocks,-34.51,135.35,2026-04-21T19:59:30.349501
2026/04/22 05:50:00,CHYTWF1,8.68,Cherry Tree Wind Farm Pty Ltd as trustee for The Cherry Tree Project trust ,Cherry Tree Wind Farm,Wind,57.0,15.23,Cherry Tree Wind Farm,-37.1,145.26,2026-04-21T19:59:30.349501
2026/04/22 05:50:00,CLEMGPWF,2.23,Pacific Hydro Clements Gap Pty Ltd,Clements Gap Wind Farm,Wind,57.0,3.91,Clements Gap Wind Farm,-33.48,138.1,2026-04-21T19:59:30.349501
2026/04/22 05:50:00,CLRKCWF1,179.33,Stanwell Corporation Limited ,Clarke Creek Wind Farm,Wind,338.0,53.06,Clarke Creek Wind Farm,-22.85,149.45,2026-04-21T19:59:30.349501
2026/04/22 05:50:00,CLRKCWF2,58.24,Stanwell Corporation Limited ,Clarke Creek Wind Farm,Wind,101.0,57.66,Clarke Creek Wind Farm,-22.85,149.45,2026-04-21T19:59:30.349501
2026/04/22 05:50:00,CNUNDAWF,22.93,Canunda Power Pty Ltd,Canunda Wind Farm,Wind,46.0,49.85,Canunda Wind Farm,-37.73,140.39,2026-04-21T19:59:30.349501
2026/04/22 05:50:00,COLWF01,19.57,Collector Wind Farm Pty Ltd,Collector Wind Farm 1,Wind,219.0,8.94,Collector Wind Farm 1,-34.8719,149.3967,2026-04-21T19:59:30.349501
2026/04/22 05:50:00,COOPGWF1,47.63,PARF Company 10 Pty Limited as The Trustee for Coopers Gap Project Trust,Coopers Gap Wind Farm,Wind,440.0,10.82,Coopers Gap Wind Farm,-26.74,151.45,2026-04-21T19:59:30.349501
2026/04/22 05:50:00,CROOKWF2,17.02,Crookwell Development Pty Ltd ,Crookwell 2 Wind Farm,Wind,91.0,18.7,Crookwell 2 Wind Farm,-34.52,149.54,2026-04-21T19:59:30.349501
2026/04/22 05:50:00,CROOKWF3,8.09,Crookwell 3 Development Pty Ltd,Crookwell 3 Wind Farm,Wind,56.0,14.45,Crookwell 3 Wind Farm,-34.52,149.54,2026-04-21T19:59:30.349501
2026/04/22 05:50:00,CROWLWF1,46.58,Pacific Hydro Crowlands Pty Ltd ,Crowlands Wind Farm,Wind,79.0,58.96,Crowlands Wind Farm,-37.13,143.16,2026-04-21T19:59:30.349501
2026/04/22 05:50:00,CRURWF1,79.7,CRWF Nominees Pty Ltd As Trustee For The CRWF Trust,Crudine Ridge Wind Farm,Wind,138.0,57.75,Crudine Ridge Wind Farm,-32.97,149.64,2026-04-21T19:59:30.349501
2026/04/22 05:50:00,CTHLWF1,111.76,Wild Cattle Hill Pty Ltd,Cattle Hill Wind Farm,Wind,144.0,77.61,Cattle Hill Wind Farm,-42.15,146.69,2026-04-21T19:59:30.349501
2026/04/22 05:50:00,DULAWF1,171.1,Dulacca Energy Project Co Pty Ltd,Dulacca Wind Farm,Wind,173.0,98.9,Dulacca Wind Farm,-26.63,149.87,2026-04-21T19:59:30.349501
2026/04/22 05:50:00,DUNDWF1,85.05,Dundonnell Wind Farm Pty Ltd,Dundonnell Wind Farm,Wind,168.0,50.62,Dundonnell Wind Farm,-37.52,142.58,2026-04-21T19:59:30.349501
2026/04/22 05:50:00,DUNDWF2,21.31,Dundonnell Wind Farm Pty Ltd,Dundonnell Wind Farm,Wind,46.0,46.33,Dundonnell Wind Farm,-37.52,142.58,2026-04-21T19:59:30.349501
2026/04/22 05:50:00,DUNDWF3,61.77,Dundonnell Wind Farm Pty Ltd,Dundonnell Wind Farm,Wind,122.0,50.63,Dundonnell Wind Farm,-37.52,142.58,2026-04-21T19:59:30.349501
2026/04/22 05:50:00,ELAINWF1,56.66,Lal Lal Wind Farms Nom Co Pty Ltd,Elaine Wind Farm,Wind,82.0,69.1,Elaine Wind Farm,-37.36,144.0,2026-04-21T19:59:30.349501
2026/04/22 05:50:00,FLYCRKWF,59.54,Iberdrola Australia Energy Markets Pty Limited,Flyers Creek Wind Farm,Wind,140.0,42.53,Flyers Creek Wind Farm,-33.365556,148.981944,2026-04-21T19:59:30.349501
2026/04/22 05:50:00,GPWFEST1,43.58,Golden Plains WF1 Pty Ltd as Trustee for the Golden Plains WF1 Unit Trust,Golden Plains Wind Farm East,Wind,240.0,18.16,Golden Plains Wind Farm East,-37.945091,143.752614,2026-04-21T19:59:30.349501
2026/04/22 05:50:00,GPWFEST2,190.24,Golden Plains WF1 Pty Ltd as Trustee for the Golden Plains WF1 Unit Trust,Golden Plains Wind Farm East,Wind,253.0,75.19,Golden Plains Wind Farm East,-37.945091,143.752614,2026-04-21T19:59:30.349501
2026/04/22 05:50:00,GPWFEST3,136.6,Golden Plains WF1 Pty Ltd as Trustee for the Golden Plains WF1 Unit Trust,Golden Plains Wind Farm East,Wind,240.0,56.92,Golden Plains Wind Farm East,-37.945091,143.752614,2026-04-21T19:59:30.349501
2026/04/22 05:50:00,GRANWF1,104.41,Granville Harbour Operations Pty Ltd as The Trustee for Granville Harbour Operations Trust,Granville Harbour Wind Farm,Wind,111.0,94.06,Granville Harbour Wind Farm,-41.8,145.06,2026-04-21T19:59:30.349501
2026/04/22 05:50:00,GSWF1A,24.89,Goyder Wind Farm 1 Pty Ltd as the Trustee for Goyder Wind Farm 1 Trust,Goyder South Wind Farm 1A,Wind,201.0,12.38,Goyder South Wind Farm 1A,-33.679758,138.937597,2026-04-21T19:59:30.349501
2026/04/22 05:50:00,GSWF1B1,11.1,Goyder Wind Farm 1B Pty Ltd as the Trustee for the Goyder Wind Farm 1B Trust,Goyder South Wind Farm 1B,Wind,196.0,5.66,Goyder South Wind Farm 1B,-33.679758,138.937597,2026-04-21T19:59:30.349501
2026/04/22 05:50:00,GULLRWF1,33.68,New Gullen Range Wind Farm Pty Ltd,Gullen Range Wind Farm,Wind,161.0,20.92,Gullen Range Wind Farm,-34.34,149.27,2026-04-21T19:59:30.349501
2026/04/22 05:50:00,GULLRWF2,54.92,New Gullen Range Wind Farm Pty Ltd,Gullen Range Wind Farm,Wind,107.0,51.33,Gullen Range Wind Farm,-34.34,149.27,2026-04-21T19:59:30.349501
2026/04/22 05:50:00,GUNNING1,11.3,Gunning Wind Energy Developments Pty Ltd,Gunning Wind Farm,Wind,47.0,24.04,Gunning Wind Farm,-34.813333,149.4,2026-04-21T19:59:30.349501
2026/04/22 05:50:00,HALLWF1,23.84,AGL SA Generation Pty Limited,Hallett 1 Wind Farm,Wind,95.0,25.09,Hallett 1 Wind Farm,-33.367778,138.728611,2026-04-21T19:59:30.349501
2026/04/22 05:50:00,HALLWF2,9.77,AGL SA Generation Pty Limited,Hallett 2 Wind Farm,Wind,71.0,13.76,Hallett 2 Wind Farm,-33.367778,138.728611,2026-04-21T19:59:30.349501
2026/04/22 05:50:00,HD1WF1,81.88,Hawkesdale Asset Pty Ltd as trustee for Hawkesdale Asset Trust,Hawkesdale Wind Farm,Wind,89.0,92.0,Hawkesdale Wind Farm,-38.147894,142.361381,2026-04-21T19:59:30.349501
2026/04/22 05:50:00,HDWF1,18.3,HWF1 Pty Ltd,Hornsdale Wind Farm,Wind,102.0,17.94,Hornsdale Wind Farm,-33.050556,138.543611,2026-04-21T19:59:30.349501
2026/04/22 05:50:00,HDWF2,16.1,HWF 2 Pty Ltd,Hornsdale Wind Farm 2,Wind,102.0,15.78,Hornsdale Wind Farm 2,-33.06,138.54,2026-04-21T19:59:30.349501
2026/04/22 05:50:00,HDWF3,15.1,HWF3 Pty Ltd,Hornsdale Wind Farm 3,Wind,109.0,13.85,Hornsdale Wind Farm 3,-33.06,138.54,2026-04-21T19:59:30.349501
2026/04/22 05:50:00,KABANWF1,79.35,Kaban Wind Farm Pty Ltd as trustee for Kaban Wind Farm Trust,Kaban Wind Farm,Wind,152.0,52.2,Kaban Wind Farm,-17.56,145.41,2026-04-21T19:59:30.349501
2026/04/22 05:50:00,KEPWF1,27.2,Kennedy Energy Park Pty Ltd,Kennedy Energy Park,Wind,43.0,63.26,Kennedy Energy Park,-20.88,144.42,2026-04-21T19:59:30.349501
2026/04/22 05:50:00,KIATAWF1,30.9,Kiata ProjectCo Pty Ltd Atf Kiata Project Trust,Kiata Wind Farm,Wind,31.0,99.68,Kiata Wind Farm,-36.4,141.75,2026-04-21T19:59:30.349501
2026/04/22 05:50:00,LGAPWF1,23.34,Lincoln Gap Wind Farm (Operations) Pty Ltd,Lincoln Gap Wind Farm,Wind,123.0,18.98,Lincoln Gap Wind Farm,-32.564279,137.557328,2026-04-21T19:59:30.349501
2026/04/22 05:50:00,LGAPWF1,23.34,Lincoln Gap Wind Farm (Operations) Pty Ltd,Lincoln Gap Wind Farm,Wind,123.0,18.98,Lincoln Gap Wind Farm,-32.564279,137.557328,2026-04-21T19:59:30.349501
2026/04/22 05:50:00,LGAPWF2,25.37,Lincoln Gap Wind Farm (Operations) Pty Ltd,Lincoln Gap Wind Farm,Wind,85.0,29.85,Lincoln Gap Wind Farm,-32.564279,137.557328,2026-04-21T19:59:30.349501
2026/04/22 05:50:00,LGAPWF2,25.37,Lincoln Gap Wind Farm (Operations) Pty Ltd,Lincoln Gap Wind Farm,Wind,85.0,29.85,Lincoln Gap Wind Farm,-32.564279,137.557328,2026-04-21T19:59:30.349501
2026/04/22 05:50:00,LKBONNY1,30.81,Lake Bonney Wind Power Pty Ltd,Lake Bonney Wind Farm Stage 1,Wind,81.0,38.04,Lake Bonney Wind Farm Stage 1,-37.76,140.4,2026-04-21T19:59:30.349501
2026/04/22 05:50:00,LKBONNY2,70.48,Lake Bonney Wind Power Pty Ltd,Lake Bonney Stage 2 Windfarm,Wind,159.0,44.33,Lake Bonney Stage 2 Windfarm,-37.76,140.4,2026-04-21T19:59:30.349501
2026/04/22 05:50:00,LKBONNY3,15.02,Lake Bonney Wind Power Pty Ltd,Lake Bonney Stage 3 Wind Farm,Wind,39.0,38.51,Lake Bonney Stage 3 Wind Farm,-37.737781,140.388137,2026-04-21T19:59:30.349501
2026/04/22 05:50:00,MACARTH1,284.8,AGL Hydro Partnership,Macarthur Wind Farm,Wind,420.0,67.81,Macarthur Wind Farm,-38.048957,142.192112,2026-04-21T19:59:30.349501
2026/04/22 05:50:00,MCINTYR1,353.62,MacIntyre UJV Operator Pty Ltd,MacIntyre Wind Farm,Wind,890.0,39.73,MacIntyre Wind Farm,-28.32,151.54,2026-04-21T19:59:30.349501
2026/04/22 05:50:00,MERCER01,62.3,Mt Mercer Windfarm Pty Ltd,Mt Mercer Wind Farm,Wind,131.0,47.56,Mt Mercer Wind Farm,-37.841111,143.871111,2026-04-21T19:59:30.349501
2026/04/22 05:50:00,MEWF1,142.15,Ergon Energy Queensland Pty Ltd ,Mount Emerald Wind Farm,Wind,178.0,79.86,Mount Emerald Wind Farm,-17.133007,145.380644,2026-04-21T19:59:30.349501
2026/04/22 05:50:00,MRTLSWF1,90.63,Mortlake South Wind Farm Pty Ltd,Mortlake South Wind Farm,Wind,153.0,59.24,Mortlake South Wind Farm,-38.127337,142.857801,2026-04-21T19:59:30.349501
2026/04/22 05:50:00,MTGELWF1,0.0,Mt. Gellibrand Wind Farm Pty Ltd,Mt Gellibrand Wind Farm,Wind,132.0,0.0,Mt Gellibrand Wind Farm,-38.23,143.77,2026-04-21T19:59:30.349501
2026/04/22 05:50:00,MTMILLAR,47.0,Mt Millar Wind Farm Pty Ltd,Mt Millar Wind Farm,Wind,70.0,67.14,Mt Millar Wind Farm,-33.624444,136.703611,2026-04-21T19:59:30.349501
2026/04/22 05:50:00,MUSSELR1,16.5,Hydro-Electric Corporation,Musselroe Wind Farm,Wind,168.0,9.82,Musselroe Wind Farm,-40.780225,148.010799,2026-04-21T19:59:30.349501
2026/04/22 05:50:00,MUWAWF1,202.34,Telstra Energy (Generation) Pty Ltd,Murra Warra Wind Farm,Wind,225.7,89.65,Murra Warra Wind Farm,-36.432404,142.317853,2026-04-21T19:59:30.349501
2026/04/22 05:50:00,MUWAWF2,183.4,Murra Warra II Project Co Pty Ltd ATF The Murra Warra II Project Trust,Murra Warra Wind Farm Stage 2,Wind,203.0,90.34,Murra Warra Wind Farm Stage 2,-36.43,142.32,2026-04-21T19:59:30.349501
2026/04/22 05:50:00,NBHWF1,25.9,AGL SA Generation Pty Limited,North Brown Hill Wind Farm,Wind,132.0,19.62,North Brown Hill Wind Farm,-33.367778,138.728611,2026-04-21T19:59:30.349501
2026/04/22 05:50:00,OAKLAND1,44.0,AGL Hydro Partnership,Oaklands Hill Wind Farm,Wind,63.0,69.84,Oaklands Hill Wind Farm,-37.683078,142.551678,2026-04-21T19:59:30.349501
2026/04/22 05:50:00,PAREPW1,5.26,Iberdrola Australia Energy Markets Pty Limited,Port Augusta Renewable Energy Park,Wind,201.0,2.62,Port Augusta Renewable Energy Park,-32.566944,137.856111,2026-04-21T19:59:30.349501
2026/04/22 05:50:00,RYANCWF1,169.06,Ryan Corner Development Pty Ltd,Ryan Corner Wind Farm,Wind,205.0,82.47,Ryan Corner Wind Farm,-38.271017,142.140647,2026-04-21T19:59:30.349501
2026/04/22 05:50:00,RYEPARK1,151.09,Rye Park Renewable Energy Pty Ltd as trustee for Rye Park Wind Farm Trust,Rye Park Renewable Energy,Wind,384.0,39.35,Rye Park Renewable Energy,-32.138333,148.972778,2026-04-21T19:59:30.349501
2026/04/22 05:50:00,SALTCRK1,45.13,Salt Creek Wind Farm Pty Ltd,Salt Creek Wind Farm,Wind,54.0,83.57,Salt Creek Wind Farm,-37.95,142.63,2026-04-21T19:59:30.349501
2026/04/22 05:50:00,SAPHWF1,54.13,The Trustee For The SWF1 Operations Trust,Sapphire Wind Farm,Wind,270.0,20.05,Sapphire Wind Farm,-29.7,151.41,2026-04-21T19:59:30.349501
2026/04/22 05:50:00,SNOWNTH1,43.0,Snowtown Wind Farm Stage 2 Pty Ltd,Snowtown Wind Farm Stage 2 North,Wind,144.0,29.86,Snowtown Wind Farm Stage 2 North,-33.83,138.118611,2026-04-21T19:59:30.349501
2026/04/22 05:50:00,SNOWSTH1,87.1,Snowtown Wind Farm Stage 2 Pty Ltd,Snowtown South Wind Farm,Wind,126.0,69.13,Snowtown South Wind Farm,-33.83,138.118611,2026-04-21T19:59:30.349501
2026/04/22 05:50:00,SNOWTWN1,41.4,Snowtown Wind Farm Pty Ltd,Snowtown Wind Farm Units 1 And 47,Wind,99.0,41.82,Snowtown Wind Farm Units 1 And 47,-33.83,138.118611,2026-04-21T19:59:30.349501
2026/04/22 05:50:00,STARHLWF,5.8,Starfish Hill Wind Farm Pty Ltd,Starfish Hill Wind Farm,Wind,35.0,16.57,Starfish Hill Wind Farm,-35.58,138.14,2026-04-21T19:59:30.349501
2026/04/22 05:50:00,STOCKYD1,325.62,Stockyard Hill Wind Farm Pty Ltd,Stockyard Hill Wind Farm,Wind,511.0,63.72,Stockyard Hill Wind Farm,-37.535833,143.251389,2026-04-21T19:59:30.349501
2026/04/22 05:50:00,STWF1,66.24,PARF Company 8 Pty Ltd as The Trustee for Silverton Project Trust,Silverton Wind Farm,Wind,198.0,33.45,Silverton Wind Farm,-37.683168,142.551678,2026-04-21T19:59:30.349501
2026/04/22 05:50:00,TARALGA1,8.0,Taralga Wind Farm Nominees No 2 Pty Ltd (ATF Taralga Wind Farm Operating Trust),Taralga Wind Farm,Wind,106.0,7.55,Taralga Wind Farm,-34.42352,149.826267,2026-04-21T19:59:30.349501
2026/04/22 05:50:00,WAMBOWF1,37.88,Stanwell Corporation Limited,Wambo Wind Farm 1,Wind,245.0,15.46,Wambo Wind Farm 1,-35.187301,149.524945,2026-04-21T19:59:30.349501
2026/04/22 05:50:00,WATERLWF,0.0,Waterloo Wind Farm Pty Ltd,Waterloo Wind Farm,Wind,130.0,0.0,Waterloo Wind Farm,-34.00094,138.911567,2026-04-21T19:59:30.349501
2026/04/22 05:50:00,WGWF1,20.7,Willogoleche Power Pty Ltd As The Trustee For The Willogoleche Operating Trust,Willogoleche Wind Farm,Wind,119.0,17.39,Willogoleche Wind Farm,-33.39,138.85,2026-04-21T19:59:30.349501
2026/04/22 05:50:00,WOODLWN1,5.85,Woodlawn Wind Pty Ltd,Woodlawn Wind Farm,Wind,48.0,12.19,Woodlawn Wind Farm,-35.08,149.62,2026-04-21T19:59:30.349501
2026/04/22 05:50:00,WPWF,1.38,AGL SA Generation Pty Limited,Wattle Point Wind Farm,Wind,91.0,1.52,Wattle Point Wind Farm,-35.111624,137.7219,2026-04-21T19:59:30.349501
2026/04/22 05:50:00,WRWF1,52.88,White Rock Wind Farm Pty Ltd,White Rock Wind Farm,Wind,172.0,30.74,White Rock Wind Farm,-29.79,151.54,2026-04-21T19:59:30.349501
2026/04/22 05:50:00,YENDWF1,104.47,Lal Lal Wind Farms Nom Co Pty Ltd,Yendon Wind Farm,Wind,142.0,73.57,Yendon Wind Farm,-37.629987,144.022717,2026-04-21T19:59:30.349501
