SETTLEMENTDATE,DUID,SCADAVALUE,Participant,Station Name,Fuel Source - Primary,MAX_CAP,utilisation_pct,Plant,Latitude,Longitude,timestamp_utc
2026/04/01 01:20:00,CAPTL_WF,0.0,Iberdrola Australia Holdings Pty Limited,Capital Wind Farm,Wind,140.0,0.0,Capital Wind Farm,-35.1,149.31,2026-03-31T15:19:28.332705
2026/04/01 01:20:00,CHALLHWF,32.9,Pacific Hydro Challicum Hills Pty Ltd,Challicum Hills Wind Farm,Wind,52.0,63.27,Challicum Hills Wind Farm,-37.38,143.11,2026-03-31T15:19:28.332705
2026/04/01 01:20:00,CULLRGWF,1.03,Cullerin Range Wind Farm Pty Ltd,Cullerin Range Wind Farm,Wind,30.0,3.43,Cullerin Range Wind Farm,-34.81,149.4,2026-03-31T15:19:28.332705
2026/04/01 01:20:00,DIAPURWF1,0.0,Y.E.S. Energy (SA) Pty Ltd,Diapur Wind Farm,Wind,7.0,0.0,Diapur Wind Farm,-36.3425,141.43,2026-03-31T15:19:28.332705
2026/04/01 01:20:00,MLWF1,16.07,Mortons Lane Windfarm Pty Limited,Mortons Lane Wind Farm,Wind,20.0,80.35,Mortons Lane Wind Farm,-37.84,142.45,2026-03-31T15:19:28.332705
2026/04/01 01:20:00,WAUBRAWF,109.39,Pyrenees Wind Energy Developments Pty Ltd,Waubra Wind Farm,Wind,192.0,56.97,Waubra Wind Farm,-37.394498,143.638982,2026-03-31T15:19:28.332705
2026/04/01 01:20:00,WOOLNTH1,84.46,Hydro-Electric Corporation,Woolnorth Studland Bay / Bluff Point Wind Farm,Wind,140.0,60.33,Woolnorth Studland Bay / Bluff Point Wind Farm,-40.69,144.72,2026-03-31T15:19:28.332705
2026/04/01 01:20:00,YAMBUKWF,11.2,Energy Pacific (Vic) Pty Ltd,Yambuk Wind Farm,Wind,30.0,37.33,Yambuk Wind Farm,-38.299083,142.027577,2026-03-31T15:19:28.332705
2026/04/01 01:20:00,YSWF1,22.1,Pacific Hydro Yaloak South Pty Ltd,Yaloak South Wind Farm,Wind,28.0,78.93,Yaloak South Wind Farm,-37.7163,144.242853,2026-03-31T15:19:28.332705
2026/04/01 01:20:00,ARWF1,94.2,Ararat Wind Farm Pty Ltd,Ararat Wind Farm,Wind,241.0,39.09,Ararat Wind Farm,-37.232778,143.031389,2026-03-31T15:19:28.332705
2026/04/01 01:20:00,BALDHWF1,49.89,Alinta Energy Retail Sales Pty Ltd,Bald Hills Wind Farm,Wind,106.0,47.07,Bald Hills Wind Farm,-38.79,145.93,2026-03-31T15:19:28.332705
2026/04/01 01:20:00,BANGOWF1,21.7,BWF Nominees Pty Ltd as The Trustee for BWF Trust,Bango 973 Wind Farm,Wind,155.0,14.0,Bango 973 Wind Farm,-34.551582,148.732808,2026-03-31T15:19:28.332705
2026/04/01 01:20:00,BANGOWF2,10.6,BWF Nominees Pty Ltd as The Trustee for BWF Trust,Bango 999 Wind Farm,Wind,82.0,12.93,Bango 999 Wind Farm,-34.551582,148.732808,2026-03-31T15:19:28.332705
2026/04/01 01:20:00,BLUFF1,47.9,AGL SA Generation Pty Limited,The Bluff Wind Farm,Wind,53.0,90.38,The Bluff Wind Farm,-33.367778,138.728611,2026-03-31T15:19:28.332705
2026/04/01 01:20:00,BOCORWF1,45.35,Boco Rock Wind Farm Pty Ltd,Boco Rock Wind Farm,Wind,111.0,40.86,Boco Rock Wind Farm,-36.578611,149.103333,2026-03-31T15:19:28.332705
2026/04/01 01:20:00,BRYB1WF1,154.74,Berrybank Development Pty Ltd,Berrybank Wind Farm,Wind,175.9,87.97,Berrybank Wind Farm,-37.94,143.52,2026-03-31T15:19:28.332705
2026/04/01 01:20:00,BRYB2WF2,79.98,Berrybank 2 Asset Pty Ltd as trustee for Berrybank 2 Asset Trust,Berrybank 2 Wind Farm,Wind,105.0,76.17,Berrybank 2 Wind Farm,-37.94,143.52,2026-03-31T15:19:28.332705
2026/04/01 01:20:00,BULGANA1,115.64,Bulgana Wind Farm Pty Ltd,Bulgana Green Power Hub,Wind,204.0,56.69,Bulgana Green Power Hub,-37.0975,142.973611,2026-03-31T15:19:28.332705
2026/04/01 01:20:00,CATHROCK,31.8,Cathedral Rocks Wind Farm Pty Ltd,Cathedral Rocks,Wind,66.0,48.18,Cathedral Rocks,-34.51,135.35,2026-03-31T15:19:28.332705
2026/04/01 01:20:00,CHYTWF1,52.74,Cherry Tree Wind Farm Pty Ltd as trustee for The Cherry Tree Project trust ,Cherry Tree Wind Farm,Wind,57.0,92.53,Cherry Tree Wind Farm,-37.1,145.26,2026-03-31T15:19:28.332705
2026/04/01 01:20:00,CLEMGPWF,52.37,Pacific Hydro Clements Gap Pty Ltd,Clements Gap Wind Farm,Wind,57.0,91.88,Clements Gap Wind Farm,-33.48,138.1,2026-03-31T15:19:28.332705
2026/04/01 01:20:00,CLRKCWF1,254.64,Stanwell Corporation Limited ,Clarke Creek Wind Farm,Wind,338.0,75.34,Clarke Creek Wind Farm,-22.85,149.45,2026-03-31T15:19:28.332705
2026/04/01 01:20:00,CLRKCWF2,91.62,Stanwell Corporation Limited ,Clarke Creek Wind Farm,Wind,101.0,90.71,Clarke Creek Wind Farm,-22.85,149.45,2026-03-31T15:19:28.332705
2026/04/01 01:20:00,CNUNDAWF,13.72,Canunda Power Pty Ltd,Canunda Wind Farm,Wind,46.0,29.83,Canunda Wind Farm,-37.73,140.39,2026-03-31T15:19:28.332705
2026/04/01 01:20:00,COLWF01,5.09,Collector Wind Farm Pty Ltd,Collector Wind Farm 1,Wind,219.0,2.32,Collector Wind Farm 1,-34.8719,149.3967,2026-03-31T15:19:28.332705
2026/04/01 01:20:00,COOPGWF1,319.83,PARF Company 10 Pty Limited as The Trustee for Coopers Gap Project Trust,Coopers Gap Wind Farm,Wind,440.0,72.69,Coopers Gap Wind Farm,-26.74,151.45,2026-03-31T15:19:28.332705
2026/04/01 01:20:00,CROOKWF2,14.15,Crookwell Development Pty Ltd ,Crookwell 2 Wind Farm,Wind,91.0,15.55,Crookwell 2 Wind Farm,-34.52,149.54,2026-03-31T15:19:28.332705
2026/04/01 01:20:00,CROOKWF3,0.0,Crookwell 3 Development Pty Ltd,Crookwell 3 Wind Farm,Wind,56.0,0.0,Crookwell 3 Wind Farm,-34.52,149.54,2026-03-31T15:19:28.332705
2026/04/01 01:20:00,CROWLWF1,69.97,Pacific Hydro Crowlands Pty Ltd ,Crowlands Wind Farm,Wind,79.0,88.57,Crowlands Wind Farm,-37.13,143.16,2026-03-31T15:19:28.332705
2026/04/01 01:20:00,CRURWF1,11.7,CRWF Nominees Pty Ltd As Trustee For The CRWF Trust,Crudine Ridge Wind Farm,Wind,138.0,8.48,Crudine Ridge Wind Farm,-32.97,149.64,2026-03-31T15:19:28.332705
2026/04/01 01:20:00,CTHLWF1,128.04,Wild Cattle Hill Pty Ltd,Cattle Hill Wind Farm,Wind,144.0,88.92,Cattle Hill Wind Farm,-42.15,146.69,2026-03-31T15:19:28.332705
2026/04/01 01:20:00,DULAWF1,118.3,Dulacca Energy Project Co Pty Ltd,Dulacca Wind Farm,Wind,173.0,68.38,Dulacca Wind Farm,-26.63,149.87,2026-03-31T15:19:28.332705
2026/04/01 01:20:00,DUNDWF1,83.96,Dundonnell Wind Farm Pty Ltd,Dundonnell Wind Farm,Wind,168.0,49.98,Dundonnell Wind Farm,-37.52,142.58,2026-03-31T15:19:28.332705
2026/04/01 01:20:00,DUNDWF2,23.16,Dundonnell Wind Farm Pty Ltd,Dundonnell Wind Farm,Wind,46.0,50.35,Dundonnell Wind Farm,-37.52,142.58,2026-03-31T15:19:28.332705
2026/04/01 01:20:00,DUNDWF3,61.0,Dundonnell Wind Farm Pty Ltd,Dundonnell Wind Farm,Wind,122.0,50.0,Dundonnell Wind Farm,-37.52,142.58,2026-03-31T15:19:28.332705
2026/04/01 01:20:00,ELAINWF1,75.74,Lal Lal Wind Farms Nom Co Pty Ltd,Elaine Wind Farm,Wind,82.0,92.37,Elaine Wind Farm,-37.36,144.0,2026-03-31T15:19:28.332705
2026/04/01 01:20:00,FLYCRKWF,80.56,Iberdrola Australia Energy Markets Pty Limited,Flyers Creek Wind Farm,Wind,140.0,57.54,Flyers Creek Wind Farm,-33.365556,148.981944,2026-03-31T15:19:28.332705
2026/04/01 01:20:00,GPWFEST1,0.0,Golden Plains WF1 Pty Ltd as Trustee for the Golden Plains WF1 Unit Trust,Golden Plains Wind Farm East,Wind,240.0,0.0,Golden Plains Wind Farm East,-37.945091,143.752614,2026-03-31T15:19:28.332705
2026/04/01 01:20:00,GPWFEST2,0.0,Golden Plains WF1 Pty Ltd as Trustee for the Golden Plains WF1 Unit Trust,Golden Plains Wind Farm East,Wind,253.0,0.0,Golden Plains Wind Farm East,-37.945091,143.752614,2026-03-31T15:19:28.332705
2026/04/01 01:20:00,GPWFEST3,207.16,Golden Plains WF1 Pty Ltd as Trustee for the Golden Plains WF1 Unit Trust,Golden Plains Wind Farm East,Wind,240.0,86.32,Golden Plains Wind Farm East,-37.945091,143.752614,2026-03-31T15:19:28.332705
2026/04/01 01:20:00,GRANWF1,102.85,Granville Harbour Operations Pty Ltd as The Trustee for Granville Harbour Operations Trust,Granville Harbour Wind Farm,Wind,111.0,92.66,Granville Harbour Wind Farm,-41.8,145.06,2026-03-31T15:19:28.332705
2026/04/01 01:20:00,GSWF1A,195.95,Goyder Wind Farm 1 Pty Ltd as the Trustee for Goyder Wind Farm 1 Trust,Goyder South Wind Farm 1A,Wind,201.0,97.49,Goyder South Wind Farm 1A,-33.679758,138.937597,2026-03-31T15:19:28.332705
2026/04/01 01:20:00,GSWF1B1,192.68,Goyder Wind Farm 1B Pty Ltd as the Trustee for the Goyder Wind Farm 1B Trust,Goyder South Wind Farm 1B,Wind,196.0,98.31,Goyder South Wind Farm 1B,-33.679758,138.937597,2026-03-31T15:19:28.332705
2026/04/01 01:20:00,GULLRWF1,11.41,New Gullen Range Wind Farm Pty Ltd,Gullen Range Wind Farm,Wind,161.0,7.09,Gullen Range Wind Farm,-34.34,149.27,2026-03-31T15:19:28.332705
2026/04/01 01:20:00,GULLRWF2,9.11,New Gullen Range Wind Farm Pty Ltd,Gullen Range Wind Farm,Wind,107.0,8.51,Gullen Range Wind Farm,-34.34,149.27,2026-03-31T15:19:28.332705
2026/04/01 01:20:00,GUNNING1,0.44,Gunning Wind Energy Developments Pty Ltd,Gunning Wind Farm,Wind,47.0,0.94,Gunning Wind Farm,-34.813333,149.4,2026-03-31T15:19:28.332705
2026/04/01 01:20:00,HALLWF1,78.7,AGL SA Generation Pty Limited,Hallett 1 Wind Farm,Wind,95.0,82.84,Hallett 1 Wind Farm,-33.367778,138.728611,2026-03-31T15:19:28.332705
2026/04/01 01:20:00,HALLWF2,55.88,AGL SA Generation Pty Limited,Hallett 2 Wind Farm,Wind,71.0,78.7,Hallett 2 Wind Farm,-33.367778,138.728611,2026-03-31T15:19:28.332705
2026/04/01 01:20:00,HD1WF1,0.0,Hawkesdale Asset Pty Ltd as trustee for Hawkesdale Asset Trust,Hawkesdale Wind Farm,Wind,89.0,0.0,Hawkesdale Wind Farm,-38.147894,142.361381,2026-03-31T15:19:28.332705
2026/04/01 01:20:00,HDWF1,84.3,HWF1 Pty Ltd,Hornsdale Wind Farm,Wind,102.0,82.65,Hornsdale Wind Farm,-33.050556,138.543611,2026-03-31T15:19:28.332705
2026/04/01 01:20:00,HDWF2,84.0,HWF 2 Pty Ltd,Hornsdale Wind Farm 2,Wind,102.0,82.35,Hornsdale Wind Farm 2,-33.06,138.54,2026-03-31T15:19:28.332705
2026/04/01 01:20:00,HDWF3,89.3,HWF3 Pty Ltd,Hornsdale Wind Farm 3,Wind,109.0,81.93,Hornsdale Wind Farm 3,-33.06,138.54,2026-03-31T15:19:28.332705
2026/04/01 01:20:00,KABANWF1,53.5,Kaban Wind Farm Pty Ltd as trustee for Kaban Wind Farm Trust,Kaban Wind Farm,Wind,152.0,35.2,Kaban Wind Farm,-17.56,145.41,2026-03-31T15:19:28.332705
2026/04/01 01:20:00,KEPWF1,27.2,Kennedy Energy Park Pty Ltd,Kennedy Energy Park,Wind,43.0,63.26,Kennedy Energy Park,-20.88,144.42,2026-03-31T15:19:28.332705
2026/04/01 01:20:00,KIATAWF1,27.4,Kiata ProjectCo Pty Ltd Atf Kiata Project Trust,Kiata Wind Farm,Wind,31.0,88.39,Kiata Wind Farm,-36.4,141.75,2026-03-31T15:19:28.332705
2026/04/01 01:20:00,LGAPWF1,33.32,Lincoln Gap Wind Farm (Operations) Pty Ltd,Lincoln Gap Wind Farm,Wind,123.0,27.09,Lincoln Gap Wind Farm,-32.564279,137.557328,2026-03-31T15:19:28.332705
2026/04/01 01:20:00,LGAPWF1,33.32,Lincoln Gap Wind Farm (Operations) Pty Ltd,Lincoln Gap Wind Farm,Wind,123.0,27.09,Lincoln Gap Wind Farm,-32.564279,137.557328,2026-03-31T15:19:28.332705
2026/04/01 01:20:00,LGAPWF2,48.66,Lincoln Gap Wind Farm (Operations) Pty Ltd,Lincoln Gap Wind Farm,Wind,85.0,57.25,Lincoln Gap Wind Farm,-32.564279,137.557328,2026-03-31T15:19:28.332705
2026/04/01 01:20:00,LGAPWF2,48.66,Lincoln Gap Wind Farm (Operations) Pty Ltd,Lincoln Gap Wind Farm,Wind,85.0,57.25,Lincoln Gap Wind Farm,-32.564279,137.557328,2026-03-31T15:19:28.332705
2026/04/01 01:20:00,LKBONNY1,23.85,Lake Bonney Wind Power Pty Ltd,Lake Bonney Wind Farm Stage 1,Wind,81.0,29.44,Lake Bonney Wind Farm Stage 1,-37.76,140.4,2026-03-31T15:19:28.332705
2026/04/01 01:20:00,LKBONNY2,36.07,Lake Bonney Wind Power Pty Ltd,Lake Bonney Stage 2 Windfarm,Wind,159.0,22.69,Lake Bonney Stage 2 Windfarm,-37.76,140.4,2026-03-31T15:19:28.332705
2026/04/01 01:20:00,LKBONNY3,3.91,Lake Bonney Wind Power Pty Ltd,Lake Bonney Stage 3 Wind Farm,Wind,39.0,10.03,Lake Bonney Stage 3 Wind Farm,-37.737781,140.388137,2026-03-31T15:19:28.332705
2026/04/01 01:20:00,MACARTH1,271.6,AGL Hydro Partnership,Macarthur Wind Farm,Wind,420.0,64.67,Macarthur Wind Farm,-38.048957,142.192112,2026-03-31T15:19:28.332705
2026/04/01 01:20:00,MCINTYR1,264.58,MacIntyre UJV Operator Pty Ltd,MacIntyre Wind Farm,Wind,890.0,29.73,MacIntyre Wind Farm,-28.32,151.54,2026-03-31T15:19:28.332705
2026/04/01 01:20:00,MERCER01,81.8,Mt Mercer Windfarm Pty Ltd,Mt Mercer Wind Farm,Wind,131.0,62.44,Mt Mercer Wind Farm,-37.841111,143.871111,2026-03-31T15:19:28.332705
2026/04/01 01:20:00,MEWF1,115.93,Ergon Energy Queensland Pty Ltd ,Mount Emerald Wind Farm,Wind,178.0,65.13,Mount Emerald Wind Farm,-17.133007,145.380644,2026-03-31T15:19:28.332705
2026/04/01 01:20:00,MRTLSWF1,122.33,Mortlake South Wind Farm Pty Ltd,Mortlake South Wind Farm,Wind,153.0,79.95,Mortlake South Wind Farm,-38.127337,142.857801,2026-03-31T15:19:28.332705
2026/04/01 01:20:00,MTGELWF1,64.83,Mt. Gellibrand Wind Farm Pty Ltd,Mt Gellibrand Wind Farm,Wind,132.0,49.11,Mt Gellibrand Wind Farm,-38.23,143.77,2026-03-31T15:19:28.332705
2026/04/01 01:20:00,MTMILLAR,60.4,Mt Millar Wind Farm Pty Ltd,Mt Millar Wind Farm,Wind,70.0,86.29,Mt Millar Wind Farm,-33.624444,136.703611,2026-03-31T15:19:28.332705
2026/04/01 01:20:00,MUSSELR1,0.0,Hydro-Electric Corporation,Musselroe Wind Farm,Wind,168.0,0.0,Musselroe Wind Farm,-40.780225,148.010799,2026-03-31T15:19:28.332705
2026/04/01 01:20:00,MUWAWF1,0.0,Telstra Energy (Generation) Pty Ltd,Murra Warra Wind Farm,Wind,225.7,0.0,Murra Warra Wind Farm,-36.432404,142.317853,2026-03-31T15:19:28.332705
2026/04/01 01:20:00,MUWAWF2,187.0,Murra Warra II Project Co Pty Ltd ATF The Murra Warra II Project Trust,Murra Warra Wind Farm Stage 2,Wind,203.0,92.12,Murra Warra Wind Farm Stage 2,-36.43,142.32,2026-03-31T15:19:28.332705
2026/04/01 01:20:00,NBHWF1,106.6,AGL SA Generation Pty Limited,North Brown Hill Wind Farm,Wind,132.0,80.76,North Brown Hill Wind Farm,-33.367778,138.728611,2026-03-31T15:19:28.332705
2026/04/01 01:20:00,OAKLAND1,45.1,AGL Hydro Partnership,Oaklands Hill Wind Farm,Wind,63.0,71.59,Oaklands Hill Wind Farm,-37.683078,142.551678,2026-03-31T15:19:28.332705
2026/04/01 01:20:00,PAREPW1,101.68,Iberdrola Australia Energy Markets Pty Limited,Port Augusta Renewable Energy Park,Wind,201.0,50.59,Port Augusta Renewable Energy Park,-32.566944,137.856111,2026-03-31T15:19:28.332705
2026/04/01 01:20:00,RYANCWF1,148.08,Ryan Corner Development Pty Ltd,Ryan Corner Wind Farm,Wind,205.0,72.23,Ryan Corner Wind Farm,-38.271017,142.140647,2026-03-31T15:19:28.332705
2026/04/01 01:20:00,RYEPARK1,52.91,Rye Park Renewable Energy Pty Ltd as trustee for Rye Park Wind Farm Trust,Rye Park Renewable Energy,Wind,384.0,13.78,Rye Park Renewable Energy,-32.138333,148.972778,2026-03-31T15:19:28.332705
2026/04/01 01:20:00,SALTCRK1,0.0,Salt Creek Wind Farm Pty Ltd,Salt Creek Wind Farm,Wind,54.0,0.0,Salt Creek Wind Farm,-37.95,142.63,2026-03-31T15:19:28.332705
2026/04/01 01:20:00,SAPHWF1,214.0,The Trustee For The SWF1 Operations Trust,Sapphire Wind Farm,Wind,270.0,79.26,Sapphire Wind Farm,-29.7,151.41,2026-03-31T15:19:28.332705
2026/04/01 01:20:00,SNOWNTH1,124.5,Snowtown Wind Farm Stage 2 Pty Ltd,Snowtown Wind Farm Stage 2 North,Wind,144.0,86.46,Snowtown Wind Farm Stage 2 North,-33.83,138.118611,2026-03-31T15:19:28.332705
2026/04/01 01:20:00,SNOWSTH1,119.6,Snowtown Wind Farm Stage 2 Pty Ltd,Snowtown South Wind Farm,Wind,126.0,94.92,Snowtown South Wind Farm,-33.83,138.118611,2026-03-31T15:19:28.332705
2026/04/01 01:20:00,SNOWTWN1,85.87,Snowtown Wind Farm Pty Ltd,Snowtown Wind Farm Units 1 And 47,Wind,99.0,86.74,Snowtown Wind Farm Units 1 And 47,-33.83,138.118611,2026-03-31T15:19:28.332705
2026/04/01 01:20:00,STARHLWF,1.2,Starfish Hill Wind Farm Pty Ltd,Starfish Hill Wind Farm,Wind,35.0,3.43,Starfish Hill Wind Farm,-35.58,138.14,2026-03-31T15:19:28.332705
2026/04/01 01:20:00,STOCKYD1,411.54,Stockyard Hill Wind Farm Pty Ltd,Stockyard Hill Wind Farm,Wind,511.0,80.54,Stockyard Hill Wind Farm,-37.535833,143.251389,2026-03-31T15:19:28.332705
2026/04/01 01:20:00,STWF1,5.89,PARF Company 8 Pty Ltd as The Trustee for Silverton Project Trust,Silverton Wind Farm,Wind,198.0,2.97,Silverton Wind Farm,-37.683168,142.551678,2026-03-31T15:19:28.332705
2026/04/01 01:20:00,TARALGA1,12.18,Taralga Wind Farm Nominees No 2 Pty Ltd (ATF Taralga Wind Farm Operating Trust),Taralga Wind Farm,Wind,106.0,11.49,Taralga Wind Farm,-34.42352,149.826267,2026-03-31T15:19:28.332705
2026/04/01 01:20:00,WAMBOWF1,146.41,Stanwell Corporation Limited,Wambo Wind Farm 1,Wind,245.0,59.76,Wambo Wind Farm 1,-35.187301,149.524945,2026-03-31T15:19:28.332705
2026/04/01 01:20:00,WATERLWF,115.1,Waterloo Wind Farm Pty Ltd,Waterloo Wind Farm,Wind,130.0,88.54,Waterloo Wind Farm,-34.00094,138.911567,2026-03-31T15:19:28.332705
2026/04/01 01:20:00,WGWF1,88.1,Willogoleche Power Pty Ltd As The Trustee For The Willogoleche Operating Trust,Willogoleche Wind Farm,Wind,119.0,74.03,Willogoleche Wind Farm,-33.39,138.85,2026-03-31T15:19:28.332705
2026/04/01 01:20:00,WOODLWN1,0.0,Woodlawn Wind Pty Ltd,Woodlawn Wind Farm,Wind,48.0,0.0,Woodlawn Wind Farm,-35.08,149.62,2026-03-31T15:19:28.332705
2026/04/01 01:20:00,WPWF,11.73,AGL SA Generation Pty Limited,Wattle Point Wind Farm,Wind,91.0,12.89,Wattle Point Wind Farm,-35.111624,137.7219,2026-03-31T15:19:28.332705
2026/04/01 01:20:00,WRWF1,80.21,White Rock Wind Farm Pty Ltd,White Rock Wind Farm,Wind,172.0,46.63,White Rock Wind Farm,-29.79,151.54,2026-03-31T15:19:28.332705
2026/04/01 01:20:00,YENDWF1,79.96,Lal Lal Wind Farms Nom Co Pty Ltd,Yendon Wind Farm,Wind,142.0,56.31,Yendon Wind Farm,-37.629987,144.022717,2026-03-31T15:19:28.332705
