SETTLEMENTDATE,DUID,SCADAVALUE,Participant,Station Name,Fuel Source - Primary,MAX_CAP,utilisation_pct,Plant,Latitude,Longitude,timestamp_utc
2026/02/03 22:40:00,CAPTL_WF,26.87,Iberdrola Australia Holdings Pty Limited,Capital Wind Farm,Wind,140.0,19.19,Capital Wind Farm,-35.1,149.31,2026-02-03T12:36:29.735580
2026/02/03 22:40:00,CHALLHWF,0.0,Pacific Hydro Challicum Hills Pty Ltd,Challicum Hills Wind Farm,Wind,52.0,0.0,Challicum Hills Wind Farm,-37.38,143.11,2026-02-03T12:36:29.735580
2026/02/03 22:40:00,CULLRGWF,6.57,Cullerin Range Wind Farm Pty Ltd,Cullerin Range Wind Farm,Wind,30.0,21.9,Cullerin Range Wind Farm,-34.81,149.4,2026-02-03T12:36:29.735580
2026/02/03 22:40:00,DIAPURWF1,4.7,Y.E.S. Energy (SA) Pty Ltd,Diapur Wind Farm,Wind,7.0,67.14,Diapur Wind Farm,-36.3425,141.43,2026-02-03T12:36:29.735580
2026/02/03 22:40:00,MLWF1,2.0,Mortons Lane Windfarm Pty Limited,Mortons Lane Wind Farm,Wind,20.0,10.0,Mortons Lane Wind Farm,-37.84,142.45,2026-02-03T12:36:29.735580
2026/02/03 22:40:00,WAUBRAWF,116.84,Pyrenees Wind Energy Developments Pty Ltd,Waubra Wind Farm,Wind,192.0,60.85,Waubra Wind Farm,-37.394498,143.638982,2026-02-03T12:36:29.735580
2026/02/03 22:40:00,WOOLNTH1,38.49,Hydro-Electric Corporation,Woolnorth Studland Bay / Bluff Point Wind Farm,Wind,140.0,27.49,Woolnorth Studland Bay / Bluff Point Wind Farm,-40.69,144.72,2026-02-03T12:36:29.735580
2026/02/03 22:40:00,YAMBUKWF,2.3,Energy Pacific (Vic) Pty Ltd,Yambuk Wind Farm,Wind,30.0,7.67,Yambuk Wind Farm,-38.299083,142.027577,2026-02-03T12:36:29.735580
2026/02/03 22:40:00,YSWF1,0.0,Pacific Hydro Yaloak South Pty Ltd,Yaloak South Wind Farm,Wind,28.0,0.0,Yaloak South Wind Farm,-37.7163,144.242853,2026-02-03T12:36:29.735580
2026/02/03 22:40:00,ARWF1,24.1,Ararat Wind Farm Pty Ltd,Ararat Wind Farm,Wind,241.0,10.0,Ararat Wind Farm,-37.232778,143.031389,2026-02-03T12:36:29.735580
2026/02/03 22:40:00,BALDHWF1,22.73,Alinta Energy Retail Sales Pty Ltd,Bald Hills Wind Farm,Wind,106.0,21.44,Bald Hills Wind Farm,-38.79,145.93,2026-02-03T12:36:29.735580
2026/02/03 22:40:00,BANGOWF1,23.6,BWF Nominees Pty Ltd as The Trustee for BWF Trust,Bango 973 Wind Farm,Wind,155.0,15.23,Bango 973 Wind Farm,-34.551582,148.732808,2026-02-03T12:36:29.735580
2026/02/03 22:40:00,BANGOWF2,11.3,BWF Nominees Pty Ltd as The Trustee for BWF Trust,Bango 999 Wind Farm,Wind,82.0,13.78,Bango 999 Wind Farm,-34.551582,148.732808,2026-02-03T12:36:29.735580
2026/02/03 22:40:00,BLUFF1,5.8,AGL SA Generation Pty Limited,The Bluff Wind Farm,Wind,53.0,10.94,The Bluff Wind Farm,-33.367778,138.728611,2026-02-03T12:36:29.735580
2026/02/03 22:40:00,BOCORWF1,77.63,Boco Rock Wind Farm Pty Ltd,Boco Rock Wind Farm,Wind,111.0,69.94,Boco Rock Wind Farm,-36.578611,149.103333,2026-02-03T12:36:29.735580
2026/02/03 22:40:00,BRYB1WF1,53.98,Berrybank Development Pty Ltd,Berrybank Wind Farm,Wind,175.9,30.69,Berrybank Wind Farm,-37.94,143.52,2026-02-03T12:36:29.735580
2026/02/03 22:40:00,BRYB2WF2,37.88,Berrybank 2 Asset Pty Ltd as trustee for Berrybank 2 Asset Trust,Berrybank 2 Wind Farm,Wind,105.0,36.08,Berrybank 2 Wind Farm,-37.94,143.52,2026-02-03T12:36:29.735580
2026/02/03 22:40:00,BULGANA1,0.0,Bulgana Wind Farm Pty Ltd,Bulgana Green Power Hub,Wind,204.0,0.0,Bulgana Green Power Hub,-37.0975,142.973611,2026-02-03T12:36:29.735580
2026/02/03 22:40:00,CATHROCK,0.0,Cathedral Rocks Wind Farm Pty Ltd,Cathedral Rocks,Wind,66.0,0.0,Cathedral Rocks,-34.51,135.35,2026-02-03T12:36:29.735580
2026/02/03 22:40:00,CHYTWF1,9.29,Cherry Tree Wind Farm Pty Ltd as trustee for The Cherry Tree Project trust ,Cherry Tree Wind Farm,Wind,57.0,16.3,Cherry Tree Wind Farm,-37.1,145.26,2026-02-03T12:36:29.735580
2026/02/03 22:40:00,CLEMGPWF,49.7,Pacific Hydro Clements Gap Pty Ltd,Clements Gap Wind Farm,Wind,57.0,87.19,Clements Gap Wind Farm,-33.48,138.1,2026-02-03T12:36:29.735580
2026/02/03 22:40:00,CLRKCWF1,302.55,Stanwell Corporation Limited ,Clarke Creek Wind Farm,Wind,338.0,89.51,Clarke Creek Wind Farm,-22.85,149.45,2026-02-03T12:36:29.735580
2026/02/03 22:40:00,CLRKCWF2,0.0,Stanwell Corporation Limited ,Clarke Creek Wind Farm,Wind,101.0,0.0,Clarke Creek Wind Farm,-22.85,149.45,2026-02-03T12:36:29.735580
2026/02/03 22:40:00,CNUNDAWF,2.5,Canunda Power Pty Ltd,Canunda Wind Farm,Wind,46.0,5.43,Canunda Wind Farm,-37.73,140.39,2026-02-03T12:36:29.735580
2026/02/03 22:40:00,COLWF01,32.58,Collector Wind Farm Pty Ltd,Collector Wind Farm 1,Wind,219.0,14.88,Collector Wind Farm 1,-34.8719,149.3967,2026-02-03T12:36:29.735580
2026/02/03 22:40:00,COOPGWF1,315.84,PARF Company 10 Pty Limited as The Trustee for Coopers Gap Project Trust,Coopers Gap Wind Farm,Wind,440.0,71.78,Coopers Gap Wind Farm,-26.74,151.45,2026-02-03T12:36:29.735580
2026/02/03 22:40:00,CROOKWF2,23.41,Crookwell Development Pty Ltd ,Crookwell 2 Wind Farm,Wind,91.0,25.73,Crookwell 2 Wind Farm,-34.52,149.54,2026-02-03T12:36:29.735580
2026/02/03 22:40:00,CROOKWF3,13.64,Crookwell 3 Development Pty Ltd,Crookwell 3 Wind Farm,Wind,56.0,24.36,Crookwell 3 Wind Farm,-34.52,149.54,2026-02-03T12:36:29.735580
2026/02/03 22:40:00,CROWLWF1,2.61,Pacific Hydro Crowlands Pty Ltd ,Crowlands Wind Farm,Wind,79.0,3.3,Crowlands Wind Farm,-37.13,143.16,2026-02-03T12:36:29.735580
2026/02/03 22:40:00,CRURWF1,22.4,CRWF Nominees Pty Ltd As Trustee For The CRWF Trust,Crudine Ridge Wind Farm,Wind,138.0,16.23,Crudine Ridge Wind Farm,-32.97,149.64,2026-02-03T12:36:29.735580
2026/02/03 22:40:00,CTHLWF1,59.28,Wild Cattle Hill Pty Ltd,Cattle Hill Wind Farm,Wind,144.0,41.17,Cattle Hill Wind Farm,-42.15,146.69,2026-02-03T12:36:29.735580
2026/02/03 22:40:00,DULAWF1,160.0,Dulacca Energy Project Co Pty Ltd,Dulacca Wind Farm,Wind,173.0,92.49,Dulacca Wind Farm,-26.63,149.87,2026-02-03T12:36:29.735580
2026/02/03 22:40:00,DUNDWF1,17.99,Dundonnell Wind Farm Pty Ltd,Dundonnell Wind Farm,Wind,168.0,10.71,Dundonnell Wind Farm,-37.52,142.58,2026-02-03T12:36:29.735580
2026/02/03 22:40:00,DUNDWF2,4.97,Dundonnell Wind Farm Pty Ltd,Dundonnell Wind Farm,Wind,46.0,10.8,Dundonnell Wind Farm,-37.52,142.58,2026-02-03T12:36:29.735580
2026/02/03 22:40:00,DUNDWF3,16.02,Dundonnell Wind Farm Pty Ltd,Dundonnell Wind Farm,Wind,122.0,13.13,Dundonnell Wind Farm,-37.52,142.58,2026-02-03T12:36:29.735580
2026/02/03 22:40:00,ELAINWF1,12.32,Lal Lal Wind Farms Nom Co Pty Ltd,Elaine Wind Farm,Wind,82.0,15.02,Elaine Wind Farm,-37.36,144.0,2026-02-03T12:36:29.735580
2026/02/03 22:40:00,FLYCRKWF,37.97,Iberdrola Australia Energy Markets Pty Limited,Flyers Creek Wind Farm,Wind,140.0,27.12,Flyers Creek Wind Farm,-33.365556,148.981944,2026-02-03T12:36:29.735580
2026/02/03 22:40:00,GPWFEST1,29.09,Golden Plains WF1 Pty Ltd as Trustee for the Golden Plains WF1 Unit Trust,Golden Plains Wind Farm East,Wind,240.0,12.12,Golden Plains Wind Farm East,-37.945091,143.752614,2026-02-03T12:36:29.735580
2026/02/03 22:40:00,GPWFEST2,30.38,Golden Plains WF1 Pty Ltd as Trustee for the Golden Plains WF1 Unit Trust,Golden Plains Wind Farm East,Wind,253.0,12.01,Golden Plains Wind Farm East,-37.945091,143.752614,2026-02-03T12:36:29.735580
2026/02/03 22:40:00,GPWFEST3,46.68,Golden Plains WF1 Pty Ltd as Trustee for the Golden Plains WF1 Unit Trust,Golden Plains Wind Farm East,Wind,240.0,19.45,Golden Plains Wind Farm East,-37.945091,143.752614,2026-02-03T12:36:29.735580
2026/02/03 22:40:00,GRANWF1,28.18,Granville Harbour Operations Pty Ltd as The Trustee for Granville Harbour Operations Trust,Granville Harbour Wind Farm,Wind,111.0,25.39,Granville Harbour Wind Farm,-41.8,145.06,2026-02-03T12:36:29.735580
2026/02/03 22:40:00,GSWF1A,20.6,Goyder Wind Farm 1 Pty Ltd as the Trustee for Goyder Wind Farm 1 Trust,Goyder South Wind Farm 1A,Wind,201.0,10.25,Goyder South Wind Farm 1A,-33.679758,138.937597,2026-02-03T12:36:29.735580
2026/02/03 22:40:00,GSWF1B1,22.87,Goyder Wind Farm 1B Pty Ltd as the Trustee for the Goyder Wind Farm 1B Trust,Goyder South Wind Farm 1B,Wind,196.0,11.67,Goyder South Wind Farm 1B,-33.679758,138.937597,2026-02-03T12:36:29.735580
2026/02/03 22:40:00,GULLRWF1,26.32,New Gullen Range Wind Farm Pty Ltd,Gullen Range Wind Farm,Wind,161.0,16.35,Gullen Range Wind Farm,-34.34,149.27,2026-02-03T12:36:29.735580
2026/02/03 22:40:00,GULLRWF2,33.48,New Gullen Range Wind Farm Pty Ltd,Gullen Range Wind Farm,Wind,107.0,31.29,Gullen Range Wind Farm,-34.34,149.27,2026-02-03T12:36:29.735580
2026/02/03 22:40:00,GUNNING1,13.69,Gunning Wind Energy Developments Pty Ltd,Gunning Wind Farm,Wind,47.0,29.13,Gunning Wind Farm,-34.813333,149.4,2026-02-03T12:36:29.735580
2026/02/03 22:40:00,HALLWF1,15.61,AGL SA Generation Pty Limited,Hallett 1 Wind Farm,Wind,95.0,16.43,Hallett 1 Wind Farm,-33.367778,138.728611,2026-02-03T12:36:29.735580
2026/02/03 22:40:00,HALLWF2,5.16,AGL SA Generation Pty Limited,Hallett 2 Wind Farm,Wind,71.0,7.27,Hallett 2 Wind Farm,-33.367778,138.728611,2026-02-03T12:36:29.735580
2026/02/03 22:40:00,HD1WF1,6.82,Hawkesdale Asset Pty Ltd as trustee for Hawkesdale Asset Trust,Hawkesdale Wind Farm,Wind,89.0,7.66,Hawkesdale Wind Farm,-38.147894,142.361381,2026-02-03T12:36:29.735580
2026/02/03 22:40:00,HDWF1,32.6,HWF1 Pty Ltd,Hornsdale Wind Farm,Wind,102.0,31.96,Hornsdale Wind Farm,-33.050556,138.543611,2026-02-03T12:36:29.735580
2026/02/03 22:40:00,HDWF2,33.9,HWF 2 Pty Ltd,Hornsdale Wind Farm 2,Wind,102.0,33.24,Hornsdale Wind Farm 2,-33.06,138.54,2026-02-03T12:36:29.735580
2026/02/03 22:40:00,HDWF3,50.8,HWF3 Pty Ltd,Hornsdale Wind Farm 3,Wind,109.0,46.61,Hornsdale Wind Farm 3,-33.06,138.54,2026-02-03T12:36:29.735580
2026/02/03 22:40:00,KABANWF1,55.67,Kaban Wind Farm Pty Ltd as trustee for Kaban Wind Farm Trust,Kaban Wind Farm,Wind,152.0,36.62,Kaban Wind Farm,-17.56,145.41,2026-02-03T12:36:29.735580
2026/02/03 22:40:00,KEPWF1,35.4,Kennedy Energy Park Pty Ltd,Kennedy Energy Park,Wind,43.0,82.33,Kennedy Energy Park,-20.88,144.42,2026-02-03T12:36:29.735580
2026/02/03 22:40:00,KIATAWF1,27.2,Kiata ProjectCo Pty Ltd Atf Kiata Project Trust,Kiata Wind Farm,Wind,31.0,87.74,Kiata Wind Farm,-36.4,141.75,2026-02-03T12:36:29.735580
2026/02/03 22:40:00,LGAPWF1,63.35,Lincoln Gap Wind Farm (Operations) Pty Ltd,Lincoln Gap Wind Farm,Wind,123.0,51.5,Lincoln Gap Wind Farm,-32.564279,137.557328,2026-02-03T12:36:29.735580
2026/02/03 22:40:00,LGAPWF1,63.35,Lincoln Gap Wind Farm (Operations) Pty Ltd,Lincoln Gap Wind Farm,Wind,123.0,51.5,Lincoln Gap Wind Farm,-32.564279,137.557328,2026-02-03T12:36:29.735580
2026/02/03 22:40:00,LGAPWF2,66.4,Lincoln Gap Wind Farm (Operations) Pty Ltd,Lincoln Gap Wind Farm,Wind,85.0,78.12,Lincoln Gap Wind Farm,-32.564279,137.557328,2026-02-03T12:36:29.735580
2026/02/03 22:40:00,LGAPWF2,66.4,Lincoln Gap Wind Farm (Operations) Pty Ltd,Lincoln Gap Wind Farm,Wind,85.0,78.12,Lincoln Gap Wind Farm,-32.564279,137.557328,2026-02-03T12:36:29.735580
2026/02/03 22:40:00,LKBONNY1,0.71,Lake Bonney Wind Power Pty Ltd,Lake Bonney Wind Farm Stage 1,Wind,81.0,0.88,Lake Bonney Wind Farm Stage 1,-37.76,140.4,2026-02-03T12:36:29.735580
2026/02/03 22:40:00,LKBONNY2,10.4,Lake Bonney Wind Power Pty Ltd,Lake Bonney Stage 2 Windfarm,Wind,159.0,6.54,Lake Bonney Stage 2 Windfarm,-37.76,140.4,2026-02-03T12:36:29.735580
2026/02/03 22:40:00,LKBONNY3,2.23,Lake Bonney Wind Power Pty Ltd,Lake Bonney Stage 3 Wind Farm,Wind,39.0,5.72,Lake Bonney Stage 3 Wind Farm,-37.737781,140.388137,2026-02-03T12:36:29.735580
2026/02/03 22:40:00,MACARTH1,7.0,AGL Hydro Partnership,Macarthur Wind Farm,Wind,420.0,1.67,Macarthur Wind Farm,-38.048957,142.192112,2026-02-03T12:36:29.735580
2026/02/03 22:40:00,MCINTYR1,294.77,MacIntyre UJV Operator Pty Ltd,MacIntyre Wind Farm,Wind,890.0,33.12,MacIntyre Wind Farm,-28.32,151.54,2026-02-03T12:36:29.735580
2026/02/03 22:40:00,MERCER01,28.4,Mt Mercer Windfarm Pty Ltd,Mt Mercer Wind Farm,Wind,131.0,21.68,Mt Mercer Wind Farm,-37.841111,143.871111,2026-02-03T12:36:29.735580
2026/02/03 22:40:00,MEWF1,51.77,Ergon Energy Queensland Pty Ltd ,Mount Emerald Wind Farm,Wind,178.0,29.08,Mount Emerald Wind Farm,-17.133007,145.380644,2026-02-03T12:36:29.735580
2026/02/03 22:40:00,MRTLSWF1,8.05,Mortlake South Wind Farm Pty Ltd,Mortlake South Wind Farm,Wind,153.0,5.26,Mortlake South Wind Farm,-38.127337,142.857801,2026-02-03T12:36:29.735580
2026/02/03 22:40:00,MTGELWF1,4.36,Mt. Gellibrand Wind Farm Pty Ltd,Mt Gellibrand Wind Farm,Wind,132.0,3.3,Mt Gellibrand Wind Farm,-38.23,143.77,2026-02-03T12:36:29.735580
2026/02/03 22:40:00,MTMILLAR,19.2,Mt Millar Wind Farm Pty Ltd,Mt Millar Wind Farm,Wind,70.0,27.43,Mt Millar Wind Farm,-33.624444,136.703611,2026-02-03T12:36:29.735580
2026/02/03 22:40:00,MUSSELR1,0.0,Hydro-Electric Corporation,Musselroe Wind Farm,Wind,168.0,0.0,Musselroe Wind Farm,-40.780225,148.010799,2026-02-03T12:36:29.735580
2026/02/03 22:40:00,MUWAWF1,20.74,Telstra Energy (Generation) Pty Ltd,Murra Warra Wind Farm,Wind,225.7,9.19,Murra Warra Wind Farm,-36.432404,142.317853,2026-02-03T12:36:29.735580
2026/02/03 22:40:00,MUWAWF2,162.8,Murra Warra II Project Co Pty Ltd ATF The Murra Warra II Project Trust,Murra Warra Wind Farm Stage 2,Wind,203.0,80.2,Murra Warra Wind Farm Stage 2,-36.43,142.32,2026-02-03T12:36:29.735580
2026/02/03 22:40:00,NBHWF1,24.0,AGL SA Generation Pty Limited,North Brown Hill Wind Farm,Wind,132.0,18.18,North Brown Hill Wind Farm,-33.367778,138.728611,2026-02-03T12:36:29.735580
2026/02/03 22:40:00,OAKLAND1,13.0,AGL Hydro Partnership,Oaklands Hill Wind Farm,Wind,63.0,20.63,Oaklands Hill Wind Farm,-37.683078,142.551678,2026-02-03T12:36:29.735580
2026/02/03 22:40:00,PAREPW1,92.97,Iberdrola Australia Energy Markets Pty Limited,Port Augusta Renewable Energy Park,Wind,201.0,46.25,Port Augusta Renewable Energy Park,-32.566944,137.856111,2026-02-03T12:36:29.735580
2026/02/03 22:40:00,RYANCWF1,18.59,Ryan Corner Development Pty Ltd,Ryan Corner Wind Farm,Wind,205.0,9.07,Ryan Corner Wind Farm,-38.271017,142.140647,2026-02-03T12:36:29.735580
2026/02/03 22:40:00,RYEPARK1,79.21,Rye Park Renewable Energy Pty Ltd as trustee for Rye Park Wind Farm Trust,Rye Park Renewable Energy,Wind,384.0,20.63,Rye Park Renewable Energy,-32.138333,148.972778,2026-02-03T12:36:29.735580
2026/02/03 22:40:00,SALTCRK1,7.66,Salt Creek Wind Farm Pty Ltd,Salt Creek Wind Farm,Wind,54.0,14.19,Salt Creek Wind Farm,-37.95,142.63,2026-02-03T12:36:29.735580
2026/02/03 22:40:00,SAPHWF1,256.32,The Trustee For The SWF1 Operations Trust,Sapphire Wind Farm,Wind,270.0,94.93,Sapphire Wind Farm,-29.7,151.41,2026-02-03T12:36:29.735580
2026/02/03 22:40:00,SNOWNTH1,94.1,Snowtown Wind Farm Stage 2 Pty Ltd,Snowtown Wind Farm Stage 2 North,Wind,144.0,65.35,Snowtown Wind Farm Stage 2 North,-33.83,138.118611,2026-02-03T12:36:29.735580
2026/02/03 22:40:00,SNOWSTH1,69.7,Snowtown Wind Farm Stage 2 Pty Ltd,Snowtown South Wind Farm,Wind,126.0,55.32,Snowtown South Wind Farm,-33.83,138.118611,2026-02-03T12:36:29.735580
2026/02/03 22:40:00,SNOWTWN1,71.15,Snowtown Wind Farm Pty Ltd,Snowtown Wind Farm Units 1 And 47,Wind,99.0,71.87,Snowtown Wind Farm Units 1 And 47,-33.83,138.118611,2026-02-03T12:36:29.735580
2026/02/03 22:40:00,STARHLWF,1.7,Starfish Hill Wind Farm Pty Ltd,Starfish Hill Wind Farm,Wind,35.0,4.86,Starfish Hill Wind Farm,-35.58,138.14,2026-02-03T12:36:29.735580
2026/02/03 22:40:00,STOCKYD1,13.79,Stockyard Hill Wind Farm Pty Ltd,Stockyard Hill Wind Farm,Wind,511.0,2.7,Stockyard Hill Wind Farm,-37.535833,143.251389,2026-02-03T12:36:29.735580
2026/02/03 22:40:00,STWF1,1.96,PARF Company 8 Pty Ltd as The Trustee for Silverton Project Trust,Silverton Wind Farm,Wind,198.0,0.99,Silverton Wind Farm,-37.683168,142.551678,2026-02-03T12:36:29.735580
2026/02/03 22:40:00,TARALGA1,14.61,Taralga Wind Farm Nominees No 2 Pty Ltd (ATF Taralga Wind Farm Operating Trust),Taralga Wind Farm,Wind,106.0,13.78,Taralga Wind Farm,-34.42352,149.826267,2026-02-03T12:36:29.735580
2026/02/03 22:40:00,WAMBOWF1,117.35,Stanwell Corporation Limited,Wambo Wind Farm 1,Wind,245.0,47.9,Wambo Wind Farm 1,-35.187301,149.524945,2026-02-03T12:36:29.735580
2026/02/03 22:40:00,WATERLWF,8.7,Waterloo Wind Farm Pty Ltd,Waterloo Wind Farm,Wind,130.0,6.69,Waterloo Wind Farm,-34.00094,138.911567,2026-02-03T12:36:29.735580
2026/02/03 22:40:00,WGWF1,15.4,Willogoleche Power Pty Ltd As The Trustee For The Willogoleche Operating Trust,Willogoleche Wind Farm,Wind,119.0,12.94,Willogoleche Wind Farm,-33.39,138.85,2026-02-03T12:36:29.735580
2026/02/03 22:40:00,WOODLWN1,12.07,Woodlawn Wind Pty Ltd,Woodlawn Wind Farm,Wind,48.0,25.15,Woodlawn Wind Farm,-35.08,149.62,2026-02-03T12:36:29.735580
2026/02/03 22:40:00,WPWF,0.0,AGL SA Generation Pty Limited,Wattle Point Wind Farm,Wind,91.0,0.0,Wattle Point Wind Farm,-35.111624,137.7219,2026-02-03T12:36:29.735580
2026/02/03 22:40:00,WRWF1,143.29,White Rock Wind Farm Pty Ltd,White Rock Wind Farm,Wind,172.0,83.31,White Rock Wind Farm,-29.79,151.54,2026-02-03T12:36:29.735580
2026/02/03 22:40:00,YENDWF1,9.58,Lal Lal Wind Farms Nom Co Pty Ltd,Yendon Wind Farm,Wind,142.0,6.75,Yendon Wind Farm,-37.629987,144.022717,2026-02-03T12:36:29.735580
