SETTLEMENTDATE,DUID,SCADAVALUE,Participant,Station Name,Fuel Source - Primary,MAX_CAP,utilisation_pct,Plant,Latitude,Longitude,timestamp_utc
2026/02/26 07:50:00,CAPTL_WF,118.69,Iberdrola Australia Holdings Pty Limited,Capital Wind Farm,Wind,140.0,84.78,Capital Wind Farm,-35.1,149.31,2026-02-25T21:52:54.018443
2026/02/26 07:50:00,CHALLHWF,6.5,Pacific Hydro Challicum Hills Pty Ltd,Challicum Hills Wind Farm,Wind,52.0,12.5,Challicum Hills Wind Farm,-37.38,143.11,2026-02-25T21:52:54.018443
2026/02/26 07:50:00,CULLRGWF,20.5,Cullerin Range Wind Farm Pty Ltd,Cullerin Range Wind Farm,Wind,30.0,68.33,Cullerin Range Wind Farm,-34.81,149.4,2026-02-25T21:52:54.018443
2026/02/26 07:50:00,DIAPURWF1,4.3,Y.E.S. Energy (SA) Pty Ltd,Diapur Wind Farm,Wind,7.0,61.43,Diapur Wind Farm,-36.3425,141.43,2026-02-25T21:52:54.018443
2026/02/26 07:50:00,MLWF1,2.92,Mortons Lane Windfarm Pty Limited,Mortons Lane Wind Farm,Wind,20.0,14.6,Mortons Lane Wind Farm,-37.84,142.45,2026-02-25T21:52:54.018443
2026/02/26 07:50:00,WAUBRAWF,56.71,Pyrenees Wind Energy Developments Pty Ltd,Waubra Wind Farm,Wind,192.0,29.54,Waubra Wind Farm,-37.394498,143.638982,2026-02-25T21:52:54.018443
2026/02/26 07:50:00,WOOLNTH1,43.49,Hydro-Electric Corporation,Woolnorth Studland Bay / Bluff Point Wind Farm,Wind,140.0,31.06,Woolnorth Studland Bay / Bluff Point Wind Farm,-40.69,144.72,2026-02-25T21:52:54.018443
2026/02/26 07:50:00,YAMBUKWF,11.8,Energy Pacific (Vic) Pty Ltd,Yambuk Wind Farm,Wind,30.0,39.33,Yambuk Wind Farm,-38.299083,142.027577,2026-02-25T21:52:54.018443
2026/02/26 07:50:00,YSWF1,0.9,Pacific Hydro Yaloak South Pty Ltd,Yaloak South Wind Farm,Wind,28.0,3.21,Yaloak South Wind Farm,-37.7163,144.242853,2026-02-25T21:52:54.018443
2026/02/26 07:50:00,ARWF1,22.1,Ararat Wind Farm Pty Ltd,Ararat Wind Farm,Wind,241.0,9.17,Ararat Wind Farm,-37.232778,143.031389,2026-02-25T21:52:54.018443
2026/02/26 07:50:00,BALDHWF1,98.15,Alinta Energy Retail Sales Pty Ltd,Bald Hills Wind Farm,Wind,106.0,92.59,Bald Hills Wind Farm,-38.79,145.93,2026-02-25T21:52:54.018443
2026/02/26 07:50:00,BANGOWF1,47.8,BWF Nominees Pty Ltd as The Trustee for BWF Trust,Bango 973 Wind Farm,Wind,155.0,30.84,Bango 973 Wind Farm,-34.551582,148.732808,2026-02-25T21:52:54.018443
2026/02/26 07:50:00,BANGOWF2,77.2,BWF Nominees Pty Ltd as The Trustee for BWF Trust,Bango 999 Wind Farm,Wind,82.0,94.15,Bango 999 Wind Farm,-34.551582,148.732808,2026-02-25T21:52:54.018443
2026/02/26 07:50:00,BLUFF1,8.3,AGL SA Generation Pty Limited,The Bluff Wind Farm,Wind,53.0,15.66,The Bluff Wind Farm,-33.367778,138.728611,2026-02-25T21:52:54.018443
2026/02/26 07:50:00,BOCORWF1,10.95,Boco Rock Wind Farm Pty Ltd,Boco Rock Wind Farm,Wind,111.0,9.86,Boco Rock Wind Farm,-36.578611,149.103333,2026-02-25T21:52:54.018443
2026/02/26 07:50:00,BRYB1WF1,80.01,Berrybank Development Pty Ltd,Berrybank Wind Farm,Wind,175.9,45.49,Berrybank Wind Farm,-37.94,143.52,2026-02-25T21:52:54.018443
2026/02/26 07:50:00,BRYB2WF2,55.02,Berrybank 2 Asset Pty Ltd as trustee for Berrybank 2 Asset Trust,Berrybank 2 Wind Farm,Wind,105.0,52.4,Berrybank 2 Wind Farm,-37.94,143.52,2026-02-25T21:52:54.018443
2026/02/26 07:50:00,BULGANA1,33.65,Bulgana Wind Farm Pty Ltd,Bulgana Green Power Hub,Wind,204.0,16.5,Bulgana Green Power Hub,-37.0975,142.973611,2026-02-25T21:52:54.018443
2026/02/26 07:50:00,CATHROCK,55.2,Cathedral Rocks Wind Farm Pty Ltd,Cathedral Rocks,Wind,66.0,83.64,Cathedral Rocks,-34.51,135.35,2026-02-25T21:52:54.018443
2026/02/26 07:50:00,CHYTWF1,9.5,Cherry Tree Wind Farm Pty Ltd as trustee for The Cherry Tree Project trust ,Cherry Tree Wind Farm,Wind,57.0,16.67,Cherry Tree Wind Farm,-37.1,145.26,2026-02-25T21:52:54.018443
2026/02/26 07:50:00,CLEMGPWF,52.66,Pacific Hydro Clements Gap Pty Ltd,Clements Gap Wind Farm,Wind,57.0,92.39,Clements Gap Wind Farm,-33.48,138.1,2026-02-25T21:52:54.018443
2026/02/26 07:50:00,CLRKCWF1,0.0,Stanwell Corporation Limited ,Clarke Creek Wind Farm,Wind,338.0,0.0,Clarke Creek Wind Farm,-22.85,149.45,2026-02-25T21:52:54.018443
2026/02/26 07:50:00,CLRKCWF2,0.0,Stanwell Corporation Limited ,Clarke Creek Wind Farm,Wind,101.0,0.0,Clarke Creek Wind Farm,-22.85,149.45,2026-02-25T21:52:54.018443
2026/02/26 07:50:00,CNUNDAWF,23.43,Canunda Power Pty Ltd,Canunda Wind Farm,Wind,46.0,50.93,Canunda Wind Farm,-37.73,140.39,2026-02-25T21:52:54.018443
2026/02/26 07:50:00,COLWF01,0.0,Collector Wind Farm Pty Ltd,Collector Wind Farm 1,Wind,219.0,0.0,Collector Wind Farm 1,-34.8719,149.3967,2026-02-25T21:52:54.018443
2026/02/26 07:50:00,COOPGWF1,188.82,PARF Company 10 Pty Limited as The Trustee for Coopers Gap Project Trust,Coopers Gap Wind Farm,Wind,440.0,42.91,Coopers Gap Wind Farm,-26.74,151.45,2026-02-25T21:52:54.018443
2026/02/26 07:50:00,CROOKWF2,32.18,Crookwell Development Pty Ltd ,Crookwell 2 Wind Farm,Wind,91.0,35.36,Crookwell 2 Wind Farm,-34.52,149.54,2026-02-25T21:52:54.018443
2026/02/26 07:50:00,CROOKWF3,13.0,Crookwell 3 Development Pty Ltd,Crookwell 3 Wind Farm,Wind,56.0,23.21,Crookwell 3 Wind Farm,-34.52,149.54,2026-02-25T21:52:54.018443
2026/02/26 07:50:00,CROWLWF1,15.98,Pacific Hydro Crowlands Pty Ltd ,Crowlands Wind Farm,Wind,79.0,20.23,Crowlands Wind Farm,-37.13,143.16,2026-02-25T21:52:54.018443
2026/02/26 07:50:00,CRURWF1,101.5,CRWF Nominees Pty Ltd As Trustee For The CRWF Trust,Crudine Ridge Wind Farm,Wind,138.0,73.55,Crudine Ridge Wind Farm,-32.97,149.64,2026-02-25T21:52:54.018443
2026/02/26 07:50:00,CTHLWF1,0.0,Wild Cattle Hill Pty Ltd,Cattle Hill Wind Farm,Wind,144.0,0.0,Cattle Hill Wind Farm,-42.15,146.69,2026-02-25T21:52:54.018443
2026/02/26 07:50:00,DULAWF1,33.6,Dulacca Energy Project Co Pty Ltd,Dulacca Wind Farm,Wind,173.0,19.42,Dulacca Wind Farm,-26.63,149.87,2026-02-25T21:52:54.018443
2026/02/26 07:50:00,DUNDWF1,50.96,Dundonnell Wind Farm Pty Ltd,Dundonnell Wind Farm,Wind,168.0,30.33,Dundonnell Wind Farm,-37.52,142.58,2026-02-25T21:52:54.018443
2026/02/26 07:50:00,DUNDWF2,16.37,Dundonnell Wind Farm Pty Ltd,Dundonnell Wind Farm,Wind,46.0,35.59,Dundonnell Wind Farm,-37.52,142.58,2026-02-25T21:52:54.018443
2026/02/26 07:50:00,DUNDWF3,29.71,Dundonnell Wind Farm Pty Ltd,Dundonnell Wind Farm,Wind,122.0,24.35,Dundonnell Wind Farm,-37.52,142.58,2026-02-25T21:52:54.018443
2026/02/26 07:50:00,ELAINWF1,16.05,Lal Lal Wind Farms Nom Co Pty Ltd,Elaine Wind Farm,Wind,82.0,19.57,Elaine Wind Farm,-37.36,144.0,2026-02-25T21:52:54.018443
2026/02/26 07:50:00,FLYCRKWF,30.23,Iberdrola Australia Energy Markets Pty Limited,Flyers Creek Wind Farm,Wind,140.0,21.59,Flyers Creek Wind Farm,-33.365556,148.981944,2026-02-25T21:52:54.018443
2026/02/26 07:50:00,GPWFEST1,103.52,Golden Plains WF1 Pty Ltd as Trustee for the Golden Plains WF1 Unit Trust,Golden Plains Wind Farm East,Wind,240.0,43.13,Golden Plains Wind Farm East,-37.945091,143.752614,2026-02-25T21:52:54.018443
2026/02/26 07:50:00,GPWFEST2,80.16,Golden Plains WF1 Pty Ltd as Trustee for the Golden Plains WF1 Unit Trust,Golden Plains Wind Farm East,Wind,253.0,31.68,Golden Plains Wind Farm East,-37.945091,143.752614,2026-02-25T21:52:54.018443
2026/02/26 07:50:00,GPWFEST3,58.74,Golden Plains WF1 Pty Ltd as Trustee for the Golden Plains WF1 Unit Trust,Golden Plains Wind Farm East,Wind,240.0,24.48,Golden Plains Wind Farm East,-37.945091,143.752614,2026-02-25T21:52:54.018443
2026/02/26 07:50:00,GRANWF1,0.52,Granville Harbour Operations Pty Ltd as The Trustee for Granville Harbour Operations Trust,Granville Harbour Wind Farm,Wind,111.0,0.47,Granville Harbour Wind Farm,-41.8,145.06,2026-02-25T21:52:54.018443
2026/02/26 07:50:00,GSWF1A,164.53,Goyder Wind Farm 1 Pty Ltd as the Trustee for Goyder Wind Farm 1 Trust,Goyder South Wind Farm 1A,Wind,201.0,81.86,Goyder South Wind Farm 1A,-33.679758,138.937597,2026-02-25T21:52:54.018443
2026/02/26 07:50:00,GSWF1B1,123.89,Goyder Wind Farm 1B Pty Ltd as the Trustee for the Goyder Wind Farm 1B Trust,Goyder South Wind Farm 1B,Wind,196.0,63.21,Goyder South Wind Farm 1B,-33.679758,138.937597,2026-02-25T21:52:54.018443
2026/02/26 07:50:00,GULLRWF1,83.07,New Gullen Range Wind Farm Pty Ltd,Gullen Range Wind Farm,Wind,161.0,51.6,Gullen Range Wind Farm,-34.34,149.27,2026-02-25T21:52:54.018443
2026/02/26 07:50:00,GULLRWF2,102.96,New Gullen Range Wind Farm Pty Ltd,Gullen Range Wind Farm,Wind,107.0,96.22,Gullen Range Wind Farm,-34.34,149.27,2026-02-25T21:52:54.018443
2026/02/26 07:50:00,GUNNING1,30.21,Gunning Wind Energy Developments Pty Ltd,Gunning Wind Farm,Wind,47.0,64.28,Gunning Wind Farm,-34.813333,149.4,2026-02-25T21:52:54.018443
2026/02/26 07:50:00,HALLWF1,64.42,AGL SA Generation Pty Limited,Hallett 1 Wind Farm,Wind,95.0,67.81,Hallett 1 Wind Farm,-33.367778,138.728611,2026-02-25T21:52:54.018443
2026/02/26 07:50:00,HALLWF2,54.28,AGL SA Generation Pty Limited,Hallett 2 Wind Farm,Wind,71.0,76.45,Hallett 2 Wind Farm,-33.367778,138.728611,2026-02-25T21:52:54.018443
2026/02/26 07:50:00,HD1WF1,31.43,Hawkesdale Asset Pty Ltd as trustee for Hawkesdale Asset Trust,Hawkesdale Wind Farm,Wind,89.0,35.31,Hawkesdale Wind Farm,-38.147894,142.361381,2026-02-25T21:52:54.018443
2026/02/26 07:50:00,HDWF1,28.3,HWF1 Pty Ltd,Hornsdale Wind Farm,Wind,102.0,27.75,Hornsdale Wind Farm,-33.050556,138.543611,2026-02-25T21:52:54.018443
2026/02/26 07:50:00,HDWF2,39.3,HWF 2 Pty Ltd,Hornsdale Wind Farm 2,Wind,102.0,38.53,Hornsdale Wind Farm 2,-33.06,138.54,2026-02-25T21:52:54.018443
2026/02/26 07:50:00,HDWF3,38.5,HWF3 Pty Ltd,Hornsdale Wind Farm 3,Wind,109.0,35.32,Hornsdale Wind Farm 3,-33.06,138.54,2026-02-25T21:52:54.018443
2026/02/26 07:50:00,KABANWF1,41.03,Kaban Wind Farm Pty Ltd as trustee for Kaban Wind Farm Trust,Kaban Wind Farm,Wind,152.0,26.99,Kaban Wind Farm,-17.56,145.41,2026-02-25T21:52:54.018443
2026/02/26 07:50:00,KEPWF1,18.6,Kennedy Energy Park Pty Ltd,Kennedy Energy Park,Wind,43.0,43.26,Kennedy Energy Park,-20.88,144.42,2026-02-25T21:52:54.018443
2026/02/26 07:50:00,KIATAWF1,0.0,Kiata ProjectCo Pty Ltd Atf Kiata Project Trust,Kiata Wind Farm,Wind,31.0,0.0,Kiata Wind Farm,-36.4,141.75,2026-02-25T21:52:54.018443
2026/02/26 07:50:00,LGAPWF1,15.68,Lincoln Gap Wind Farm (Operations) Pty Ltd,Lincoln Gap Wind Farm,Wind,123.0,12.75,Lincoln Gap Wind Farm,-32.564279,137.557328,2026-02-25T21:52:54.018443
2026/02/26 07:50:00,LGAPWF1,15.68,Lincoln Gap Wind Farm (Operations) Pty Ltd,Lincoln Gap Wind Farm,Wind,123.0,12.75,Lincoln Gap Wind Farm,-32.564279,137.557328,2026-02-25T21:52:54.018443
2026/02/26 07:50:00,LGAPWF2,43.35,Lincoln Gap Wind Farm (Operations) Pty Ltd,Lincoln Gap Wind Farm,Wind,85.0,51.0,Lincoln Gap Wind Farm,-32.564279,137.557328,2026-02-25T21:52:54.018443
2026/02/26 07:50:00,LGAPWF2,43.35,Lincoln Gap Wind Farm (Operations) Pty Ltd,Lincoln Gap Wind Farm,Wind,85.0,51.0,Lincoln Gap Wind Farm,-32.564279,137.557328,2026-02-25T21:52:54.018443
2026/02/26 07:50:00,LKBONNY1,20.01,Lake Bonney Wind Power Pty Ltd,Lake Bonney Wind Farm Stage 1,Wind,81.0,24.7,Lake Bonney Wind Farm Stage 1,-37.76,140.4,2026-02-25T21:52:54.018443
2026/02/26 07:50:00,LKBONNY2,70.87,Lake Bonney Wind Power Pty Ltd,Lake Bonney Stage 2 Windfarm,Wind,159.0,44.57,Lake Bonney Stage 2 Windfarm,-37.76,140.4,2026-02-25T21:52:54.018443
2026/02/26 07:50:00,LKBONNY3,11.33,Lake Bonney Wind Power Pty Ltd,Lake Bonney Stage 3 Wind Farm,Wind,39.0,29.05,Lake Bonney Stage 3 Wind Farm,-37.737781,140.388137,2026-02-25T21:52:54.018443
2026/02/26 07:50:00,MACARTH1,75.6,AGL Hydro Partnership,Macarthur Wind Farm,Wind,420.0,18.0,Macarthur Wind Farm,-38.048957,142.192112,2026-02-25T21:52:54.018443
2026/02/26 07:50:00,MCINTYR1,102.97,MacIntyre UJV Operator Pty Ltd,MacIntyre Wind Farm,Wind,890.0,11.57,MacIntyre Wind Farm,-28.32,151.54,2026-02-25T21:52:54.018443
2026/02/26 07:50:00,MERCER01,14.1,Mt Mercer Windfarm Pty Ltd,Mt Mercer Wind Farm,Wind,131.0,10.76,Mt Mercer Wind Farm,-37.841111,143.871111,2026-02-25T21:52:54.018443
2026/02/26 07:50:00,MEWF1,24.71,Ergon Energy Queensland Pty Ltd ,Mount Emerald Wind Farm,Wind,178.0,13.88,Mount Emerald Wind Farm,-17.133007,145.380644,2026-02-25T21:52:54.018443
2026/02/26 07:50:00,MRTLSWF1,53.02,Mortlake South Wind Farm Pty Ltd,Mortlake South Wind Farm,Wind,153.0,34.65,Mortlake South Wind Farm,-38.127337,142.857801,2026-02-25T21:52:54.018443
2026/02/26 07:50:00,MTGELWF1,93.32,Mt. Gellibrand Wind Farm Pty Ltd,Mt Gellibrand Wind Farm,Wind,132.0,70.7,Mt Gellibrand Wind Farm,-38.23,143.77,2026-02-25T21:52:54.018443
2026/02/26 07:50:00,MTMILLAR,5.2,Mt Millar Wind Farm Pty Ltd,Mt Millar Wind Farm,Wind,70.0,7.43,Mt Millar Wind Farm,-33.624444,136.703611,2026-02-25T21:52:54.018443
2026/02/26 07:50:00,MUSSELR1,30.3,Hydro-Electric Corporation,Musselroe Wind Farm,Wind,168.0,18.04,Musselroe Wind Farm,-40.780225,148.010799,2026-02-25T21:52:54.018443
2026/02/26 07:50:00,MUWAWF1,16.93,Telstra Energy (Generation) Pty Ltd,Murra Warra Wind Farm,Wind,225.7,7.5,Murra Warra Wind Farm,-36.432404,142.317853,2026-02-25T21:52:54.018443
2026/02/26 07:50:00,MUWAWF2,115.6,Murra Warra II Project Co Pty Ltd ATF The Murra Warra II Project Trust,Murra Warra Wind Farm Stage 2,Wind,203.0,56.95,Murra Warra Wind Farm Stage 2,-36.43,142.32,2026-02-25T21:52:54.018443
2026/02/26 07:50:00,NBHWF1,100.4,AGL SA Generation Pty Limited,North Brown Hill Wind Farm,Wind,132.0,76.06,North Brown Hill Wind Farm,-33.367778,138.728611,2026-02-25T21:52:54.018443
2026/02/26 07:50:00,OAKLAND1,5.5,AGL Hydro Partnership,Oaklands Hill Wind Farm,Wind,63.0,8.73,Oaklands Hill Wind Farm,-37.683078,142.551678,2026-02-25T21:52:54.018443
2026/02/26 07:50:00,PAREPW1,106.96,Iberdrola Australia Energy Markets Pty Limited,Port Augusta Renewable Energy Park,Wind,201.0,53.21,Port Augusta Renewable Energy Park,-32.566944,137.856111,2026-02-25T21:52:54.018443
2026/02/26 07:50:00,RYANCWF1,118.77,Ryan Corner Development Pty Ltd,Ryan Corner Wind Farm,Wind,205.0,57.94,Ryan Corner Wind Farm,-38.271017,142.140647,2026-02-25T21:52:54.018443
2026/02/26 07:50:00,RYEPARK1,332.54,Rye Park Renewable Energy Pty Ltd as trustee for Rye Park Wind Farm Trust,Rye Park Renewable Energy,Wind,384.0,86.6,Rye Park Renewable Energy,-32.138333,148.972778,2026-02-25T21:52:54.018443
2026/02/26 07:50:00,SALTCRK1,13.13,Salt Creek Wind Farm Pty Ltd,Salt Creek Wind Farm,Wind,54.0,24.31,Salt Creek Wind Farm,-37.95,142.63,2026-02-25T21:52:54.018443
2026/02/26 07:50:00,SAPHWF1,54.11,The Trustee For The SWF1 Operations Trust,Sapphire Wind Farm,Wind,270.0,20.04,Sapphire Wind Farm,-29.7,151.41,2026-02-25T21:52:54.018443
2026/02/26 07:50:00,SNOWNTH1,92.1,Snowtown Wind Farm Stage 2 Pty Ltd,Snowtown Wind Farm Stage 2 North,Wind,144.0,63.96,Snowtown Wind Farm Stage 2 North,-33.83,138.118611,2026-02-25T21:52:54.018443
2026/02/26 07:50:00,SNOWSTH1,87.7,Snowtown Wind Farm Stage 2 Pty Ltd,Snowtown South Wind Farm,Wind,126.0,69.6,Snowtown South Wind Farm,-33.83,138.118611,2026-02-25T21:52:54.018443
2026/02/26 07:50:00,SNOWTWN1,62.33,Snowtown Wind Farm Pty Ltd,Snowtown Wind Farm Units 1 And 47,Wind,99.0,62.96,Snowtown Wind Farm Units 1 And 47,-33.83,138.118611,2026-02-25T21:52:54.018443
2026/02/26 07:50:00,STARHLWF,11.2,Starfish Hill Wind Farm Pty Ltd,Starfish Hill Wind Farm,Wind,35.0,32.0,Starfish Hill Wind Farm,-35.58,138.14,2026-02-25T21:52:54.018443
2026/02/26 07:50:00,STOCKYD1,122.0,Stockyard Hill Wind Farm Pty Ltd,Stockyard Hill Wind Farm,Wind,511.0,23.87,Stockyard Hill Wind Farm,-37.535833,143.251389,2026-02-25T21:52:54.018443
2026/02/26 07:50:00,STWF1,58.63,PARF Company 8 Pty Ltd as The Trustee for Silverton Project Trust,Silverton Wind Farm,Wind,198.0,29.61,Silverton Wind Farm,-37.683168,142.551678,2026-02-25T21:52:54.018443
2026/02/26 07:50:00,TARALGA1,44.56,Taralga Wind Farm Nominees No 2 Pty Ltd (ATF Taralga Wind Farm Operating Trust),Taralga Wind Farm,Wind,106.0,42.04,Taralga Wind Farm,-34.42352,149.826267,2026-02-25T21:52:54.018443
2026/02/26 07:50:00,WAMBOWF1,0.0,Stanwell Corporation Limited,Wambo Wind Farm 1,Wind,245.0,0.0,Wambo Wind Farm 1,-35.187301,149.524945,2026-02-25T21:52:54.018443
2026/02/26 07:50:00,WATERLWF,88.8,Waterloo Wind Farm Pty Ltd,Waterloo Wind Farm,Wind,130.0,68.31,Waterloo Wind Farm,-34.00094,138.911567,2026-02-25T21:52:54.018443
2026/02/26 07:50:00,WGWF1,111.4,Willogoleche Power Pty Ltd As The Trustee For The Willogoleche Operating Trust,Willogoleche Wind Farm,Wind,119.0,93.61,Willogoleche Wind Farm,-33.39,138.85,2026-02-25T21:52:54.018443
2026/02/26 07:50:00,WOODLWN1,40.99,Woodlawn Wind Pty Ltd,Woodlawn Wind Farm,Wind,48.0,85.4,Woodlawn Wind Farm,-35.08,149.62,2026-02-25T21:52:54.018443
2026/02/26 07:50:00,WPWF,60.53,AGL SA Generation Pty Limited,Wattle Point Wind Farm,Wind,91.0,66.52,Wattle Point Wind Farm,-35.111624,137.7219,2026-02-25T21:52:54.018443
2026/02/26 07:50:00,WRWF1,99.94,White Rock Wind Farm Pty Ltd,White Rock Wind Farm,Wind,172.0,58.1,White Rock Wind Farm,-29.79,151.54,2026-02-25T21:52:54.018443
2026/02/26 07:50:00,YENDWF1,12.56,Lal Lal Wind Farms Nom Co Pty Ltd,Yendon Wind Farm,Wind,142.0,8.85,Yendon Wind Farm,-37.629987,144.022717,2026-02-25T21:52:54.018443
