SETTLEMENTDATE,DUID,SCADAVALUE,Participant,Station Name,Fuel Source - Primary,MAX_CAP,utilisation_pct,Plant,Latitude,Longitude,timestamp_utc
2026/02/13 04:45:00,CAPTL_WF,18.02,Iberdrola Australia Holdings Pty Limited,Capital Wind Farm,Wind,140.0,12.87,Capital Wind Farm,-35.1,149.31,2026-02-12T18:42:17.010519
2026/02/13 04:45:00,CHALLHWF,18.1,Pacific Hydro Challicum Hills Pty Ltd,Challicum Hills Wind Farm,Wind,52.0,34.81,Challicum Hills Wind Farm,-37.38,143.11,2026-02-12T18:42:17.010519
2026/02/13 04:45:00,CULLRGWF,19.19,Cullerin Range Wind Farm Pty Ltd,Cullerin Range Wind Farm,Wind,30.0,63.97,Cullerin Range Wind Farm,-34.81,149.4,2026-02-12T18:42:17.010519
2026/02/13 04:45:00,DIAPURWF1,4.1,Y.E.S. Energy (SA) Pty Ltd,Diapur Wind Farm,Wind,7.0,58.57,Diapur Wind Farm,-36.3425,141.43,2026-02-12T18:42:17.010519
2026/02/13 04:45:00,MLWF1,0.8,Mortons Lane Windfarm Pty Limited,Mortons Lane Wind Farm,Wind,20.0,4.0,Mortons Lane Wind Farm,-37.84,142.45,2026-02-12T18:42:17.010519
2026/02/13 04:45:00,WAUBRAWF,73.45,Pyrenees Wind Energy Developments Pty Ltd,Waubra Wind Farm,Wind,192.0,38.26,Waubra Wind Farm,-37.394498,143.638982,2026-02-12T18:42:17.010519
2026/02/13 04:45:00,WOOLNTH1,68.7,Hydro-Electric Corporation,Woolnorth Studland Bay / Bluff Point Wind Farm,Wind,140.0,49.07,Woolnorth Studland Bay / Bluff Point Wind Farm,-40.69,144.72,2026-02-12T18:42:17.010519
2026/02/13 04:45:00,YAMBUKWF,2.9,Energy Pacific (Vic) Pty Ltd,Yambuk Wind Farm,Wind,30.0,9.67,Yambuk Wind Farm,-38.299083,142.027577,2026-02-12T18:42:17.010519
2026/02/13 04:45:00,YSWF1,4.3,Pacific Hydro Yaloak South Pty Ltd,Yaloak South Wind Farm,Wind,28.0,15.36,Yaloak South Wind Farm,-37.7163,144.242853,2026-02-12T18:42:17.010519
2026/02/13 04:45:00,ARWF1,57.2,Ararat Wind Farm Pty Ltd,Ararat Wind Farm,Wind,241.0,23.73,Ararat Wind Farm,-37.232778,143.031389,2026-02-12T18:42:17.010519
2026/02/13 04:45:00,BALDHWF1,0.0,Alinta Energy Retail Sales Pty Ltd,Bald Hills Wind Farm,Wind,106.0,0.0,Bald Hills Wind Farm,-38.79,145.93,2026-02-12T18:42:17.010519
2026/02/13 04:45:00,BANGOWF1,103.7,BWF Nominees Pty Ltd as The Trustee for BWF Trust,Bango 973 Wind Farm,Wind,155.0,66.9,Bango 973 Wind Farm,-34.551582,148.732808,2026-02-12T18:42:17.010519
2026/02/13 04:45:00,BANGOWF2,59.1,BWF Nominees Pty Ltd as The Trustee for BWF Trust,Bango 999 Wind Farm,Wind,82.0,72.07,Bango 999 Wind Farm,-34.551582,148.732808,2026-02-12T18:42:17.010519
2026/02/13 04:45:00,BLUFF1,44.4,AGL SA Generation Pty Limited,The Bluff Wind Farm,Wind,53.0,83.77,The Bluff Wind Farm,-33.367778,138.728611,2026-02-12T18:42:17.010519
2026/02/13 04:45:00,BOCORWF1,0.0,Boco Rock Wind Farm Pty Ltd,Boco Rock Wind Farm,Wind,111.0,0.0,Boco Rock Wind Farm,-36.578611,149.103333,2026-02-12T18:42:17.010519
2026/02/13 04:45:00,BRYB1WF1,20.72,Berrybank Development Pty Ltd,Berrybank Wind Farm,Wind,175.9,11.78,Berrybank Wind Farm,-37.94,143.52,2026-02-12T18:42:17.010519
2026/02/13 04:45:00,BRYB2WF2,11.92,Berrybank 2 Asset Pty Ltd as trustee for Berrybank 2 Asset Trust,Berrybank 2 Wind Farm,Wind,105.0,11.35,Berrybank 2 Wind Farm,-37.94,143.52,2026-02-12T18:42:17.010519
2026/02/13 04:45:00,BULGANA1,91.02,Bulgana Wind Farm Pty Ltd,Bulgana Green Power Hub,Wind,204.0,44.62,Bulgana Green Power Hub,-37.0975,142.973611,2026-02-12T18:42:17.010519
2026/02/13 04:45:00,CATHROCK,18.8,Cathedral Rocks Wind Farm Pty Ltd,Cathedral Rocks,Wind,66.0,28.48,Cathedral Rocks,-34.51,135.35,2026-02-12T18:42:17.010519
2026/02/13 04:45:00,CHYTWF1,48.35,Cherry Tree Wind Farm Pty Ltd as trustee for The Cherry Tree Project trust ,Cherry Tree Wind Farm,Wind,57.0,84.82,Cherry Tree Wind Farm,-37.1,145.26,2026-02-12T18:42:17.010519
2026/02/13 04:45:00,CLEMGPWF,9.15,Pacific Hydro Clements Gap Pty Ltd,Clements Gap Wind Farm,Wind,57.0,16.05,Clements Gap Wind Farm,-33.48,138.1,2026-02-12T18:42:17.010519
2026/02/13 04:45:00,CLRKCWF1,155.57,Stanwell Corporation Limited ,Clarke Creek Wind Farm,Wind,338.0,46.03,Clarke Creek Wind Farm,-22.85,149.45,2026-02-12T18:42:17.010519
2026/02/13 04:45:00,CLRKCWF2,34.81,Stanwell Corporation Limited ,Clarke Creek Wind Farm,Wind,101.0,34.47,Clarke Creek Wind Farm,-22.85,149.45,2026-02-12T18:42:17.010519
2026/02/13 04:45:00,CNUNDAWF,0.3,Canunda Power Pty Ltd,Canunda Wind Farm,Wind,46.0,0.65,Canunda Wind Farm,-37.73,140.39,2026-02-12T18:42:17.010519
2026/02/13 04:45:00,COLWF01,91.46,Collector Wind Farm Pty Ltd,Collector Wind Farm 1,Wind,219.0,41.76,Collector Wind Farm 1,-34.8719,149.3967,2026-02-12T18:42:17.010519
2026/02/13 04:45:00,COOPGWF1,5.24,PARF Company 10 Pty Limited as The Trustee for Coopers Gap Project Trust,Coopers Gap Wind Farm,Wind,440.0,1.19,Coopers Gap Wind Farm,-26.74,151.45,2026-02-12T18:42:17.010519
2026/02/13 04:45:00,CROOKWF2,28.17,Crookwell Development Pty Ltd ,Crookwell 2 Wind Farm,Wind,91.0,30.96,Crookwell 2 Wind Farm,-34.52,149.54,2026-02-12T18:42:17.010519
2026/02/13 04:45:00,CROOKWF3,19.02,Crookwell 3 Development Pty Ltd,Crookwell 3 Wind Farm,Wind,56.0,33.96,Crookwell 3 Wind Farm,-34.52,149.54,2026-02-12T18:42:17.010519
2026/02/13 04:45:00,CROWLWF1,21.93,Pacific Hydro Crowlands Pty Ltd ,Crowlands Wind Farm,Wind,79.0,27.76,Crowlands Wind Farm,-37.13,143.16,2026-02-12T18:42:17.010519
2026/02/13 04:45:00,CRURWF1,107.9,CRWF Nominees Pty Ltd As Trustee For The CRWF Trust,Crudine Ridge Wind Farm,Wind,138.0,78.19,Crudine Ridge Wind Farm,-32.97,149.64,2026-02-12T18:42:17.010519
2026/02/13 04:45:00,CTHLWF1,134.67,Wild Cattle Hill Pty Ltd,Cattle Hill Wind Farm,Wind,144.0,93.52,Cattle Hill Wind Farm,-42.15,146.69,2026-02-12T18:42:17.010519
2026/02/13 04:45:00,DULAWF1,0.0,Dulacca Energy Project Co Pty Ltd,Dulacca Wind Farm,Wind,173.0,0.0,Dulacca Wind Farm,-26.63,149.87,2026-02-12T18:42:17.010519
2026/02/13 04:45:00,DUNDWF1,24.22,Dundonnell Wind Farm Pty Ltd,Dundonnell Wind Farm,Wind,168.0,14.42,Dundonnell Wind Farm,-37.52,142.58,2026-02-12T18:42:17.010519
2026/02/13 04:45:00,DUNDWF2,8.65,Dundonnell Wind Farm Pty Ltd,Dundonnell Wind Farm,Wind,46.0,18.8,Dundonnell Wind Farm,-37.52,142.58,2026-02-12T18:42:17.010519
2026/02/13 04:45:00,DUNDWF3,14.11,Dundonnell Wind Farm Pty Ltd,Dundonnell Wind Farm,Wind,122.0,11.57,Dundonnell Wind Farm,-37.52,142.58,2026-02-12T18:42:17.010519
2026/02/13 04:45:00,ELAINWF1,17.12,Lal Lal Wind Farms Nom Co Pty Ltd,Elaine Wind Farm,Wind,82.0,20.88,Elaine Wind Farm,-37.36,144.0,2026-02-12T18:42:17.010519
2026/02/13 04:45:00,FLYCRKWF,64.36,Iberdrola Australia Energy Markets Pty Limited,Flyers Creek Wind Farm,Wind,140.0,45.97,Flyers Creek Wind Farm,-33.365556,148.981944,2026-02-12T18:42:17.010519
2026/02/13 04:45:00,GPWFEST1,28.96,Golden Plains WF1 Pty Ltd as Trustee for the Golden Plains WF1 Unit Trust,Golden Plains Wind Farm East,Wind,240.0,12.07,Golden Plains Wind Farm East,-37.945091,143.752614,2026-02-12T18:42:17.010519
2026/02/13 04:45:00,GPWFEST2,14.31,Golden Plains WF1 Pty Ltd as Trustee for the Golden Plains WF1 Unit Trust,Golden Plains Wind Farm East,Wind,253.0,5.66,Golden Plains Wind Farm East,-37.945091,143.752614,2026-02-12T18:42:17.010519
2026/02/13 04:45:00,GPWFEST3,14.03,Golden Plains WF1 Pty Ltd as Trustee for the Golden Plains WF1 Unit Trust,Golden Plains Wind Farm East,Wind,240.0,5.85,Golden Plains Wind Farm East,-37.945091,143.752614,2026-02-12T18:42:17.010519
2026/02/13 04:45:00,GRANWF1,16.34,Granville Harbour Operations Pty Ltd as The Trustee for Granville Harbour Operations Trust,Granville Harbour Wind Farm,Wind,111.0,14.72,Granville Harbour Wind Farm,-41.8,145.06,2026-02-12T18:42:17.010519
2026/02/13 04:45:00,GSWF1A,147.07,Goyder Wind Farm 1 Pty Ltd as the Trustee for Goyder Wind Farm 1 Trust,Goyder South Wind Farm 1A,Wind,201.0,73.17,Goyder South Wind Farm 1A,-33.679758,138.937597,2026-02-12T18:42:17.010519
2026/02/13 04:45:00,GSWF1B1,98.99,Goyder Wind Farm 1B Pty Ltd as the Trustee for the Goyder Wind Farm 1B Trust,Goyder South Wind Farm 1B,Wind,196.0,50.51,Goyder South Wind Farm 1B,-33.679758,138.937597,2026-02-12T18:42:17.010519
2026/02/13 04:45:00,GULLRWF1,74.84,New Gullen Range Wind Farm Pty Ltd,Gullen Range Wind Farm,Wind,161.0,46.48,Gullen Range Wind Farm,-34.34,149.27,2026-02-12T18:42:17.010519
2026/02/13 04:45:00,GULLRWF2,106.66,New Gullen Range Wind Farm Pty Ltd,Gullen Range Wind Farm,Wind,107.0,99.68,Gullen Range Wind Farm,-34.34,149.27,2026-02-12T18:42:17.010519
2026/02/13 04:45:00,GUNNING1,35.73,Gunning Wind Energy Developments Pty Ltd,Gunning Wind Farm,Wind,47.0,76.02,Gunning Wind Farm,-34.813333,149.4,2026-02-12T18:42:17.010519
2026/02/13 04:45:00,HALLWF1,67.54,AGL SA Generation Pty Limited,Hallett 1 Wind Farm,Wind,95.0,71.09,Hallett 1 Wind Farm,-33.367778,138.728611,2026-02-12T18:42:17.010519
2026/02/13 04:45:00,HALLWF2,60.92,AGL SA Generation Pty Limited,Hallett 2 Wind Farm,Wind,71.0,85.8,Hallett 2 Wind Farm,-33.367778,138.728611,2026-02-12T18:42:17.010519
2026/02/13 04:45:00,HD1WF1,7.72,Hawkesdale Asset Pty Ltd as trustee for Hawkesdale Asset Trust,Hawkesdale Wind Farm,Wind,89.0,8.67,Hawkesdale Wind Farm,-38.147894,142.361381,2026-02-12T18:42:17.010519
2026/02/13 04:45:00,HDWF1,97.0,HWF1 Pty Ltd,Hornsdale Wind Farm,Wind,102.0,95.1,Hornsdale Wind Farm,-33.050556,138.543611,2026-02-12T18:42:17.010519
2026/02/13 04:45:00,HDWF2,99.4,HWF 2 Pty Ltd,Hornsdale Wind Farm 2,Wind,102.0,97.45,Hornsdale Wind Farm 2,-33.06,138.54,2026-02-12T18:42:17.010519
2026/02/13 04:45:00,HDWF3,107.5,HWF3 Pty Ltd,Hornsdale Wind Farm 3,Wind,109.0,98.62,Hornsdale Wind Farm 3,-33.06,138.54,2026-02-12T18:42:17.010519
2026/02/13 04:45:00,KABANWF1,0.0,Kaban Wind Farm Pty Ltd as trustee for Kaban Wind Farm Trust,Kaban Wind Farm,Wind,152.0,0.0,Kaban Wind Farm,-17.56,145.41,2026-02-12T18:42:17.010519
2026/02/13 04:45:00,KEPWF1,8.9,Kennedy Energy Park Pty Ltd,Kennedy Energy Park,Wind,43.0,20.7,Kennedy Energy Park,-20.88,144.42,2026-02-12T18:42:17.010519
2026/02/13 04:45:00,KIATAWF1,19.2,Kiata ProjectCo Pty Ltd Atf Kiata Project Trust,Kiata Wind Farm,Wind,31.0,61.94,Kiata Wind Farm,-36.4,141.75,2026-02-12T18:42:17.010519
2026/02/13 04:45:00,LGAPWF1,32.76,Lincoln Gap Wind Farm (Operations) Pty Ltd,Lincoln Gap Wind Farm,Wind,123.0,26.63,Lincoln Gap Wind Farm,-32.564279,137.557328,2026-02-12T18:42:17.010519
2026/02/13 04:45:00,LGAPWF1,32.76,Lincoln Gap Wind Farm (Operations) Pty Ltd,Lincoln Gap Wind Farm,Wind,123.0,26.63,Lincoln Gap Wind Farm,-32.564279,137.557328,2026-02-12T18:42:17.010519
2026/02/13 04:45:00,LGAPWF2,19.19,Lincoln Gap Wind Farm (Operations) Pty Ltd,Lincoln Gap Wind Farm,Wind,85.0,22.58,Lincoln Gap Wind Farm,-32.564279,137.557328,2026-02-12T18:42:17.010519
2026/02/13 04:45:00,LGAPWF2,19.19,Lincoln Gap Wind Farm (Operations) Pty Ltd,Lincoln Gap Wind Farm,Wind,85.0,22.58,Lincoln Gap Wind Farm,-32.564279,137.557328,2026-02-12T18:42:17.010519
2026/02/13 04:45:00,LKBONNY1,0.0,Lake Bonney Wind Power Pty Ltd,Lake Bonney Wind Farm Stage 1,Wind,81.0,0.0,Lake Bonney Wind Farm Stage 1,-37.76,140.4,2026-02-12T18:42:17.010519
2026/02/13 04:45:00,LKBONNY2,2.24,Lake Bonney Wind Power Pty Ltd,Lake Bonney Stage 2 Windfarm,Wind,159.0,1.41,Lake Bonney Stage 2 Windfarm,-37.76,140.4,2026-02-12T18:42:17.010519
2026/02/13 04:45:00,LKBONNY3,0.84,Lake Bonney Wind Power Pty Ltd,Lake Bonney Stage 3 Wind Farm,Wind,39.0,2.15,Lake Bonney Stage 3 Wind Farm,-37.737781,140.388137,2026-02-12T18:42:17.010519
2026/02/13 04:45:00,MACARTH1,6.1,AGL Hydro Partnership,Macarthur Wind Farm,Wind,420.0,1.45,Macarthur Wind Farm,-38.048957,142.192112,2026-02-12T18:42:17.010519
2026/02/13 04:45:00,MCINTYR1,242.56,MacIntyre UJV Operator Pty Ltd,MacIntyre Wind Farm,Wind,890.0,27.25,MacIntyre Wind Farm,-28.32,151.54,2026-02-12T18:42:17.010519
2026/02/13 04:45:00,MERCER01,3.0,Mt Mercer Windfarm Pty Ltd,Mt Mercer Wind Farm,Wind,131.0,2.29,Mt Mercer Wind Farm,-37.841111,143.871111,2026-02-12T18:42:17.010519
2026/02/13 04:45:00,MEWF1,16.28,Ergon Energy Queensland Pty Ltd ,Mount Emerald Wind Farm,Wind,178.0,9.15,Mount Emerald Wind Farm,-17.133007,145.380644,2026-02-12T18:42:17.010519
2026/02/13 04:45:00,MRTLSWF1,6.62,Mortlake South Wind Farm Pty Ltd,Mortlake South Wind Farm,Wind,153.0,4.33,Mortlake South Wind Farm,-38.127337,142.857801,2026-02-12T18:42:17.010519
2026/02/13 04:45:00,MTGELWF1,7.7,Mt. Gellibrand Wind Farm Pty Ltd,Mt Gellibrand Wind Farm,Wind,132.0,5.83,Mt Gellibrand Wind Farm,-38.23,143.77,2026-02-12T18:42:17.010519
2026/02/13 04:45:00,MTMILLAR,26.4,Mt Millar Wind Farm Pty Ltd,Mt Millar Wind Farm,Wind,70.0,37.71,Mt Millar Wind Farm,-33.624444,136.703611,2026-02-12T18:42:17.010519
2026/02/13 04:45:00,MUSSELR1,41.5,Hydro-Electric Corporation,Musselroe Wind Farm,Wind,168.0,24.7,Musselroe Wind Farm,-40.780225,148.010799,2026-02-12T18:42:17.010519
2026/02/13 04:45:00,MUWAWF1,152.63,Telstra Energy (Generation) Pty Ltd,Murra Warra Wind Farm,Wind,225.7,67.63,Murra Warra Wind Farm,-36.432404,142.317853,2026-02-12T18:42:17.010519
2026/02/13 04:45:00,MUWAWF2,152.3,Murra Warra II Project Co Pty Ltd ATF The Murra Warra II Project Trust,Murra Warra Wind Farm Stage 2,Wind,203.0,75.02,Murra Warra Wind Farm Stage 2,-36.43,142.32,2026-02-12T18:42:17.010519
2026/02/13 04:45:00,NBHWF1,111.8,AGL SA Generation Pty Limited,North Brown Hill Wind Farm,Wind,132.0,84.7,North Brown Hill Wind Farm,-33.367778,138.728611,2026-02-12T18:42:17.010519
2026/02/13 04:45:00,OAKLAND1,6.1,AGL Hydro Partnership,Oaklands Hill Wind Farm,Wind,63.0,9.68,Oaklands Hill Wind Farm,-37.683078,142.551678,2026-02-12T18:42:17.010519
2026/02/13 04:45:00,PAREPW1,157.5,Iberdrola Australia Energy Markets Pty Limited,Port Augusta Renewable Energy Park,Wind,201.0,78.36,Port Augusta Renewable Energy Park,-32.566944,137.856111,2026-02-12T18:42:17.010519
2026/02/13 04:45:00,RYANCWF1,8.25,Ryan Corner Development Pty Ltd,Ryan Corner Wind Farm,Wind,205.0,4.02,Ryan Corner Wind Farm,-38.271017,142.140647,2026-02-12T18:42:17.010519
2026/02/13 04:45:00,RYEPARK1,305.52,Rye Park Renewable Energy Pty Ltd as trustee for Rye Park Wind Farm Trust,Rye Park Renewable Energy,Wind,384.0,79.56,Rye Park Renewable Energy,-32.138333,148.972778,2026-02-12T18:42:17.010519
2026/02/13 04:45:00,SALTCRK1,1.86,Salt Creek Wind Farm Pty Ltd,Salt Creek Wind Farm,Wind,54.0,3.44,Salt Creek Wind Farm,-37.95,142.63,2026-02-12T18:42:17.010519
2026/02/13 04:45:00,SAPHWF1,130.05,The Trustee For The SWF1 Operations Trust,Sapphire Wind Farm,Wind,270.0,48.17,Sapphire Wind Farm,-29.7,151.41,2026-02-12T18:42:17.010519
2026/02/13 04:45:00,SNOWNTH1,106.2,Snowtown Wind Farm Stage 2 Pty Ltd,Snowtown Wind Farm Stage 2 North,Wind,144.0,73.75,Snowtown Wind Farm Stage 2 North,-33.83,138.118611,2026-02-12T18:42:17.010519
2026/02/13 04:45:00,SNOWSTH1,103.2,Snowtown Wind Farm Stage 2 Pty Ltd,Snowtown South Wind Farm,Wind,126.0,81.9,Snowtown South Wind Farm,-33.83,138.118611,2026-02-12T18:42:17.010519
2026/02/13 04:45:00,SNOWTWN1,85.64,Snowtown Wind Farm Pty Ltd,Snowtown Wind Farm Units 1 And 47,Wind,99.0,86.51,Snowtown Wind Farm Units 1 And 47,-33.83,138.118611,2026-02-12T18:42:17.010519
2026/02/13 04:45:00,STARHLWF,20.99,Starfish Hill Wind Farm Pty Ltd,Starfish Hill Wind Farm,Wind,35.0,59.97,Starfish Hill Wind Farm,-35.58,138.14,2026-02-12T18:42:17.010519
2026/02/13 04:45:00,STOCKYD1,134.55,Stockyard Hill Wind Farm Pty Ltd,Stockyard Hill Wind Farm,Wind,511.0,26.33,Stockyard Hill Wind Farm,-37.535833,143.251389,2026-02-12T18:42:17.010519
2026/02/13 04:45:00,STWF1,104.51,PARF Company 8 Pty Ltd as The Trustee for Silverton Project Trust,Silverton Wind Farm,Wind,198.0,52.78,Silverton Wind Farm,-37.683168,142.551678,2026-02-12T18:42:17.010519
2026/02/13 04:45:00,TARALGA1,16.17,Taralga Wind Farm Nominees No 2 Pty Ltd (ATF Taralga Wind Farm Operating Trust),Taralga Wind Farm,Wind,106.0,15.25,Taralga Wind Farm,-34.42352,149.826267,2026-02-12T18:42:17.010519
2026/02/13 04:45:00,WAMBOWF1,0.02,Stanwell Corporation Limited,Wambo Wind Farm 1,Wind,245.0,0.01,Wambo Wind Farm 1,-35.187301,149.524945,2026-02-12T18:42:17.010519
2026/02/13 04:45:00,WATERLWF,96.6,Waterloo Wind Farm Pty Ltd,Waterloo Wind Farm,Wind,130.0,74.31,Waterloo Wind Farm,-34.00094,138.911567,2026-02-12T18:42:17.010519
2026/02/13 04:45:00,WGWF1,0.0,Willogoleche Power Pty Ltd As The Trustee For The Willogoleche Operating Trust,Willogoleche Wind Farm,Wind,119.0,0.0,Willogoleche Wind Farm,-33.39,138.85,2026-02-12T18:42:17.010519
2026/02/13 04:45:00,WOODLWN1,15.24,Woodlawn Wind Pty Ltd,Woodlawn Wind Farm,Wind,48.0,31.75,Woodlawn Wind Farm,-35.08,149.62,2026-02-12T18:42:17.010519
2026/02/13 04:45:00,WPWF,64.93,AGL SA Generation Pty Limited,Wattle Point Wind Farm,Wind,91.0,71.35,Wattle Point Wind Farm,-35.111624,137.7219,2026-02-12T18:42:17.010519
2026/02/13 04:45:00,WRWF1,166.85,White Rock Wind Farm Pty Ltd,White Rock Wind Farm,Wind,172.0,97.01,White Rock Wind Farm,-29.79,151.54,2026-02-12T18:42:17.010519
2026/02/13 04:45:00,YENDWF1,39.88,Lal Lal Wind Farms Nom Co Pty Ltd,Yendon Wind Farm,Wind,142.0,28.08,Yendon Wind Farm,-37.629987,144.022717,2026-02-12T18:42:17.010519
