SETTLEMENTDATE,DUID,SCADAVALUE,Participant,Station Name,Fuel Source - Primary,MAX_CAP,utilisation_pct,Plant,Latitude,Longitude,timestamp_utc
2026/03/26 19:15:00,CAPTL_WF,120.06,Iberdrola Australia Holdings Pty Limited,Capital Wind Farm,Wind,140.0,85.76,Capital Wind Farm,-35.1,149.31,2026-03-26T09:13:58.977077
2026/03/26 19:15:00,CHALLHWF,46.7,Pacific Hydro Challicum Hills Pty Ltd,Challicum Hills Wind Farm,Wind,52.0,89.81,Challicum Hills Wind Farm,-37.38,143.11,2026-03-26T09:13:58.977077
2026/03/26 19:15:00,CULLRGWF,24.35,Cullerin Range Wind Farm Pty Ltd,Cullerin Range Wind Farm,Wind,30.0,81.17,Cullerin Range Wind Farm,-34.81,149.4,2026-03-26T09:13:58.977077
2026/03/26 19:15:00,DIAPURWF1,8.3,Y.E.S. Energy (SA) Pty Ltd,Diapur Wind Farm,Wind,7.0,118.57,Diapur Wind Farm,-36.3425,141.43,2026-03-26T09:13:58.977077
2026/03/26 19:15:00,MLWF1,15.66,Mortons Lane Windfarm Pty Limited,Mortons Lane Wind Farm,Wind,20.0,78.3,Mortons Lane Wind Farm,-37.84,142.45,2026-03-26T09:13:58.977077
2026/03/26 19:15:00,WAUBRAWF,170.84,Pyrenees Wind Energy Developments Pty Ltd,Waubra Wind Farm,Wind,192.0,88.98,Waubra Wind Farm,-37.394498,143.638982,2026-03-26T09:13:58.977077
2026/03/26 19:15:00,WOOLNTH1,97.61,Hydro-Electric Corporation,Woolnorth Studland Bay / Bluff Point Wind Farm,Wind,140.0,69.72,Woolnorth Studland Bay / Bluff Point Wind Farm,-40.69,144.72,2026-03-26T09:13:58.977077
2026/03/26 19:15:00,YAMBUKWF,27.7,Energy Pacific (Vic) Pty Ltd,Yambuk Wind Farm,Wind,30.0,92.33,Yambuk Wind Farm,-38.299083,142.027577,2026-03-26T09:13:58.977077
2026/03/26 19:15:00,YSWF1,13.6,Pacific Hydro Yaloak South Pty Ltd,Yaloak South Wind Farm,Wind,28.0,48.57,Yaloak South Wind Farm,-37.7163,144.242853,2026-03-26T09:13:58.977077
2026/03/26 19:15:00,ARWF1,152.9,Ararat Wind Farm Pty Ltd,Ararat Wind Farm,Wind,241.0,63.44,Ararat Wind Farm,-37.232778,143.031389,2026-03-26T09:13:58.977077
2026/03/26 19:15:00,BALDHWF1,92.55,Alinta Energy Retail Sales Pty Ltd,Bald Hills Wind Farm,Wind,106.0,87.31,Bald Hills Wind Farm,-38.79,145.93,2026-03-26T09:13:58.977077
2026/03/26 19:15:00,BANGOWF1,143.2,BWF Nominees Pty Ltd as The Trustee for BWF Trust,Bango 973 Wind Farm,Wind,155.0,92.39,Bango 973 Wind Farm,-34.551582,148.732808,2026-03-26T09:13:58.977077
2026/03/26 19:15:00,BANGOWF2,63.6,BWF Nominees Pty Ltd as The Trustee for BWF Trust,Bango 999 Wind Farm,Wind,82.0,77.56,Bango 999 Wind Farm,-34.551582,148.732808,2026-03-26T09:13:58.977077
2026/03/26 19:15:00,BLUFF1,40.4,AGL SA Generation Pty Limited,The Bluff Wind Farm,Wind,53.0,76.23,The Bluff Wind Farm,-33.367778,138.728611,2026-03-26T09:13:58.977077
2026/03/26 19:15:00,BOCORWF1,32.47,Boco Rock Wind Farm Pty Ltd,Boco Rock Wind Farm,Wind,111.0,29.25,Boco Rock Wind Farm,-36.578611,149.103333,2026-03-26T09:13:58.977077
2026/03/26 19:15:00,BRYB1WF1,56.64,Berrybank Development Pty Ltd,Berrybank Wind Farm,Wind,175.9,32.2,Berrybank Wind Farm,-37.94,143.52,2026-03-26T09:13:58.977077
2026/03/26 19:15:00,BRYB2WF2,46.63,Berrybank 2 Asset Pty Ltd as trustee for Berrybank 2 Asset Trust,Berrybank 2 Wind Farm,Wind,105.0,44.41,Berrybank 2 Wind Farm,-37.94,143.52,2026-03-26T09:13:58.977077
2026/03/26 19:15:00,BULGANA1,103.83,Bulgana Wind Farm Pty Ltd,Bulgana Green Power Hub,Wind,204.0,50.9,Bulgana Green Power Hub,-37.0975,142.973611,2026-03-26T09:13:58.977077
2026/03/26 19:15:00,CATHROCK,31.2,Cathedral Rocks Wind Farm Pty Ltd,Cathedral Rocks,Wind,66.0,47.27,Cathedral Rocks,-34.51,135.35,2026-03-26T09:13:58.977077
2026/03/26 19:15:00,CHYTWF1,54.8,Cherry Tree Wind Farm Pty Ltd as trustee for The Cherry Tree Project trust ,Cherry Tree Wind Farm,Wind,57.0,96.14,Cherry Tree Wind Farm,-37.1,145.26,2026-03-26T09:13:58.977077
2026/03/26 19:15:00,CLEMGPWF,48.26,Pacific Hydro Clements Gap Pty Ltd,Clements Gap Wind Farm,Wind,57.0,84.67,Clements Gap Wind Farm,-33.48,138.1,2026-03-26T09:13:58.977077
2026/03/26 19:15:00,CLRKCWF1,276.07,Stanwell Corporation Limited ,Clarke Creek Wind Farm,Wind,338.0,81.68,Clarke Creek Wind Farm,-22.85,149.45,2026-03-26T09:13:58.977077
2026/03/26 19:15:00,CLRKCWF2,67.81,Stanwell Corporation Limited ,Clarke Creek Wind Farm,Wind,101.0,67.14,Clarke Creek Wind Farm,-22.85,149.45,2026-03-26T09:13:58.977077
2026/03/26 19:15:00,CNUNDAWF,40.55,Canunda Power Pty Ltd,Canunda Wind Farm,Wind,46.0,88.15,Canunda Wind Farm,-37.73,140.39,2026-03-26T09:13:58.977077
2026/03/26 19:15:00,COLWF01,184.23,Collector Wind Farm Pty Ltd,Collector Wind Farm 1,Wind,219.0,84.12,Collector Wind Farm 1,-34.8719,149.3967,2026-03-26T09:13:58.977077
2026/03/26 19:15:00,COOPGWF1,76.3,PARF Company 10 Pty Limited as The Trustee for Coopers Gap Project Trust,Coopers Gap Wind Farm,Wind,440.0,17.34,Coopers Gap Wind Farm,-26.74,151.45,2026-03-26T09:13:58.977077
2026/03/26 19:15:00,CROOKWF2,76.21,Crookwell Development Pty Ltd ,Crookwell 2 Wind Farm,Wind,91.0,83.75,Crookwell 2 Wind Farm,-34.52,149.54,2026-03-26T09:13:58.977077
2026/03/26 19:15:00,CROOKWF3,54.67,Crookwell 3 Development Pty Ltd,Crookwell 3 Wind Farm,Wind,56.0,97.62,Crookwell 3 Wind Farm,-34.52,149.54,2026-03-26T09:13:58.977077
2026/03/26 19:15:00,CROWLWF1,50.37,Pacific Hydro Crowlands Pty Ltd ,Crowlands Wind Farm,Wind,79.0,63.76,Crowlands Wind Farm,-37.13,143.16,2026-03-26T09:13:58.977077
2026/03/26 19:15:00,CRURWF1,72.3,CRWF Nominees Pty Ltd As Trustee For The CRWF Trust,Crudine Ridge Wind Farm,Wind,138.0,52.39,Crudine Ridge Wind Farm,-32.97,149.64,2026-03-26T09:13:58.977077
2026/03/26 19:15:00,CTHLWF1,118.48,Wild Cattle Hill Pty Ltd,Cattle Hill Wind Farm,Wind,144.0,82.28,Cattle Hill Wind Farm,-42.15,146.69,2026-03-26T09:13:58.977077
2026/03/26 19:15:00,DULAWF1,40.5,Dulacca Energy Project Co Pty Ltd,Dulacca Wind Farm,Wind,173.0,23.41,Dulacca Wind Farm,-26.63,149.87,2026-03-26T09:13:58.977077
2026/03/26 19:15:00,DUNDWF1,83.98,Dundonnell Wind Farm Pty Ltd,Dundonnell Wind Farm,Wind,168.0,49.99,Dundonnell Wind Farm,-37.52,142.58,2026-03-26T09:13:58.977077
2026/03/26 19:15:00,DUNDWF2,23.18,Dundonnell Wind Farm Pty Ltd,Dundonnell Wind Farm,Wind,46.0,50.39,Dundonnell Wind Farm,-37.52,142.58,2026-03-26T09:13:58.977077
2026/03/26 19:15:00,DUNDWF3,60.84,Dundonnell Wind Farm Pty Ltd,Dundonnell Wind Farm,Wind,122.0,49.87,Dundonnell Wind Farm,-37.52,142.58,2026-03-26T09:13:58.977077
2026/03/26 19:15:00,ELAINWF1,27.09,Lal Lal Wind Farms Nom Co Pty Ltd,Elaine Wind Farm,Wind,82.0,33.04,Elaine Wind Farm,-37.36,144.0,2026-03-26T09:13:58.977077
2026/03/26 19:15:00,FLYCRKWF,121.77,Iberdrola Australia Energy Markets Pty Limited,Flyers Creek Wind Farm,Wind,140.0,86.98,Flyers Creek Wind Farm,-33.365556,148.981944,2026-03-26T09:13:58.977077
2026/03/26 19:15:00,GPWFEST1,75.14,Golden Plains WF1 Pty Ltd as Trustee for the Golden Plains WF1 Unit Trust,Golden Plains Wind Farm East,Wind,240.0,31.31,Golden Plains Wind Farm East,-37.945091,143.752614,2026-03-26T09:13:58.977077
2026/03/26 19:15:00,GPWFEST2,79.15,Golden Plains WF1 Pty Ltd as Trustee for the Golden Plains WF1 Unit Trust,Golden Plains Wind Farm East,Wind,253.0,31.28,Golden Plains Wind Farm East,-37.945091,143.752614,2026-03-26T09:13:58.977077
2026/03/26 19:15:00,GPWFEST3,112.96,Golden Plains WF1 Pty Ltd as Trustee for the Golden Plains WF1 Unit Trust,Golden Plains Wind Farm East,Wind,240.0,47.07,Golden Plains Wind Farm East,-37.945091,143.752614,2026-03-26T09:13:58.977077
2026/03/26 19:15:00,GRANWF1,93.0,Granville Harbour Operations Pty Ltd as The Trustee for Granville Harbour Operations Trust,Granville Harbour Wind Farm,Wind,111.0,83.78,Granville Harbour Wind Farm,-41.8,145.06,2026-03-26T09:13:58.977077
2026/03/26 19:15:00,GSWF1A,72.11,Goyder Wind Farm 1 Pty Ltd as the Trustee for Goyder Wind Farm 1 Trust,Goyder South Wind Farm 1A,Wind,201.0,35.88,Goyder South Wind Farm 1A,-33.679758,138.937597,2026-03-26T09:13:58.977077
2026/03/26 19:15:00,GSWF1B1,0.06,Goyder Wind Farm 1B Pty Ltd as the Trustee for the Goyder Wind Farm 1B Trust,Goyder South Wind Farm 1B,Wind,196.0,0.03,Goyder South Wind Farm 1B,-33.679758,138.937597,2026-03-26T09:13:58.977077
2026/03/26 19:15:00,GULLRWF1,135.19,New Gullen Range Wind Farm Pty Ltd,Gullen Range Wind Farm,Wind,161.0,83.97,Gullen Range Wind Farm,-34.34,149.27,2026-03-26T09:13:58.977077
2026/03/26 19:15:00,GULLRWF2,104.7,New Gullen Range Wind Farm Pty Ltd,Gullen Range Wind Farm,Wind,107.0,97.85,Gullen Range Wind Farm,-34.34,149.27,2026-03-26T09:13:58.977077
2026/03/26 19:15:00,GUNNING1,40.52,Gunning Wind Energy Developments Pty Ltd,Gunning Wind Farm,Wind,47.0,86.21,Gunning Wind Farm,-34.813333,149.4,2026-03-26T09:13:58.977077
2026/03/26 19:15:00,HALLWF1,66.15,AGL SA Generation Pty Limited,Hallett 1 Wind Farm,Wind,95.0,69.63,Hallett 1 Wind Farm,-33.367778,138.728611,2026-03-26T09:13:58.977077
2026/03/26 19:15:00,HALLWF2,54.43,AGL SA Generation Pty Limited,Hallett 2 Wind Farm,Wind,71.0,76.66,Hallett 2 Wind Farm,-33.367778,138.728611,2026-03-26T09:13:58.977077
2026/03/26 19:15:00,HD1WF1,88.66,Hawkesdale Asset Pty Ltd as trustee for Hawkesdale Asset Trust,Hawkesdale Wind Farm,Wind,89.0,99.62,Hawkesdale Wind Farm,-38.147894,142.361381,2026-03-26T09:13:58.977077
2026/03/26 19:15:00,HDWF1,89.2,HWF1 Pty Ltd,Hornsdale Wind Farm,Wind,102.0,87.45,Hornsdale Wind Farm,-33.050556,138.543611,2026-03-26T09:13:58.977077
2026/03/26 19:15:00,HDWF2,99.5,HWF 2 Pty Ltd,Hornsdale Wind Farm 2,Wind,102.0,97.55,Hornsdale Wind Farm 2,-33.06,138.54,2026-03-26T09:13:58.977077
2026/03/26 19:15:00,HDWF3,108.5,HWF3 Pty Ltd,Hornsdale Wind Farm 3,Wind,109.0,99.54,Hornsdale Wind Farm 3,-33.06,138.54,2026-03-26T09:13:58.977077
2026/03/26 19:15:00,KABANWF1,31.57,Kaban Wind Farm Pty Ltd as trustee for Kaban Wind Farm Trust,Kaban Wind Farm,Wind,152.0,20.77,Kaban Wind Farm,-17.56,145.41,2026-03-26T09:13:58.977077
2026/03/26 19:15:00,KEPWF1,2.7,Kennedy Energy Park Pty Ltd,Kennedy Energy Park,Wind,43.0,6.28,Kennedy Energy Park,-20.88,144.42,2026-03-26T09:13:58.977077
2026/03/26 19:15:00,KIATAWF1,28.1,Kiata ProjectCo Pty Ltd Atf Kiata Project Trust,Kiata Wind Farm,Wind,31.0,90.65,Kiata Wind Farm,-36.4,141.75,2026-03-26T09:13:58.977077
2026/03/26 19:15:00,LGAPWF1,44.77,Lincoln Gap Wind Farm (Operations) Pty Ltd,Lincoln Gap Wind Farm,Wind,123.0,36.4,Lincoln Gap Wind Farm,-32.564279,137.557328,2026-03-26T09:13:58.977077
2026/03/26 19:15:00,LGAPWF1,44.77,Lincoln Gap Wind Farm (Operations) Pty Ltd,Lincoln Gap Wind Farm,Wind,123.0,36.4,Lincoln Gap Wind Farm,-32.564279,137.557328,2026-03-26T09:13:58.977077
2026/03/26 19:15:00,LGAPWF2,79.2,Lincoln Gap Wind Farm (Operations) Pty Ltd,Lincoln Gap Wind Farm,Wind,85.0,93.18,Lincoln Gap Wind Farm,-32.564279,137.557328,2026-03-26T09:13:58.977077
2026/03/26 19:15:00,LGAPWF2,79.2,Lincoln Gap Wind Farm (Operations) Pty Ltd,Lincoln Gap Wind Farm,Wind,85.0,93.18,Lincoln Gap Wind Farm,-32.564279,137.557328,2026-03-26T09:13:58.977077
2026/03/26 19:15:00,LKBONNY1,38.67,Lake Bonney Wind Power Pty Ltd,Lake Bonney Wind Farm Stage 1,Wind,81.0,47.74,Lake Bonney Wind Farm Stage 1,-37.76,140.4,2026-03-26T09:13:58.977077
2026/03/26 19:15:00,LKBONNY2,60.82,Lake Bonney Wind Power Pty Ltd,Lake Bonney Stage 2 Windfarm,Wind,159.0,38.25,Lake Bonney Stage 2 Windfarm,-37.76,140.4,2026-03-26T09:13:58.977077
2026/03/26 19:15:00,LKBONNY3,21.38,Lake Bonney Wind Power Pty Ltd,Lake Bonney Stage 3 Wind Farm,Wind,39.0,54.82,Lake Bonney Stage 3 Wind Farm,-37.737781,140.388137,2026-03-26T09:13:58.977077
2026/03/26 19:15:00,MACARTH1,272.1,AGL Hydro Partnership,Macarthur Wind Farm,Wind,420.0,64.79,Macarthur Wind Farm,-38.048957,142.192112,2026-03-26T09:13:58.977077
2026/03/26 19:15:00,MCINTYR1,35.03,MacIntyre UJV Operator Pty Ltd,MacIntyre Wind Farm,Wind,890.0,3.94,MacIntyre Wind Farm,-28.32,151.54,2026-03-26T09:13:58.977077
2026/03/26 19:15:00,MERCER01,36.7,Mt Mercer Windfarm Pty Ltd,Mt Mercer Wind Farm,Wind,131.0,28.02,Mt Mercer Wind Farm,-37.841111,143.871111,2026-03-26T09:13:58.977077
2026/03/26 19:15:00,MEWF1,83.28,Ergon Energy Queensland Pty Ltd ,Mount Emerald Wind Farm,Wind,178.0,46.79,Mount Emerald Wind Farm,-17.133007,145.380644,2026-03-26T09:13:58.977077
2026/03/26 19:15:00,MRTLSWF1,144.83,Mortlake South Wind Farm Pty Ltd,Mortlake South Wind Farm,Wind,153.0,94.66,Mortlake South Wind Farm,-38.127337,142.857801,2026-03-26T09:13:58.977077
2026/03/26 19:15:00,MTGELWF1,56.0,Mt. Gellibrand Wind Farm Pty Ltd,Mt Gellibrand Wind Farm,Wind,132.0,42.42,Mt Gellibrand Wind Farm,-38.23,143.77,2026-03-26T09:13:58.977077
2026/03/26 19:15:00,MTMILLAR,59.5,Mt Millar Wind Farm Pty Ltd,Mt Millar Wind Farm,Wind,70.0,85.0,Mt Millar Wind Farm,-33.624444,136.703611,2026-03-26T09:13:58.977077
2026/03/26 19:15:00,MUSSELR1,137.5,Hydro-Electric Corporation,Musselroe Wind Farm,Wind,168.0,81.85,Musselroe Wind Farm,-40.780225,148.010799,2026-03-26T09:13:58.977077
2026/03/26 19:15:00,MUWAWF1,142.56,Telstra Energy (Generation) Pty Ltd,Murra Warra Wind Farm,Wind,225.7,63.16,Murra Warra Wind Farm,-36.432404,142.317853,2026-03-26T09:13:58.977077
2026/03/26 19:15:00,MUWAWF2,129.4,Murra Warra II Project Co Pty Ltd ATF The Murra Warra II Project Trust,Murra Warra Wind Farm Stage 2,Wind,203.0,63.74,Murra Warra Wind Farm Stage 2,-36.43,142.32,2026-03-26T09:13:58.977077
2026/03/26 19:15:00,NBHWF1,111.0,AGL SA Generation Pty Limited,North Brown Hill Wind Farm,Wind,132.0,84.09,North Brown Hill Wind Farm,-33.367778,138.728611,2026-03-26T09:13:58.977077
2026/03/26 19:15:00,OAKLAND1,58.0,AGL Hydro Partnership,Oaklands Hill Wind Farm,Wind,63.0,92.06,Oaklands Hill Wind Farm,-37.683078,142.551678,2026-03-26T09:13:58.977077
2026/03/26 19:15:00,PAREPW1,186.07,Iberdrola Australia Energy Markets Pty Limited,Port Augusta Renewable Energy Park,Wind,201.0,92.57,Port Augusta Renewable Energy Park,-32.566944,137.856111,2026-03-26T09:13:58.977077
2026/03/26 19:15:00,RYANCWF1,149.98,Ryan Corner Development Pty Ltd,Ryan Corner Wind Farm,Wind,205.0,73.16,Ryan Corner Wind Farm,-38.271017,142.140647,2026-03-26T09:13:58.977077
2026/03/26 19:15:00,RYEPARK1,346.56,Rye Park Renewable Energy Pty Ltd as trustee for Rye Park Wind Farm Trust,Rye Park Renewable Energy,Wind,384.0,90.25,Rye Park Renewable Energy,-32.138333,148.972778,2026-03-26T09:13:58.977077
2026/03/26 19:15:00,SALTCRK1,27.57,Salt Creek Wind Farm Pty Ltd,Salt Creek Wind Farm,Wind,54.0,51.06,Salt Creek Wind Farm,-37.95,142.63,2026-03-26T09:13:58.977077
2026/03/26 19:15:00,SAPHWF1,78.04,The Trustee For The SWF1 Operations Trust,Sapphire Wind Farm,Wind,270.0,28.9,Sapphire Wind Farm,-29.7,151.41,2026-03-26T09:13:58.977077
2026/03/26 19:15:00,SNOWNTH1,119.2,Snowtown Wind Farm Stage 2 Pty Ltd,Snowtown Wind Farm Stage 2 North,Wind,144.0,82.78,Snowtown Wind Farm Stage 2 North,-33.83,138.118611,2026-03-26T09:13:58.977077
2026/03/26 19:15:00,SNOWSTH1,102.9,Snowtown Wind Farm Stage 2 Pty Ltd,Snowtown South Wind Farm,Wind,126.0,81.67,Snowtown South Wind Farm,-33.83,138.118611,2026-03-26T09:13:58.977077
2026/03/26 19:15:00,SNOWTWN1,82.7,Snowtown Wind Farm Pty Ltd,Snowtown Wind Farm Units 1 And 47,Wind,99.0,83.54,Snowtown Wind Farm Units 1 And 47,-33.83,138.118611,2026-03-26T09:13:58.977077
2026/03/26 19:15:00,STARHLWF,25.79,Starfish Hill Wind Farm Pty Ltd,Starfish Hill Wind Farm,Wind,35.0,73.69,Starfish Hill Wind Farm,-35.58,138.14,2026-03-26T09:13:58.977077
2026/03/26 19:15:00,STOCKYD1,458.72,Stockyard Hill Wind Farm Pty Ltd,Stockyard Hill Wind Farm,Wind,511.0,89.77,Stockyard Hill Wind Farm,-37.535833,143.251389,2026-03-26T09:13:58.977077
2026/03/26 19:15:00,STWF1,128.84,PARF Company 8 Pty Ltd as The Trustee for Silverton Project Trust,Silverton Wind Farm,Wind,198.0,65.07,Silverton Wind Farm,-37.683168,142.551678,2026-03-26T09:13:58.977077
2026/03/26 19:15:00,TARALGA1,92.66,Taralga Wind Farm Nominees No 2 Pty Ltd (ATF Taralga Wind Farm Operating Trust),Taralga Wind Farm,Wind,106.0,87.42,Taralga Wind Farm,-34.42352,149.826267,2026-03-26T09:13:58.977077
2026/03/26 19:15:00,WAMBOWF1,97.75,Stanwell Corporation Limited,Wambo Wind Farm 1,Wind,245.0,39.9,Wambo Wind Farm 1,-35.187301,149.524945,2026-03-26T09:13:58.977077
2026/03/26 19:15:00,WATERLWF,71.8,Waterloo Wind Farm Pty Ltd,Waterloo Wind Farm,Wind,130.0,55.23,Waterloo Wind Farm,-34.00094,138.911567,2026-03-26T09:13:58.977077
2026/03/26 19:15:00,WGWF1,92.2,Willogoleche Power Pty Ltd As The Trustee For The Willogoleche Operating Trust,Willogoleche Wind Farm,Wind,119.0,77.48,Willogoleche Wind Farm,-33.39,138.85,2026-03-26T09:13:58.977077
2026/03/26 19:15:00,WOODLWN1,45.01,Woodlawn Wind Pty Ltd,Woodlawn Wind Farm,Wind,48.0,93.77,Woodlawn Wind Farm,-35.08,149.62,2026-03-26T09:13:58.977077
2026/03/26 19:15:00,WPWF,76.64,AGL SA Generation Pty Limited,Wattle Point Wind Farm,Wind,91.0,84.22,Wattle Point Wind Farm,-35.111624,137.7219,2026-03-26T09:13:58.977077
2026/03/26 19:15:00,WRWF1,55.43,White Rock Wind Farm Pty Ltd,White Rock Wind Farm,Wind,172.0,32.23,White Rock Wind Farm,-29.79,151.54,2026-03-26T09:13:58.977077
2026/03/26 19:15:00,YENDWF1,57.94,Lal Lal Wind Farms Nom Co Pty Ltd,Yendon Wind Farm,Wind,142.0,40.8,Yendon Wind Farm,-37.629987,144.022717,2026-03-26T09:13:58.977077
