SETTLEMENTDATE,DUID,SCADAVALUE,Participant,Station Name,Fuel Source - Primary,MAX_CAP,utilisation_pct,Plant,Latitude,Longitude,timestamp_utc
2026/02/12 19:05:00,CAPTL_WF,85.0,Iberdrola Australia Holdings Pty Limited,Capital Wind Farm,Wind,140.0,60.71,Capital Wind Farm,-35.1,149.31,2026-02-12T09:06:45.032568
2026/02/12 19:05:00,CHALLHWF,26.8,Pacific Hydro Challicum Hills Pty Ltd,Challicum Hills Wind Farm,Wind,52.0,51.54,Challicum Hills Wind Farm,-37.38,143.11,2026-02-12T09:06:45.032568
2026/02/12 19:05:00,CULLRGWF,26.31,Cullerin Range Wind Farm Pty Ltd,Cullerin Range Wind Farm,Wind,30.0,87.7,Cullerin Range Wind Farm,-34.81,149.4,2026-02-12T09:06:45.032568
2026/02/12 19:05:00,DIAPURWF1,3.3,Y.E.S. Energy (SA) Pty Ltd,Diapur Wind Farm,Wind,7.0,47.14,Diapur Wind Farm,-36.3425,141.43,2026-02-12T09:06:45.032568
2026/02/12 19:05:00,MLWF1,9.64,Mortons Lane Windfarm Pty Limited,Mortons Lane Wind Farm,Wind,20.0,48.2,Mortons Lane Wind Farm,-37.84,142.45,2026-02-12T09:06:45.032568
2026/02/12 19:05:00,WAUBRAWF,122.62,Pyrenees Wind Energy Developments Pty Ltd,Waubra Wind Farm,Wind,192.0,63.86,Waubra Wind Farm,-37.394498,143.638982,2026-02-12T09:06:45.032568
2026/02/12 19:05:00,WOOLNTH1,68.56,Hydro-Electric Corporation,Woolnorth Studland Bay / Bluff Point Wind Farm,Wind,140.0,48.97,Woolnorth Studland Bay / Bluff Point Wind Farm,-40.69,144.72,2026-02-12T09:06:45.032568
2026/02/12 19:05:00,YAMBUKWF,6.1,Energy Pacific (Vic) Pty Ltd,Yambuk Wind Farm,Wind,30.0,20.33,Yambuk Wind Farm,-38.299083,142.027577,2026-02-12T09:06:45.032568
2026/02/12 19:05:00,YSWF1,12.6,Pacific Hydro Yaloak South Pty Ltd,Yaloak South Wind Farm,Wind,28.0,45.0,Yaloak South Wind Farm,-37.7163,144.242853,2026-02-12T09:06:45.032568
2026/02/12 19:05:00,ARWF1,138.8,Ararat Wind Farm Pty Ltd,Ararat Wind Farm,Wind,241.0,57.59,Ararat Wind Farm,-37.232778,143.031389,2026-02-12T09:06:45.032568
2026/02/12 19:05:00,BALDHWF1,33.24,Alinta Energy Retail Sales Pty Ltd,Bald Hills Wind Farm,Wind,106.0,31.36,Bald Hills Wind Farm,-38.79,145.93,2026-02-12T09:06:45.032568
2026/02/12 19:05:00,BANGOWF1,97.5,BWF Nominees Pty Ltd as The Trustee for BWF Trust,Bango 973 Wind Farm,Wind,155.0,62.9,Bango 973 Wind Farm,-34.551582,148.732808,2026-02-12T09:06:45.032568
2026/02/12 19:05:00,BANGOWF2,62.1,BWF Nominees Pty Ltd as The Trustee for BWF Trust,Bango 999 Wind Farm,Wind,82.0,75.73,Bango 999 Wind Farm,-34.551582,148.732808,2026-02-12T09:06:45.032568
2026/02/12 19:05:00,BLUFF1,26.3,AGL SA Generation Pty Limited,The Bluff Wind Farm,Wind,53.0,49.62,The Bluff Wind Farm,-33.367778,138.728611,2026-02-12T09:06:45.032568
2026/02/12 19:05:00,BOCORWF1,56.21,Boco Rock Wind Farm Pty Ltd,Boco Rock Wind Farm,Wind,111.0,50.64,Boco Rock Wind Farm,-36.578611,149.103333,2026-02-12T09:06:45.032568
2026/02/12 19:05:00,BRYB1WF1,68.35,Berrybank Development Pty Ltd,Berrybank Wind Farm,Wind,175.9,38.86,Berrybank Wind Farm,-37.94,143.52,2026-02-12T09:06:45.032568
2026/02/12 19:05:00,BRYB2WF2,45.9,Berrybank 2 Asset Pty Ltd as trustee for Berrybank 2 Asset Trust,Berrybank 2 Wind Farm,Wind,105.0,43.71,Berrybank 2 Wind Farm,-37.94,143.52,2026-02-12T09:06:45.032568
2026/02/12 19:05:00,BULGANA1,148.5,Bulgana Wind Farm Pty Ltd,Bulgana Green Power Hub,Wind,204.0,72.79,Bulgana Green Power Hub,-37.0975,142.973611,2026-02-12T09:06:45.032568
2026/02/12 19:05:00,CATHROCK,25.7,Cathedral Rocks Wind Farm Pty Ltd,Cathedral Rocks,Wind,66.0,38.94,Cathedral Rocks,-34.51,135.35,2026-02-12T09:06:45.032568
2026/02/12 19:05:00,CHYTWF1,49.56,Cherry Tree Wind Farm Pty Ltd as trustee for The Cherry Tree Project trust ,Cherry Tree Wind Farm,Wind,57.0,86.95,Cherry Tree Wind Farm,-37.1,145.26,2026-02-12T09:06:45.032568
2026/02/12 19:05:00,CLEMGPWF,53.74,Pacific Hydro Clements Gap Pty Ltd,Clements Gap Wind Farm,Wind,57.0,94.28,Clements Gap Wind Farm,-33.48,138.1,2026-02-12T09:06:45.032568
2026/02/12 19:05:00,CLRKCWF1,229.66,Stanwell Corporation Limited ,Clarke Creek Wind Farm,Wind,338.0,67.95,Clarke Creek Wind Farm,-22.85,149.45,2026-02-12T09:06:45.032568
2026/02/12 19:05:00,CLRKCWF2,49.81,Stanwell Corporation Limited ,Clarke Creek Wind Farm,Wind,101.0,49.32,Clarke Creek Wind Farm,-22.85,149.45,2026-02-12T09:06:45.032568
2026/02/12 19:05:00,CNUNDAWF,11.21,Canunda Power Pty Ltd,Canunda Wind Farm,Wind,46.0,24.37,Canunda Wind Farm,-37.73,140.39,2026-02-12T09:06:45.032568
2026/02/12 19:05:00,COLWF01,144.7,Collector Wind Farm Pty Ltd,Collector Wind Farm 1,Wind,219.0,66.07,Collector Wind Farm 1,-34.8719,149.3967,2026-02-12T09:06:45.032568
2026/02/12 19:05:00,COOPGWF1,285.39,PARF Company 10 Pty Limited as The Trustee for Coopers Gap Project Trust,Coopers Gap Wind Farm,Wind,440.0,64.86,Coopers Gap Wind Farm,-26.74,151.45,2026-02-12T09:06:45.032568
2026/02/12 19:05:00,CROOKWF2,62.25,Crookwell Development Pty Ltd ,Crookwell 2 Wind Farm,Wind,91.0,68.41,Crookwell 2 Wind Farm,-34.52,149.54,2026-02-12T09:06:45.032568
2026/02/12 19:05:00,CROOKWF3,36.92,Crookwell 3 Development Pty Ltd,Crookwell 3 Wind Farm,Wind,56.0,65.93,Crookwell 3 Wind Farm,-34.52,149.54,2026-02-12T09:06:45.032568
2026/02/12 19:05:00,CROWLWF1,69.16,Pacific Hydro Crowlands Pty Ltd ,Crowlands Wind Farm,Wind,79.0,87.54,Crowlands Wind Farm,-37.13,143.16,2026-02-12T09:06:45.032568
2026/02/12 19:05:00,CRURWF1,62.5,CRWF Nominees Pty Ltd As Trustee For The CRWF Trust,Crudine Ridge Wind Farm,Wind,138.0,45.29,Crudine Ridge Wind Farm,-32.97,149.64,2026-02-12T09:06:45.032568
2026/02/12 19:05:00,CTHLWF1,61.26,Wild Cattle Hill Pty Ltd,Cattle Hill Wind Farm,Wind,144.0,42.54,Cattle Hill Wind Farm,-42.15,146.69,2026-02-12T09:06:45.032568
2026/02/12 19:05:00,DULAWF1,31.3,Dulacca Energy Project Co Pty Ltd,Dulacca Wind Farm,Wind,173.0,18.09,Dulacca Wind Farm,-26.63,149.87,2026-02-12T09:06:45.032568
2026/02/12 19:05:00,DUNDWF1,82.45,Dundonnell Wind Farm Pty Ltd,Dundonnell Wind Farm,Wind,168.0,49.08,Dundonnell Wind Farm,-37.52,142.58,2026-02-12T09:06:45.032568
2026/02/12 19:05:00,DUNDWF2,23.29,Dundonnell Wind Farm Pty Ltd,Dundonnell Wind Farm,Wind,46.0,50.63,Dundonnell Wind Farm,-37.52,142.58,2026-02-12T09:06:45.032568
2026/02/12 19:05:00,DUNDWF3,57.09,Dundonnell Wind Farm Pty Ltd,Dundonnell Wind Farm,Wind,122.0,46.8,Dundonnell Wind Farm,-37.52,142.58,2026-02-12T09:06:45.032568
2026/02/12 19:05:00,ELAINWF1,28.84,Lal Lal Wind Farms Nom Co Pty Ltd,Elaine Wind Farm,Wind,82.0,35.17,Elaine Wind Farm,-37.36,144.0,2026-02-12T09:06:45.032568
2026/02/12 19:05:00,FLYCRKWF,6.52,Iberdrola Australia Energy Markets Pty Limited,Flyers Creek Wind Farm,Wind,140.0,4.66,Flyers Creek Wind Farm,-33.365556,148.981944,2026-02-12T09:06:45.032568
2026/02/12 19:05:00,GPWFEST1,126.79,Golden Plains WF1 Pty Ltd as Trustee for the Golden Plains WF1 Unit Trust,Golden Plains Wind Farm East,Wind,240.0,52.83,Golden Plains Wind Farm East,-37.945091,143.752614,2026-02-12T09:06:45.032568
2026/02/12 19:05:00,GPWFEST2,80.8,Golden Plains WF1 Pty Ltd as Trustee for the Golden Plains WF1 Unit Trust,Golden Plains Wind Farm East,Wind,253.0,31.94,Golden Plains Wind Farm East,-37.945091,143.752614,2026-02-12T09:06:45.032568
2026/02/12 19:05:00,GPWFEST3,101.51,Golden Plains WF1 Pty Ltd as Trustee for the Golden Plains WF1 Unit Trust,Golden Plains Wind Farm East,Wind,240.0,42.3,Golden Plains Wind Farm East,-37.945091,143.752614,2026-02-12T09:06:45.032568
2026/02/12 19:05:00,GRANWF1,52.39,Granville Harbour Operations Pty Ltd as The Trustee for Granville Harbour Operations Trust,Granville Harbour Wind Farm,Wind,111.0,47.2,Granville Harbour Wind Farm,-41.8,145.06,2026-02-12T09:06:45.032568
2026/02/12 19:05:00,GSWF1A,65.52,Goyder Wind Farm 1 Pty Ltd as the Trustee for Goyder Wind Farm 1 Trust,Goyder South Wind Farm 1A,Wind,201.0,32.6,Goyder South Wind Farm 1A,-33.679758,138.937597,2026-02-12T09:06:45.032568
2026/02/12 19:05:00,GSWF1B1,29.83,Goyder Wind Farm 1B Pty Ltd as the Trustee for the Goyder Wind Farm 1B Trust,Goyder South Wind Farm 1B,Wind,196.0,15.22,Goyder South Wind Farm 1B,-33.679758,138.937597,2026-02-12T09:06:45.032568
2026/02/12 19:05:00,GULLRWF1,95.49,New Gullen Range Wind Farm Pty Ltd,Gullen Range Wind Farm,Wind,161.0,59.31,Gullen Range Wind Farm,-34.34,149.27,2026-02-12T09:06:45.032568
2026/02/12 19:05:00,GULLRWF2,107.7,New Gullen Range Wind Farm Pty Ltd,Gullen Range Wind Farm,Wind,107.0,100.65,Gullen Range Wind Farm,-34.34,149.27,2026-02-12T09:06:45.032568
2026/02/12 19:05:00,GUNNING1,40.32,Gunning Wind Energy Developments Pty Ltd,Gunning Wind Farm,Wind,47.0,85.79,Gunning Wind Farm,-34.813333,149.4,2026-02-12T09:06:45.032568
2026/02/12 19:05:00,HALLWF1,39.52,AGL SA Generation Pty Limited,Hallett 1 Wind Farm,Wind,95.0,41.6,Hallett 1 Wind Farm,-33.367778,138.728611,2026-02-12T09:06:45.032568
2026/02/12 19:05:00,HALLWF2,28.65,AGL SA Generation Pty Limited,Hallett 2 Wind Farm,Wind,71.0,40.35,Hallett 2 Wind Farm,-33.367778,138.728611,2026-02-12T09:06:45.032568
2026/02/12 19:05:00,HD1WF1,27.29,Hawkesdale Asset Pty Ltd as trustee for Hawkesdale Asset Trust,Hawkesdale Wind Farm,Wind,89.0,30.66,Hawkesdale Wind Farm,-38.147894,142.361381,2026-02-12T09:06:45.032568
2026/02/12 19:05:00,HDWF1,32.8,HWF1 Pty Ltd,Hornsdale Wind Farm,Wind,102.0,32.16,Hornsdale Wind Farm,-33.050556,138.543611,2026-02-12T09:06:45.032568
2026/02/12 19:05:00,HDWF2,39.6,HWF 2 Pty Ltd,Hornsdale Wind Farm 2,Wind,102.0,38.82,Hornsdale Wind Farm 2,-33.06,138.54,2026-02-12T09:06:45.032568
2026/02/12 19:05:00,HDWF3,39.4,HWF3 Pty Ltd,Hornsdale Wind Farm 3,Wind,109.0,36.15,Hornsdale Wind Farm 3,-33.06,138.54,2026-02-12T09:06:45.032568
2026/02/12 19:05:00,KABANWF1,0.97,Kaban Wind Farm Pty Ltd as trustee for Kaban Wind Farm Trust,Kaban Wind Farm,Wind,152.0,0.64,Kaban Wind Farm,-17.56,145.41,2026-02-12T09:06:45.032568
2026/02/12 19:05:00,KEPWF1,1.8,Kennedy Energy Park Pty Ltd,Kennedy Energy Park,Wind,43.0,4.19,Kennedy Energy Park,-20.88,144.42,2026-02-12T09:06:45.032568
2026/02/12 19:05:00,KIATAWF1,25.4,Kiata ProjectCo Pty Ltd Atf Kiata Project Trust,Kiata Wind Farm,Wind,31.0,81.94,Kiata Wind Farm,-36.4,141.75,2026-02-12T09:06:45.032568
2026/02/12 19:05:00,LGAPWF1,92.5,Lincoln Gap Wind Farm (Operations) Pty Ltd,Lincoln Gap Wind Farm,Wind,123.0,75.2,Lincoln Gap Wind Farm,-32.564279,137.557328,2026-02-12T09:06:45.032568
2026/02/12 19:05:00,LGAPWF1,92.5,Lincoln Gap Wind Farm (Operations) Pty Ltd,Lincoln Gap Wind Farm,Wind,123.0,75.2,Lincoln Gap Wind Farm,-32.564279,137.557328,2026-02-12T09:06:45.032568
2026/02/12 19:05:00,LGAPWF2,85.06,Lincoln Gap Wind Farm (Operations) Pty Ltd,Lincoln Gap Wind Farm,Wind,85.0,100.07,Lincoln Gap Wind Farm,-32.564279,137.557328,2026-02-12T09:06:45.032568
2026/02/12 19:05:00,LGAPWF2,85.06,Lincoln Gap Wind Farm (Operations) Pty Ltd,Lincoln Gap Wind Farm,Wind,85.0,100.07,Lincoln Gap Wind Farm,-32.564279,137.557328,2026-02-12T09:06:45.032568
2026/02/12 19:05:00,LKBONNY1,13.04,Lake Bonney Wind Power Pty Ltd,Lake Bonney Wind Farm Stage 1,Wind,81.0,16.1,Lake Bonney Wind Farm Stage 1,-37.76,140.4,2026-02-12T09:06:45.032568
2026/02/12 19:05:00,LKBONNY2,26.56,Lake Bonney Wind Power Pty Ltd,Lake Bonney Stage 2 Windfarm,Wind,159.0,16.7,Lake Bonney Stage 2 Windfarm,-37.76,140.4,2026-02-12T09:06:45.032568
2026/02/12 19:05:00,LKBONNY3,4.47,Lake Bonney Wind Power Pty Ltd,Lake Bonney Stage 3 Wind Farm,Wind,39.0,11.46,Lake Bonney Stage 3 Wind Farm,-37.737781,140.388137,2026-02-12T09:06:45.032568
2026/02/12 19:05:00,MACARTH1,60.6,AGL Hydro Partnership,Macarthur Wind Farm,Wind,420.0,14.43,Macarthur Wind Farm,-38.048957,142.192112,2026-02-12T09:06:45.032568
2026/02/12 19:05:00,MCINTYR1,50.51,MacIntyre UJV Operator Pty Ltd,MacIntyre Wind Farm,Wind,890.0,5.68,MacIntyre Wind Farm,-28.32,151.54,2026-02-12T09:06:45.032568
2026/02/12 19:05:00,MERCER01,30.5,Mt Mercer Windfarm Pty Ltd,Mt Mercer Wind Farm,Wind,131.0,23.28,Mt Mercer Wind Farm,-37.841111,143.871111,2026-02-12T09:06:45.032568
2026/02/12 19:05:00,MEWF1,0.0,Ergon Energy Queensland Pty Ltd ,Mount Emerald Wind Farm,Wind,178.0,0.0,Mount Emerald Wind Farm,-17.133007,145.380644,2026-02-12T09:06:45.032568
2026/02/12 19:05:00,MRTLSWF1,29.22,Mortlake South Wind Farm Pty Ltd,Mortlake South Wind Farm,Wind,153.0,19.1,Mortlake South Wind Farm,-38.127337,142.857801,2026-02-12T09:06:45.032568
2026/02/12 19:05:00,MTGELWF1,35.26,Mt. Gellibrand Wind Farm Pty Ltd,Mt Gellibrand Wind Farm,Wind,132.0,26.71,Mt Gellibrand Wind Farm,-38.23,143.77,2026-02-12T09:06:45.032568
2026/02/12 19:05:00,MTMILLAR,59.5,Mt Millar Wind Farm Pty Ltd,Mt Millar Wind Farm,Wind,70.0,85.0,Mt Millar Wind Farm,-33.624444,136.703611,2026-02-12T09:06:45.032568
2026/02/12 19:05:00,MUSSELR1,71.8,Hydro-Electric Corporation,Musselroe Wind Farm,Wind,168.0,42.74,Musselroe Wind Farm,-40.780225,148.010799,2026-02-12T09:06:45.032568
2026/02/12 19:05:00,MUWAWF1,160.58,Telstra Energy (Generation) Pty Ltd,Murra Warra Wind Farm,Wind,225.7,71.15,Murra Warra Wind Farm,-36.432404,142.317853,2026-02-12T09:06:45.032568
2026/02/12 19:05:00,MUWAWF2,109.7,Murra Warra II Project Co Pty Ltd ATF The Murra Warra II Project Trust,Murra Warra Wind Farm Stage 2,Wind,203.0,54.04,Murra Warra Wind Farm Stage 2,-36.43,142.32,2026-02-12T09:06:45.032568
2026/02/12 19:05:00,NBHWF1,36.7,AGL SA Generation Pty Limited,North Brown Hill Wind Farm,Wind,132.0,27.8,North Brown Hill Wind Farm,-33.367778,138.728611,2026-02-12T09:06:45.032568
2026/02/12 19:05:00,OAKLAND1,27.0,AGL Hydro Partnership,Oaklands Hill Wind Farm,Wind,63.0,42.86,Oaklands Hill Wind Farm,-37.683078,142.551678,2026-02-12T09:06:45.032568
2026/02/12 19:05:00,PAREPW1,190.81,Iberdrola Australia Energy Markets Pty Limited,Port Augusta Renewable Energy Park,Wind,201.0,94.93,Port Augusta Renewable Energy Park,-32.566944,137.856111,2026-02-12T09:06:45.032568
2026/02/12 19:05:00,RYANCWF1,40.12,Ryan Corner Development Pty Ltd,Ryan Corner Wind Farm,Wind,205.0,19.57,Ryan Corner Wind Farm,-38.271017,142.140647,2026-02-12T09:06:45.032568
2026/02/12 19:05:00,RYEPARK1,310.88,Rye Park Renewable Energy Pty Ltd as trustee for Rye Park Wind Farm Trust,Rye Park Renewable Energy,Wind,384.0,80.96,Rye Park Renewable Energy,-32.138333,148.972778,2026-02-12T09:06:45.032568
2026/02/12 19:05:00,SALTCRK1,18.44,Salt Creek Wind Farm Pty Ltd,Salt Creek Wind Farm,Wind,54.0,34.15,Salt Creek Wind Farm,-37.95,142.63,2026-02-12T09:06:45.032568
2026/02/12 19:05:00,SAPHWF1,66.76,The Trustee For The SWF1 Operations Trust,Sapphire Wind Farm,Wind,270.0,24.73,Sapphire Wind Farm,-29.7,151.41,2026-02-12T09:06:45.032568
2026/02/12 19:05:00,SNOWNTH1,139.8,Snowtown Wind Farm Stage 2 Pty Ltd,Snowtown Wind Farm Stage 2 North,Wind,144.0,97.08,Snowtown Wind Farm Stage 2 North,-33.83,138.118611,2026-02-12T09:06:45.032568
2026/02/12 19:05:00,SNOWSTH1,114.0,Snowtown Wind Farm Stage 2 Pty Ltd,Snowtown South Wind Farm,Wind,126.0,90.48,Snowtown South Wind Farm,-33.83,138.118611,2026-02-12T09:06:45.032568
2026/02/12 19:05:00,SNOWTWN1,87.48,Snowtown Wind Farm Pty Ltd,Snowtown Wind Farm Units 1 And 47,Wind,99.0,88.36,Snowtown Wind Farm Units 1 And 47,-33.83,138.118611,2026-02-12T09:06:45.032568
2026/02/12 19:05:00,STARHLWF,11.6,Starfish Hill Wind Farm Pty Ltd,Starfish Hill Wind Farm,Wind,35.0,33.14,Starfish Hill Wind Farm,-35.58,138.14,2026-02-12T09:06:45.032568
2026/02/12 19:05:00,STOCKYD1,389.02,Stockyard Hill Wind Farm Pty Ltd,Stockyard Hill Wind Farm,Wind,511.0,76.13,Stockyard Hill Wind Farm,-37.535833,143.251389,2026-02-12T09:06:45.032568
2026/02/12 19:05:00,STWF1,103.49,PARF Company 8 Pty Ltd as The Trustee for Silverton Project Trust,Silverton Wind Farm,Wind,198.0,52.27,Silverton Wind Farm,-37.683168,142.551678,2026-02-12T09:06:45.032568
2026/02/12 19:05:00,TARALGA1,29.94,Taralga Wind Farm Nominees No 2 Pty Ltd (ATF Taralga Wind Farm Operating Trust),Taralga Wind Farm,Wind,106.0,28.25,Taralga Wind Farm,-34.42352,149.826267,2026-02-12T09:06:45.032568
2026/02/12 19:05:00,WAMBOWF1,164.79,Stanwell Corporation Limited,Wambo Wind Farm 1,Wind,245.0,67.26,Wambo Wind Farm 1,-35.187301,149.524945,2026-02-12T09:06:45.032568
2026/02/12 19:05:00,WATERLWF,32.5,Waterloo Wind Farm Pty Ltd,Waterloo Wind Farm,Wind,130.0,25.0,Waterloo Wind Farm,-34.00094,138.911567,2026-02-12T09:06:45.032568
2026/02/12 19:05:00,WGWF1,64.2,Willogoleche Power Pty Ltd As The Trustee For The Willogoleche Operating Trust,Willogoleche Wind Farm,Wind,119.0,53.95,Willogoleche Wind Farm,-33.39,138.85,2026-02-12T09:06:45.032568
2026/02/12 19:05:00,WOODLWN1,23.75,Woodlawn Wind Pty Ltd,Woodlawn Wind Farm,Wind,48.0,49.48,Woodlawn Wind Farm,-35.08,149.62,2026-02-12T09:06:45.032568
2026/02/12 19:05:00,WPWF,54.92,AGL SA Generation Pty Limited,Wattle Point Wind Farm,Wind,91.0,60.35,Wattle Point Wind Farm,-35.111624,137.7219,2026-02-12T09:06:45.032568
2026/02/12 19:05:00,WRWF1,15.35,White Rock Wind Farm Pty Ltd,White Rock Wind Farm,Wind,172.0,8.92,White Rock Wind Farm,-29.79,151.54,2026-02-12T09:06:45.032568
2026/02/12 19:05:00,YENDWF1,66.81,Lal Lal Wind Farms Nom Co Pty Ltd,Yendon Wind Farm,Wind,142.0,47.05,Yendon Wind Farm,-37.629987,144.022717,2026-02-12T09:06:45.032568
