SETTLEMENTDATE,DUID,SCADAVALUE,Participant,Station Name,Fuel Source - Primary,MAX_CAP,utilisation_pct,Plant,Latitude,Longitude,timestamp_utc
2026/02/22 15:00:00,CAPTL_WF,69.79,Iberdrola Australia Holdings Pty Limited,Capital Wind Farm,Wind,140.0,49.85,Capital Wind Farm,-35.1,149.31,2026-02-22T04:57:19.903303
2026/02/22 15:00:00,CHALLHWF,36.8,Pacific Hydro Challicum Hills Pty Ltd,Challicum Hills Wind Farm,Wind,52.0,70.77,Challicum Hills Wind Farm,-37.38,143.11,2026-02-22T04:57:19.903303
2026/02/22 15:00:00,CULLRGWF,9.66,Cullerin Range Wind Farm Pty Ltd,Cullerin Range Wind Farm,Wind,30.0,32.2,Cullerin Range Wind Farm,-34.81,149.4,2026-02-22T04:57:19.903303
2026/02/22 15:00:00,DIAPURWF1,3.6,Y.E.S. Energy (SA) Pty Ltd,Diapur Wind Farm,Wind,7.0,51.43,Diapur Wind Farm,-36.3425,141.43,2026-02-22T04:57:19.903303
2026/02/22 15:00:00,MLWF1,7.24,Mortons Lane Windfarm Pty Limited,Mortons Lane Wind Farm,Wind,20.0,36.2,Mortons Lane Wind Farm,-37.84,142.45,2026-02-22T04:57:19.903303
2026/02/22 15:00:00,WAUBRAWF,95.62,Pyrenees Wind Energy Developments Pty Ltd,Waubra Wind Farm,Wind,192.0,49.8,Waubra Wind Farm,-37.394498,143.638982,2026-02-22T04:57:19.903303
2026/02/22 15:00:00,WOOLNTH1,44.81,Hydro-Electric Corporation,Woolnorth Studland Bay / Bluff Point Wind Farm,Wind,140.0,32.01,Woolnorth Studland Bay / Bluff Point Wind Farm,-40.69,144.72,2026-02-22T04:57:19.903303
2026/02/22 15:00:00,YAMBUKWF,27.6,Energy Pacific (Vic) Pty Ltd,Yambuk Wind Farm,Wind,30.0,92.0,Yambuk Wind Farm,-38.299083,142.027577,2026-02-22T04:57:19.903303
2026/02/22 15:00:00,YSWF1,17.2,Pacific Hydro Yaloak South Pty Ltd,Yaloak South Wind Farm,Wind,28.0,61.43,Yaloak South Wind Farm,-37.7163,144.242853,2026-02-22T04:57:19.903303
2026/02/22 15:00:00,ARWF1,94.2,Ararat Wind Farm Pty Ltd,Ararat Wind Farm,Wind,241.0,39.09,Ararat Wind Farm,-37.232778,143.031389,2026-02-22T04:57:19.903303
2026/02/22 15:00:00,BALDHWF1,51.7,Alinta Energy Retail Sales Pty Ltd,Bald Hills Wind Farm,Wind,106.0,48.77,Bald Hills Wind Farm,-38.79,145.93,2026-02-22T04:57:19.903303
2026/02/22 15:00:00,BANGOWF1,1.2,BWF Nominees Pty Ltd as The Trustee for BWF Trust,Bango 973 Wind Farm,Wind,155.0,0.77,Bango 973 Wind Farm,-34.551582,148.732808,2026-02-22T04:57:19.903303
2026/02/22 15:00:00,BANGOWF2,4.0,BWF Nominees Pty Ltd as The Trustee for BWF Trust,Bango 999 Wind Farm,Wind,82.0,4.88,Bango 999 Wind Farm,-34.551582,148.732808,2026-02-22T04:57:19.903303
2026/02/22 15:00:00,BLUFF1,8.6,AGL SA Generation Pty Limited,The Bluff Wind Farm,Wind,53.0,16.23,The Bluff Wind Farm,-33.367778,138.728611,2026-02-22T04:57:19.903303
2026/02/22 15:00:00,BOCORWF1,93.79,Boco Rock Wind Farm Pty Ltd,Boco Rock Wind Farm,Wind,111.0,84.5,Boco Rock Wind Farm,-36.578611,149.103333,2026-02-22T04:57:19.903303
2026/02/22 15:00:00,BRYB1WF1,51.5,Berrybank Development Pty Ltd,Berrybank Wind Farm,Wind,175.9,29.28,Berrybank Wind Farm,-37.94,143.52,2026-02-22T04:57:19.903303
2026/02/22 15:00:00,BRYB2WF2,41.73,Berrybank 2 Asset Pty Ltd as trustee for Berrybank 2 Asset Trust,Berrybank 2 Wind Farm,Wind,105.0,39.74,Berrybank 2 Wind Farm,-37.94,143.52,2026-02-22T04:57:19.903303
2026/02/22 15:00:00,BULGANA1,106.26,Bulgana Wind Farm Pty Ltd,Bulgana Green Power Hub,Wind,204.0,52.09,Bulgana Green Power Hub,-37.0975,142.973611,2026-02-22T04:57:19.903303
2026/02/22 15:00:00,CATHROCK,23.6,Cathedral Rocks Wind Farm Pty Ltd,Cathedral Rocks,Wind,66.0,35.76,Cathedral Rocks,-34.51,135.35,2026-02-22T04:57:19.903303
2026/02/22 15:00:00,CHYTWF1,44.05,Cherry Tree Wind Farm Pty Ltd as trustee for The Cherry Tree Project trust ,Cherry Tree Wind Farm,Wind,57.0,77.28,Cherry Tree Wind Farm,-37.1,145.26,2026-02-22T04:57:19.903303
2026/02/22 15:00:00,CLEMGPWF,0.0,Pacific Hydro Clements Gap Pty Ltd,Clements Gap Wind Farm,Wind,57.0,0.0,Clements Gap Wind Farm,-33.48,138.1,2026-02-22T04:57:19.903303
2026/02/22 15:00:00,CLRKCWF1,38.71,Stanwell Corporation Limited ,Clarke Creek Wind Farm,Wind,338.0,11.45,Clarke Creek Wind Farm,-22.85,149.45,2026-02-22T04:57:19.903303
2026/02/22 15:00:00,CLRKCWF2,16.54,Stanwell Corporation Limited ,Clarke Creek Wind Farm,Wind,101.0,16.38,Clarke Creek Wind Farm,-22.85,149.45,2026-02-22T04:57:19.903303
2026/02/22 15:00:00,CNUNDAWF,16.02,Canunda Power Pty Ltd,Canunda Wind Farm,Wind,46.0,34.83,Canunda Wind Farm,-37.73,140.39,2026-02-22T04:57:19.903303
2026/02/22 15:00:00,COLWF01,46.98,Collector Wind Farm Pty Ltd,Collector Wind Farm 1,Wind,219.0,21.45,Collector Wind Farm 1,-34.8719,149.3967,2026-02-22T04:57:19.903303
2026/02/22 15:00:00,COOPGWF1,124.97,PARF Company 10 Pty Limited as The Trustee for Coopers Gap Project Trust,Coopers Gap Wind Farm,Wind,440.0,28.4,Coopers Gap Wind Farm,-26.74,151.45,2026-02-22T04:57:19.903303
2026/02/22 15:00:00,CROOKWF2,36.39,Crookwell Development Pty Ltd ,Crookwell 2 Wind Farm,Wind,91.0,39.99,Crookwell 2 Wind Farm,-34.52,149.54,2026-02-22T04:57:19.903303
2026/02/22 15:00:00,CROOKWF3,20.46,Crookwell 3 Development Pty Ltd,Crookwell 3 Wind Farm,Wind,56.0,36.54,Crookwell 3 Wind Farm,-34.52,149.54,2026-02-22T04:57:19.903303
2026/02/22 15:00:00,CROWLWF1,53.4,Pacific Hydro Crowlands Pty Ltd ,Crowlands Wind Farm,Wind,79.0,67.59,Crowlands Wind Farm,-37.13,143.16,2026-02-22T04:57:19.903303
2026/02/22 15:00:00,CRURWF1,12.7,CRWF Nominees Pty Ltd As Trustee For The CRWF Trust,Crudine Ridge Wind Farm,Wind,138.0,9.2,Crudine Ridge Wind Farm,-32.97,149.64,2026-02-22T04:57:19.903303
2026/02/22 15:00:00,CTHLWF1,142.69,Wild Cattle Hill Pty Ltd,Cattle Hill Wind Farm,Wind,144.0,99.09,Cattle Hill Wind Farm,-42.15,146.69,2026-02-22T04:57:19.903303
2026/02/22 15:00:00,DULAWF1,30.8,Dulacca Energy Project Co Pty Ltd,Dulacca Wind Farm,Wind,173.0,17.8,Dulacca Wind Farm,-26.63,149.87,2026-02-22T04:57:19.903303
2026/02/22 15:00:00,DUNDWF1,96.09,Dundonnell Wind Farm Pty Ltd,Dundonnell Wind Farm,Wind,168.0,57.2,Dundonnell Wind Farm,-37.52,142.58,2026-02-22T04:57:19.903303
2026/02/22 15:00:00,DUNDWF2,20.76,Dundonnell Wind Farm Pty Ltd,Dundonnell Wind Farm,Wind,46.0,45.13,Dundonnell Wind Farm,-37.52,142.58,2026-02-22T04:57:19.903303
2026/02/22 15:00:00,DUNDWF3,93.74,Dundonnell Wind Farm Pty Ltd,Dundonnell Wind Farm,Wind,122.0,76.84,Dundonnell Wind Farm,-37.52,142.58,2026-02-22T04:57:19.903303
2026/02/22 15:00:00,ELAINWF1,18.5,Lal Lal Wind Farms Nom Co Pty Ltd,Elaine Wind Farm,Wind,82.0,22.56,Elaine Wind Farm,-37.36,144.0,2026-02-22T04:57:19.903303
2026/02/22 15:00:00,FLYCRKWF,0.0,Iberdrola Australia Energy Markets Pty Limited,Flyers Creek Wind Farm,Wind,140.0,0.0,Flyers Creek Wind Farm,-33.365556,148.981944,2026-02-22T04:57:19.903303
2026/02/22 15:00:00,GPWFEST1,37.05,Golden Plains WF1 Pty Ltd as Trustee for the Golden Plains WF1 Unit Trust,Golden Plains Wind Farm East,Wind,240.0,15.44,Golden Plains Wind Farm East,-37.945091,143.752614,2026-02-22T04:57:19.903303
2026/02/22 15:00:00,GPWFEST2,34.12,Golden Plains WF1 Pty Ltd as Trustee for the Golden Plains WF1 Unit Trust,Golden Plains Wind Farm East,Wind,253.0,13.49,Golden Plains Wind Farm East,-37.945091,143.752614,2026-02-22T04:57:19.903303
2026/02/22 15:00:00,GPWFEST3,40.95,Golden Plains WF1 Pty Ltd as Trustee for the Golden Plains WF1 Unit Trust,Golden Plains Wind Farm East,Wind,240.0,17.06,Golden Plains Wind Farm East,-37.945091,143.752614,2026-02-22T04:57:19.903303
2026/02/22 15:00:00,GRANWF1,64.74,Granville Harbour Operations Pty Ltd as The Trustee for Granville Harbour Operations Trust,Granville Harbour Wind Farm,Wind,111.0,58.32,Granville Harbour Wind Farm,-41.8,145.06,2026-02-22T04:57:19.903303
2026/02/22 15:00:00,GSWF1A,4.51,Goyder Wind Farm 1 Pty Ltd as the Trustee for Goyder Wind Farm 1 Trust,Goyder South Wind Farm 1A,Wind,201.0,2.24,Goyder South Wind Farm 1A,-33.679758,138.937597,2026-02-22T04:57:19.903303
2026/02/22 15:00:00,GSWF1B1,7.34,Goyder Wind Farm 1B Pty Ltd as the Trustee for the Goyder Wind Farm 1B Trust,Goyder South Wind Farm 1B,Wind,196.0,3.74,Goyder South Wind Farm 1B,-33.679758,138.937597,2026-02-22T04:57:19.903303
2026/02/22 15:00:00,GULLRWF1,34.51,New Gullen Range Wind Farm Pty Ltd,Gullen Range Wind Farm,Wind,161.0,21.43,Gullen Range Wind Farm,-34.34,149.27,2026-02-22T04:57:19.903303
2026/02/22 15:00:00,GULLRWF2,12.47,New Gullen Range Wind Farm Pty Ltd,Gullen Range Wind Farm,Wind,107.0,11.65,Gullen Range Wind Farm,-34.34,149.27,2026-02-22T04:57:19.903303
2026/02/22 15:00:00,GUNNING1,8.85,Gunning Wind Energy Developments Pty Ltd,Gunning Wind Farm,Wind,47.0,18.83,Gunning Wind Farm,-34.813333,149.4,2026-02-22T04:57:19.903303
2026/02/22 15:00:00,HALLWF1,28.72,AGL SA Generation Pty Limited,Hallett 1 Wind Farm,Wind,95.0,30.23,Hallett 1 Wind Farm,-33.367778,138.728611,2026-02-22T04:57:19.903303
2026/02/22 15:00:00,HALLWF2,11.0,AGL SA Generation Pty Limited,Hallett 2 Wind Farm,Wind,71.0,15.49,Hallett 2 Wind Farm,-33.367778,138.728611,2026-02-22T04:57:19.903303
2026/02/22 15:00:00,HD1WF1,88.48,Hawkesdale Asset Pty Ltd as trustee for Hawkesdale Asset Trust,Hawkesdale Wind Farm,Wind,89.0,99.42,Hawkesdale Wind Farm,-38.147894,142.361381,2026-02-22T04:57:19.903303
2026/02/22 15:00:00,HDWF1,8.8,HWF1 Pty Ltd,Hornsdale Wind Farm,Wind,102.0,8.63,Hornsdale Wind Farm,-33.050556,138.543611,2026-02-22T04:57:19.903303
2026/02/22 15:00:00,HDWF2,4.4,HWF 2 Pty Ltd,Hornsdale Wind Farm 2,Wind,102.0,4.31,Hornsdale Wind Farm 2,-33.06,138.54,2026-02-22T04:57:19.903303
2026/02/22 15:00:00,HDWF3,4.4,HWF3 Pty Ltd,Hornsdale Wind Farm 3,Wind,109.0,4.04,Hornsdale Wind Farm 3,-33.06,138.54,2026-02-22T04:57:19.903303
2026/02/22 15:00:00,KABANWF1,14.73,Kaban Wind Farm Pty Ltd as trustee for Kaban Wind Farm Trust,Kaban Wind Farm,Wind,152.0,9.69,Kaban Wind Farm,-17.56,145.41,2026-02-22T04:57:19.903303
2026/02/22 15:00:00,KEPWF1,0.0,Kennedy Energy Park Pty Ltd,Kennedy Energy Park,Wind,43.0,0.0,Kennedy Energy Park,-20.88,144.42,2026-02-22T04:57:19.903303
2026/02/22 15:00:00,KIATAWF1,12.2,Kiata ProjectCo Pty Ltd Atf Kiata Project Trust,Kiata Wind Farm,Wind,31.0,39.35,Kiata Wind Farm,-36.4,141.75,2026-02-22T04:57:19.903303
2026/02/22 15:00:00,LGAPWF1,1.46,Lincoln Gap Wind Farm (Operations) Pty Ltd,Lincoln Gap Wind Farm,Wind,123.0,1.19,Lincoln Gap Wind Farm,-32.564279,137.557328,2026-02-22T04:57:19.903303
2026/02/22 15:00:00,LGAPWF1,1.46,Lincoln Gap Wind Farm (Operations) Pty Ltd,Lincoln Gap Wind Farm,Wind,123.0,1.19,Lincoln Gap Wind Farm,-32.564279,137.557328,2026-02-22T04:57:19.903303
2026/02/22 15:00:00,LGAPWF2,9.3,Lincoln Gap Wind Farm (Operations) Pty Ltd,Lincoln Gap Wind Farm,Wind,85.0,10.94,Lincoln Gap Wind Farm,-32.564279,137.557328,2026-02-22T04:57:19.903303
2026/02/22 15:00:00,LGAPWF2,9.3,Lincoln Gap Wind Farm (Operations) Pty Ltd,Lincoln Gap Wind Farm,Wind,85.0,10.94,Lincoln Gap Wind Farm,-32.564279,137.557328,2026-02-22T04:57:19.903303
2026/02/22 15:00:00,LKBONNY1,26.26,Lake Bonney Wind Power Pty Ltd,Lake Bonney Wind Farm Stage 1,Wind,81.0,32.42,Lake Bonney Wind Farm Stage 1,-37.76,140.4,2026-02-22T04:57:19.903303
2026/02/22 15:00:00,LKBONNY2,50.8,Lake Bonney Wind Power Pty Ltd,Lake Bonney Stage 2 Windfarm,Wind,159.0,31.95,Lake Bonney Stage 2 Windfarm,-37.76,140.4,2026-02-22T04:57:19.903303
2026/02/22 15:00:00,LKBONNY3,13.56,Lake Bonney Wind Power Pty Ltd,Lake Bonney Stage 3 Wind Farm,Wind,39.0,34.77,Lake Bonney Stage 3 Wind Farm,-37.737781,140.388137,2026-02-22T04:57:19.903303
2026/02/22 15:00:00,MACARTH1,267.0,AGL Hydro Partnership,Macarthur Wind Farm,Wind,420.0,63.57,Macarthur Wind Farm,-38.048957,142.192112,2026-02-22T04:57:19.903303
2026/02/22 15:00:00,MCINTYR1,189.55,MacIntyre UJV Operator Pty Ltd,MacIntyre Wind Farm,Wind,890.0,21.3,MacIntyre Wind Farm,-28.32,151.54,2026-02-22T04:57:19.903303
2026/02/22 15:00:00,MERCER01,49.5,Mt Mercer Windfarm Pty Ltd,Mt Mercer Wind Farm,Wind,131.0,37.79,Mt Mercer Wind Farm,-37.841111,143.871111,2026-02-22T04:57:19.903303
2026/02/22 15:00:00,MEWF1,0.84,Ergon Energy Queensland Pty Ltd ,Mount Emerald Wind Farm,Wind,178.0,0.47,Mount Emerald Wind Farm,-17.133007,145.380644,2026-02-22T04:57:19.903303
2026/02/22 15:00:00,MRTLSWF1,29.8,Mortlake South Wind Farm Pty Ltd,Mortlake South Wind Farm,Wind,153.0,19.48,Mortlake South Wind Farm,-38.127337,142.857801,2026-02-22T04:57:19.903303
2026/02/22 15:00:00,MTGELWF1,74.95,Mt. Gellibrand Wind Farm Pty Ltd,Mt Gellibrand Wind Farm,Wind,132.0,56.78,Mt Gellibrand Wind Farm,-38.23,143.77,2026-02-22T04:57:19.903303
2026/02/22 15:00:00,MTMILLAR,42.2,Mt Millar Wind Farm Pty Ltd,Mt Millar Wind Farm,Wind,70.0,60.29,Mt Millar Wind Farm,-33.624444,136.703611,2026-02-22T04:57:19.903303
2026/02/22 15:00:00,MUSSELR1,64.8,Hydro-Electric Corporation,Musselroe Wind Farm,Wind,168.0,38.57,Musselroe Wind Farm,-40.780225,148.010799,2026-02-22T04:57:19.903303
2026/02/22 15:00:00,MUWAWF1,87.11,Telstra Energy (Generation) Pty Ltd,Murra Warra Wind Farm,Wind,225.7,38.6,Murra Warra Wind Farm,-36.432404,142.317853,2026-02-22T04:57:19.903303
2026/02/22 15:00:00,MUWAWF2,77.2,Murra Warra II Project Co Pty Ltd ATF The Murra Warra II Project Trust,Murra Warra Wind Farm Stage 2,Wind,203.0,38.03,Murra Warra Wind Farm Stage 2,-36.43,142.32,2026-02-22T04:57:19.903303
2026/02/22 15:00:00,NBHWF1,22.8,AGL SA Generation Pty Limited,North Brown Hill Wind Farm,Wind,132.0,17.27,North Brown Hill Wind Farm,-33.367778,138.728611,2026-02-22T04:57:19.903303
2026/02/22 15:00:00,OAKLAND1,44.0,AGL Hydro Partnership,Oaklands Hill Wind Farm,Wind,63.0,69.84,Oaklands Hill Wind Farm,-37.683078,142.551678,2026-02-22T04:57:19.903303
2026/02/22 15:00:00,PAREPW1,42.92,Iberdrola Australia Energy Markets Pty Limited,Port Augusta Renewable Energy Park,Wind,201.0,21.35,Port Augusta Renewable Energy Park,-32.566944,137.856111,2026-02-22T04:57:19.903303
2026/02/22 15:00:00,RYANCWF1,183.07,Ryan Corner Development Pty Ltd,Ryan Corner Wind Farm,Wind,205.0,89.3,Ryan Corner Wind Farm,-38.271017,142.140647,2026-02-22T04:57:19.903303
2026/02/22 15:00:00,RYEPARK1,14.22,Rye Park Renewable Energy Pty Ltd as trustee for Rye Park Wind Farm Trust,Rye Park Renewable Energy,Wind,384.0,3.7,Rye Park Renewable Energy,-32.138333,148.972778,2026-02-22T04:57:19.903303
2026/02/22 15:00:00,SALTCRK1,14.51,Salt Creek Wind Farm Pty Ltd,Salt Creek Wind Farm,Wind,54.0,26.87,Salt Creek Wind Farm,-37.95,142.63,2026-02-22T04:57:19.903303
2026/02/22 15:00:00,SAPHWF1,66.04,The Trustee For The SWF1 Operations Trust,Sapphire Wind Farm,Wind,270.0,24.46,Sapphire Wind Farm,-29.7,151.41,2026-02-22T04:57:19.903303
2026/02/22 15:00:00,SNOWNTH1,34.6,Snowtown Wind Farm Stage 2 Pty Ltd,Snowtown Wind Farm Stage 2 North,Wind,144.0,24.03,Snowtown Wind Farm Stage 2 North,-33.83,138.118611,2026-02-22T04:57:19.903303
2026/02/22 15:00:00,SNOWSTH1,14.5,Snowtown Wind Farm Stage 2 Pty Ltd,Snowtown South Wind Farm,Wind,126.0,11.51,Snowtown South Wind Farm,-33.83,138.118611,2026-02-22T04:57:19.903303
2026/02/22 15:00:00,SNOWTWN1,12.73,Snowtown Wind Farm Pty Ltd,Snowtown Wind Farm Units 1 And 47,Wind,99.0,12.86,Snowtown Wind Farm Units 1 And 47,-33.83,138.118611,2026-02-22T04:57:19.903303
2026/02/22 15:00:00,STARHLWF,25.09,Starfish Hill Wind Farm Pty Ltd,Starfish Hill Wind Farm,Wind,35.0,71.69,Starfish Hill Wind Farm,-35.58,138.14,2026-02-22T04:57:19.903303
2026/02/22 15:00:00,STOCKYD1,336.35,Stockyard Hill Wind Farm Pty Ltd,Stockyard Hill Wind Farm,Wind,511.0,65.82,Stockyard Hill Wind Farm,-37.535833,143.251389,2026-02-22T04:57:19.903303
2026/02/22 15:00:00,STWF1,49.66,PARF Company 8 Pty Ltd as The Trustee for Silverton Project Trust,Silverton Wind Farm,Wind,198.0,25.08,Silverton Wind Farm,-37.683168,142.551678,2026-02-22T04:57:19.903303
2026/02/22 15:00:00,TARALGA1,79.04,Taralga Wind Farm Nominees No 2 Pty Ltd (ATF Taralga Wind Farm Operating Trust),Taralga Wind Farm,Wind,106.0,74.57,Taralga Wind Farm,-34.42352,149.826267,2026-02-22T04:57:19.903303
2026/02/22 15:00:00,WAMBOWF1,39.53,Stanwell Corporation Limited,Wambo Wind Farm 1,Wind,245.0,16.13,Wambo Wind Farm 1,-35.187301,149.524945,2026-02-22T04:57:19.903303
2026/02/22 15:00:00,WATERLWF,11.2,Waterloo Wind Farm Pty Ltd,Waterloo Wind Farm,Wind,130.0,8.62,Waterloo Wind Farm,-34.00094,138.911567,2026-02-22T04:57:19.903303
2026/02/22 15:00:00,WGWF1,14.4,Willogoleche Power Pty Ltd As The Trustee For The Willogoleche Operating Trust,Willogoleche Wind Farm,Wind,119.0,12.1,Willogoleche Wind Farm,-33.39,138.85,2026-02-22T04:57:19.903303
2026/02/22 15:00:00,WOODLWN1,34.71,Woodlawn Wind Pty Ltd,Woodlawn Wind Farm,Wind,48.0,72.31,Woodlawn Wind Farm,-35.08,149.62,2026-02-22T04:57:19.903303
2026/02/22 15:00:00,WPWF,75.76,AGL SA Generation Pty Limited,Wattle Point Wind Farm,Wind,91.0,83.25,Wattle Point Wind Farm,-35.111624,137.7219,2026-02-22T04:57:19.903303
2026/02/22 15:00:00,WRWF1,50.02,White Rock Wind Farm Pty Ltd,White Rock Wind Farm,Wind,172.0,29.08,White Rock Wind Farm,-29.79,151.54,2026-02-22T04:57:19.903303
2026/02/22 15:00:00,YENDWF1,86.04,Lal Lal Wind Farms Nom Co Pty Ltd,Yendon Wind Farm,Wind,142.0,60.59,Yendon Wind Farm,-37.629987,144.022717,2026-02-22T04:57:19.903303
