SETTLEMENTDATE,DUID,SCADAVALUE,Participant,Station Name,Fuel Source - Primary,MAX_CAP,utilisation_pct,Plant,Latitude,Longitude,timestamp_utc
2026/02/01 05:55:00,CAPTL_WF,0.0,Iberdrola Australia Holdings Pty Limited,Capital Wind Farm,Wind,140.0,0.0,Capital Wind Farm,-35.1,149.31,2026-01-31T19:52:02.217716
2026/02/01 05:55:00,CHALLHWF,21.0,Pacific Hydro Challicum Hills Pty Ltd,Challicum Hills Wind Farm,Wind,52.0,40.38,Challicum Hills Wind Farm,-37.38,143.11,2026-01-31T19:52:02.217716
2026/02/01 05:55:00,CULLRGWF,17.69,Cullerin Range Wind Farm Pty Ltd,Cullerin Range Wind Farm,Wind,30.0,58.97,Cullerin Range Wind Farm,-34.81,149.4,2026-01-31T19:52:02.217716
2026/02/01 05:55:00,DIAPURWF1,7.7,Y.E.S. Energy (SA) Pty Ltd,Diapur Wind Farm,Wind,7.0,110.0,Diapur Wind Farm,-36.3425,141.43,2026-01-31T19:52:02.217716
2026/02/01 05:55:00,MLWF1,4.54,Mortons Lane Windfarm Pty Limited,Mortons Lane Wind Farm,Wind,20.0,22.7,Mortons Lane Wind Farm,-37.84,142.45,2026-01-31T19:52:02.217716
2026/02/01 05:55:00,WAUBRAWF,132.36,Pyrenees Wind Energy Developments Pty Ltd,Waubra Wind Farm,Wind,192.0,68.94,Waubra Wind Farm,-37.394498,143.638982,2026-01-31T19:52:02.217716
2026/02/01 05:55:00,WOOLNTH1,90.87,Hydro-Electric Corporation,Woolnorth Studland Bay / Bluff Point Wind Farm,Wind,140.0,64.91,Woolnorth Studland Bay / Bluff Point Wind Farm,-40.69,144.72,2026-01-31T19:52:02.217716
2026/02/01 05:55:00,YAMBUKWF,18.0,Energy Pacific (Vic) Pty Ltd,Yambuk Wind Farm,Wind,30.0,60.0,Yambuk Wind Farm,-38.299083,142.027577,2026-01-31T19:52:02.217716
2026/02/01 05:55:00,YSWF1,7.5,Pacific Hydro Yaloak South Pty Ltd,Yaloak South Wind Farm,Wind,28.0,26.79,Yaloak South Wind Farm,-37.7163,144.242853,2026-01-31T19:52:02.217716
2026/02/01 05:55:00,ARWF1,153.5,Ararat Wind Farm Pty Ltd,Ararat Wind Farm,Wind,241.0,63.69,Ararat Wind Farm,-37.232778,143.031389,2026-01-31T19:52:02.217716
2026/02/01 05:55:00,BALDHWF1,80.31,Alinta Energy Retail Sales Pty Ltd,Bald Hills Wind Farm,Wind,106.0,75.76,Bald Hills Wind Farm,-38.79,145.93,2026-01-31T19:52:02.217716
2026/02/01 05:55:00,BANGOWF1,45.1,BWF Nominees Pty Ltd as The Trustee for BWF Trust,Bango 973 Wind Farm,Wind,155.0,29.1,Bango 973 Wind Farm,-34.551582,148.732808,2026-01-31T19:52:02.217716
2026/02/01 05:55:00,BANGOWF2,18.4,BWF Nominees Pty Ltd as The Trustee for BWF Trust,Bango 999 Wind Farm,Wind,82.0,22.44,Bango 999 Wind Farm,-34.551582,148.732808,2026-01-31T19:52:02.217716
2026/02/01 05:55:00,BLUFF1,18.2,AGL SA Generation Pty Limited,The Bluff Wind Farm,Wind,53.0,34.34,The Bluff Wind Farm,-33.367778,138.728611,2026-01-31T19:52:02.217716
2026/02/01 05:55:00,BOCORWF1,0.05,Boco Rock Wind Farm Pty Ltd,Boco Rock Wind Farm,Wind,111.0,0.05,Boco Rock Wind Farm,-36.578611,149.103333,2026-01-31T19:52:02.217716
2026/02/01 05:55:00,BRYB1WF1,57.44,Berrybank Development Pty Ltd,Berrybank Wind Farm,Wind,175.9,32.65,Berrybank Wind Farm,-37.94,143.52,2026-01-31T19:52:02.217716
2026/02/01 05:55:00,BRYB2WF2,51.18,Berrybank 2 Asset Pty Ltd as trustee for Berrybank 2 Asset Trust,Berrybank 2 Wind Farm,Wind,105.0,48.74,Berrybank 2 Wind Farm,-37.94,143.52,2026-01-31T19:52:02.217716
2026/02/01 05:55:00,BULGANA1,0.0,Bulgana Wind Farm Pty Ltd,Bulgana Green Power Hub,Wind,204.0,0.0,Bulgana Green Power Hub,-37.0975,142.973611,2026-01-31T19:52:02.217716
2026/02/01 05:55:00,CATHROCK,29.4,Cathedral Rocks Wind Farm Pty Ltd,Cathedral Rocks,Wind,66.0,44.55,Cathedral Rocks,-34.51,135.35,2026-01-31T19:52:02.217716
2026/02/01 05:55:00,CHYTWF1,55.82,Cherry Tree Wind Farm Pty Ltd as trustee for The Cherry Tree Project trust ,Cherry Tree Wind Farm,Wind,57.0,97.93,Cherry Tree Wind Farm,-37.1,145.26,2026-01-31T19:52:02.217716
2026/02/01 05:55:00,CLEMGPWF,22.04,Pacific Hydro Clements Gap Pty Ltd,Clements Gap Wind Farm,Wind,57.0,38.67,Clements Gap Wind Farm,-33.48,138.1,2026-01-31T19:52:02.217716
2026/02/01 05:55:00,CLRKCWF1,0.0,Stanwell Corporation Limited ,Clarke Creek Wind Farm,Wind,338.0,0.0,Clarke Creek Wind Farm,-22.85,149.45,2026-01-31T19:52:02.217716
2026/02/01 05:55:00,CLRKCWF2,0.0,Stanwell Corporation Limited ,Clarke Creek Wind Farm,Wind,101.0,0.0,Clarke Creek Wind Farm,-22.85,149.45,2026-01-31T19:52:02.217716
2026/02/01 05:55:00,CNUNDAWF,11.81,Canunda Power Pty Ltd,Canunda Wind Farm,Wind,46.0,25.67,Canunda Wind Farm,-37.73,140.39,2026-01-31T19:52:02.217716
2026/02/01 05:55:00,COLWF01,92.53,Collector Wind Farm Pty Ltd,Collector Wind Farm 1,Wind,219.0,42.25,Collector Wind Farm 1,-34.8719,149.3967,2026-01-31T19:52:02.217716
2026/02/01 05:55:00,COOPGWF1,63.96,PARF Company 10 Pty Limited as The Trustee for Coopers Gap Project Trust,Coopers Gap Wind Farm,Wind,440.0,14.54,Coopers Gap Wind Farm,-26.74,151.45,2026-01-31T19:52:02.217716
2026/02/01 05:55:00,CROOKWF2,55.53,Crookwell Development Pty Ltd ,Crookwell 2 Wind Farm,Wind,91.0,61.02,Crookwell 2 Wind Farm,-34.52,149.54,2026-01-31T19:52:02.217716
2026/02/01 05:55:00,CROOKWF3,39.54,Crookwell 3 Development Pty Ltd,Crookwell 3 Wind Farm,Wind,56.0,70.61,Crookwell 3 Wind Farm,-34.52,149.54,2026-01-31T19:52:02.217716
2026/02/01 05:55:00,CROWLWF1,50.95,Pacific Hydro Crowlands Pty Ltd ,Crowlands Wind Farm,Wind,79.0,64.49,Crowlands Wind Farm,-37.13,143.16,2026-01-31T19:52:02.217716
2026/02/01 05:55:00,CRURWF1,23.1,CRWF Nominees Pty Ltd As Trustee For The CRWF Trust,Crudine Ridge Wind Farm,Wind,138.0,16.74,Crudine Ridge Wind Farm,-32.97,149.64,2026-01-31T19:52:02.217716
2026/02/01 05:55:00,CTHLWF1,129.8,Wild Cattle Hill Pty Ltd,Cattle Hill Wind Farm,Wind,144.0,90.14,Cattle Hill Wind Farm,-42.15,146.69,2026-01-31T19:52:02.217716
2026/02/01 05:55:00,DULAWF1,129.7,Dulacca Energy Project Co Pty Ltd,Dulacca Wind Farm,Wind,173.0,74.97,Dulacca Wind Farm,-26.63,149.87,2026-01-31T19:52:02.217716
2026/02/01 05:55:00,DUNDWF1,59.02,Dundonnell Wind Farm Pty Ltd,Dundonnell Wind Farm,Wind,168.0,35.13,Dundonnell Wind Farm,-37.52,142.58,2026-01-31T19:52:02.217716
2026/02/01 05:55:00,DUNDWF2,20.56,Dundonnell Wind Farm Pty Ltd,Dundonnell Wind Farm,Wind,46.0,44.7,Dundonnell Wind Farm,-37.52,142.58,2026-01-31T19:52:02.217716
2026/02/01 05:55:00,DUNDWF3,42.15,Dundonnell Wind Farm Pty Ltd,Dundonnell Wind Farm,Wind,122.0,34.55,Dundonnell Wind Farm,-37.52,142.58,2026-01-31T19:52:02.217716
2026/02/01 05:55:00,ELAINWF1,12.81,Lal Lal Wind Farms Nom Co Pty Ltd,Elaine Wind Farm,Wind,82.0,15.62,Elaine Wind Farm,-37.36,144.0,2026-01-31T19:52:02.217716
2026/02/01 05:55:00,FLYCRKWF,20.91,Iberdrola Australia Energy Markets Pty Limited,Flyers Creek Wind Farm,Wind,140.0,14.94,Flyers Creek Wind Farm,-33.365556,148.981944,2026-01-31T19:52:02.217716
2026/02/01 05:55:00,GPWFEST1,86.3,Golden Plains WF1 Pty Ltd as Trustee for the Golden Plains WF1 Unit Trust,Golden Plains Wind Farm East,Wind,240.0,35.96,Golden Plains Wind Farm East,-37.945091,143.752614,2026-01-31T19:52:02.217716
2026/02/01 05:55:00,GPWFEST2,59.37,Golden Plains WF1 Pty Ltd as Trustee for the Golden Plains WF1 Unit Trust,Golden Plains Wind Farm East,Wind,253.0,23.47,Golden Plains Wind Farm East,-37.945091,143.752614,2026-01-31T19:52:02.217716
2026/02/01 05:55:00,GPWFEST3,60.51,Golden Plains WF1 Pty Ltd as Trustee for the Golden Plains WF1 Unit Trust,Golden Plains Wind Farm East,Wind,240.0,25.21,Golden Plains Wind Farm East,-37.945091,143.752614,2026-01-31T19:52:02.217716
2026/02/01 05:55:00,GRANWF1,61.79,Granville Harbour Operations Pty Ltd as The Trustee for Granville Harbour Operations Trust,Granville Harbour Wind Farm,Wind,111.0,55.67,Granville Harbour Wind Farm,-41.8,145.06,2026-01-31T19:52:02.217716
2026/02/01 05:55:00,GSWF1A,73.44,Goyder Wind Farm 1 Pty Ltd as the Trustee for Goyder Wind Farm 1 Trust,Goyder South Wind Farm 1A,Wind,201.0,36.54,Goyder South Wind Farm 1A,-33.679758,138.937597,2026-01-31T19:52:02.217716
2026/02/01 05:55:00,GSWF1B1,60.4,Goyder Wind Farm 1B Pty Ltd as the Trustee for the Goyder Wind Farm 1B Trust,Goyder South Wind Farm 1B,Wind,196.0,30.82,Goyder South Wind Farm 1B,-33.679758,138.937597,2026-01-31T19:52:02.217716
2026/02/01 05:55:00,GULLRWF1,91.97,New Gullen Range Wind Farm Pty Ltd,Gullen Range Wind Farm,Wind,161.0,57.12,Gullen Range Wind Farm,-34.34,149.27,2026-01-31T19:52:02.217716
2026/02/01 05:55:00,GULLRWF2,73.96,New Gullen Range Wind Farm Pty Ltd,Gullen Range Wind Farm,Wind,107.0,69.12,Gullen Range Wind Farm,-34.34,149.27,2026-01-31T19:52:02.217716
2026/02/01 05:55:00,GUNNING1,21.9,Gunning Wind Energy Developments Pty Ltd,Gunning Wind Farm,Wind,47.0,46.6,Gunning Wind Farm,-34.813333,149.4,2026-01-31T19:52:02.217716
2026/02/01 05:55:00,HALLWF1,52.12,AGL SA Generation Pty Limited,Hallett 1 Wind Farm,Wind,95.0,54.86,Hallett 1 Wind Farm,-33.367778,138.728611,2026-01-31T19:52:02.217716
2026/02/01 05:55:00,HALLWF2,46.72,AGL SA Generation Pty Limited,Hallett 2 Wind Farm,Wind,71.0,65.8,Hallett 2 Wind Farm,-33.367778,138.728611,2026-01-31T19:52:02.217716
2026/02/01 05:55:00,HD1WF1,33.77,Hawkesdale Asset Pty Ltd as trustee for Hawkesdale Asset Trust,Hawkesdale Wind Farm,Wind,89.0,37.94,Hawkesdale Wind Farm,-38.147894,142.361381,2026-01-31T19:52:02.217716
2026/02/01 05:55:00,HDWF1,15.6,HWF1 Pty Ltd,Hornsdale Wind Farm,Wind,102.0,15.29,Hornsdale Wind Farm,-33.050556,138.543611,2026-01-31T19:52:02.217716
2026/02/01 05:55:00,HDWF2,23.0,HWF 2 Pty Ltd,Hornsdale Wind Farm 2,Wind,102.0,22.55,Hornsdale Wind Farm 2,-33.06,138.54,2026-01-31T19:52:02.217716
2026/02/01 05:55:00,HDWF3,18.2,HWF3 Pty Ltd,Hornsdale Wind Farm 3,Wind,109.0,16.7,Hornsdale Wind Farm 3,-33.06,138.54,2026-01-31T19:52:02.217716
2026/02/01 05:55:00,KABANWF1,0.0,Kaban Wind Farm Pty Ltd as trustee for Kaban Wind Farm Trust,Kaban Wind Farm,Wind,152.0,0.0,Kaban Wind Farm,-17.56,145.41,2026-01-31T19:52:02.217716
2026/02/01 05:55:00,KEPWF1,0.0,Kennedy Energy Park Pty Ltd,Kennedy Energy Park,Wind,43.0,0.0,Kennedy Energy Park,-20.88,144.42,2026-01-31T19:52:02.217716
2026/02/01 05:55:00,KIATAWF1,20.2,Kiata ProjectCo Pty Ltd Atf Kiata Project Trust,Kiata Wind Farm,Wind,31.0,65.16,Kiata Wind Farm,-36.4,141.75,2026-01-31T19:52:02.217716
2026/02/01 05:55:00,LGAPWF1,64.91,Lincoln Gap Wind Farm (Operations) Pty Ltd,Lincoln Gap Wind Farm,Wind,123.0,52.77,Lincoln Gap Wind Farm,-32.564279,137.557328,2026-01-31T19:52:02.217716
2026/02/01 05:55:00,LGAPWF1,64.91,Lincoln Gap Wind Farm (Operations) Pty Ltd,Lincoln Gap Wind Farm,Wind,123.0,52.77,Lincoln Gap Wind Farm,-32.564279,137.557328,2026-01-31T19:52:02.217716
2026/02/01 05:55:00,LGAPWF2,73.94,Lincoln Gap Wind Farm (Operations) Pty Ltd,Lincoln Gap Wind Farm,Wind,85.0,86.99,Lincoln Gap Wind Farm,-32.564279,137.557328,2026-01-31T19:52:02.217716
2026/02/01 05:55:00,LGAPWF2,73.94,Lincoln Gap Wind Farm (Operations) Pty Ltd,Lincoln Gap Wind Farm,Wind,85.0,86.99,Lincoln Gap Wind Farm,-32.564279,137.557328,2026-01-31T19:52:02.217716
2026/02/01 05:55:00,LKBONNY1,19.11,Lake Bonney Wind Power Pty Ltd,Lake Bonney Wind Farm Stage 1,Wind,81.0,23.59,Lake Bonney Wind Farm Stage 1,-37.76,140.4,2026-01-31T19:52:02.217716
2026/02/01 05:55:00,LKBONNY2,42.52,Lake Bonney Wind Power Pty Ltd,Lake Bonney Stage 2 Windfarm,Wind,159.0,26.74,Lake Bonney Stage 2 Windfarm,-37.76,140.4,2026-01-31T19:52:02.217716
2026/02/01 05:55:00,LKBONNY3,10.49,Lake Bonney Wind Power Pty Ltd,Lake Bonney Stage 3 Wind Farm,Wind,39.0,26.9,Lake Bonney Stage 3 Wind Farm,-37.737781,140.388137,2026-01-31T19:52:02.217716
2026/02/01 05:55:00,MACARTH1,99.3,AGL Hydro Partnership,Macarthur Wind Farm,Wind,420.0,23.64,Macarthur Wind Farm,-38.048957,142.192112,2026-01-31T19:52:02.217716
2026/02/01 05:55:00,MCINTYR1,0.0,MacIntyre UJV Operator Pty Ltd,MacIntyre Wind Farm,Wind,890.0,0.0,MacIntyre Wind Farm,-28.32,151.54,2026-01-31T19:52:02.217716
2026/02/01 05:55:00,MERCER01,31.7,Mt Mercer Windfarm Pty Ltd,Mt Mercer Wind Farm,Wind,131.0,24.2,Mt Mercer Wind Farm,-37.841111,143.871111,2026-01-31T19:52:02.217716
2026/02/01 05:55:00,MEWF1,0.0,Ergon Energy Queensland Pty Ltd ,Mount Emerald Wind Farm,Wind,178.0,0.0,Mount Emerald Wind Farm,-17.133007,145.380644,2026-01-31T19:52:02.217716
2026/02/01 05:55:00,MRTLSWF1,44.73,Mortlake South Wind Farm Pty Ltd,Mortlake South Wind Farm,Wind,153.0,29.24,Mortlake South Wind Farm,-38.127337,142.857801,2026-01-31T19:52:02.217716
2026/02/01 05:55:00,MTGELWF1,61.67,Mt. Gellibrand Wind Farm Pty Ltd,Mt Gellibrand Wind Farm,Wind,132.0,46.72,Mt Gellibrand Wind Farm,-38.23,143.77,2026-01-31T19:52:02.217716
2026/02/01 05:55:00,MTMILLAR,44.6,Mt Millar Wind Farm Pty Ltd,Mt Millar Wind Farm,Wind,70.0,63.71,Mt Millar Wind Farm,-33.624444,136.703611,2026-01-31T19:52:02.217716
2026/02/01 05:55:00,MUSSELR1,124.6,Hydro-Electric Corporation,Musselroe Wind Farm,Wind,168.0,74.17,Musselroe Wind Farm,-40.780225,148.010799,2026-01-31T19:52:02.217716
2026/02/01 05:55:00,MUWAWF1,52.4,Telstra Energy (Generation) Pty Ltd,Murra Warra Wind Farm,Wind,225.7,23.22,Murra Warra Wind Farm,-36.432404,142.317853,2026-01-31T19:52:02.217716
2026/02/01 05:55:00,MUWAWF2,48.3,Murra Warra II Project Co Pty Ltd ATF The Murra Warra II Project Trust,Murra Warra Wind Farm Stage 2,Wind,203.0,23.79,Murra Warra Wind Farm Stage 2,-36.43,142.32,2026-01-31T19:52:02.217716
2026/02/01 05:55:00,NBHWF1,55.3,AGL SA Generation Pty Limited,North Brown Hill Wind Farm,Wind,132.0,41.89,North Brown Hill Wind Farm,-33.367778,138.728611,2026-01-31T19:52:02.217716
2026/02/01 05:55:00,OAKLAND1,17.3,AGL Hydro Partnership,Oaklands Hill Wind Farm,Wind,63.0,27.46,Oaklands Hill Wind Farm,-37.683078,142.551678,2026-01-31T19:52:02.217716
2026/02/01 05:55:00,PAREPW1,195.48,Iberdrola Australia Energy Markets Pty Limited,Port Augusta Renewable Energy Park,Wind,201.0,97.25,Port Augusta Renewable Energy Park,-32.566944,137.856111,2026-01-31T19:52:02.217716
2026/02/01 05:55:00,RYANCWF1,89.69,Ryan Corner Development Pty Ltd,Ryan Corner Wind Farm,Wind,205.0,43.75,Ryan Corner Wind Farm,-38.271017,142.140647,2026-01-31T19:52:02.217716
2026/02/01 05:55:00,RYEPARK1,203.24,Rye Park Renewable Energy Pty Ltd as trustee for Rye Park Wind Farm Trust,Rye Park Renewable Energy,Wind,384.0,52.93,Rye Park Renewable Energy,-32.138333,148.972778,2026-01-31T19:52:02.217716
2026/02/01 05:55:00,SALTCRK1,12.89,Salt Creek Wind Farm Pty Ltd,Salt Creek Wind Farm,Wind,54.0,23.87,Salt Creek Wind Farm,-37.95,142.63,2026-01-31T19:52:02.217716
2026/02/01 05:55:00,SAPHWF1,19.84,The Trustee For The SWF1 Operations Trust,Sapphire Wind Farm,Wind,270.0,7.35,Sapphire Wind Farm,-29.7,151.41,2026-01-31T19:52:02.217716
2026/02/01 05:55:00,SNOWNTH1,131.3,Snowtown Wind Farm Stage 2 Pty Ltd,Snowtown Wind Farm Stage 2 North,Wind,144.0,91.18,Snowtown Wind Farm Stage 2 North,-33.83,138.118611,2026-01-31T19:52:02.217716
2026/02/01 05:55:00,SNOWSTH1,60.1,Snowtown Wind Farm Stage 2 Pty Ltd,Snowtown South Wind Farm,Wind,126.0,47.7,Snowtown South Wind Farm,-33.83,138.118611,2026-01-31T19:52:02.217716
2026/02/01 05:55:00,SNOWTWN1,74.21,Snowtown Wind Farm Pty Ltd,Snowtown Wind Farm Units 1 And 47,Wind,99.0,74.96,Snowtown Wind Farm Units 1 And 47,-33.83,138.118611,2026-01-31T19:52:02.217716
2026/02/01 05:55:00,STARHLWF,14.9,Starfish Hill Wind Farm Pty Ltd,Starfish Hill Wind Farm,Wind,35.0,42.57,Starfish Hill Wind Farm,-35.58,138.14,2026-01-31T19:52:02.217716
2026/02/01 05:55:00,STOCKYD1,270.02,Stockyard Hill Wind Farm Pty Ltd,Stockyard Hill Wind Farm,Wind,511.0,52.84,Stockyard Hill Wind Farm,-37.535833,143.251389,2026-01-31T19:52:02.217716
2026/02/01 05:55:00,STWF1,0.0,PARF Company 8 Pty Ltd as The Trustee for Silverton Project Trust,Silverton Wind Farm,Wind,198.0,0.0,Silverton Wind Farm,-37.683168,142.551678,2026-01-31T19:52:02.217716
2026/02/01 05:55:00,TARALGA1,63.59,Taralga Wind Farm Nominees No 2 Pty Ltd (ATF Taralga Wind Farm Operating Trust),Taralga Wind Farm,Wind,106.0,59.99,Taralga Wind Farm,-34.42352,149.826267,2026-01-31T19:52:02.217716
2026/02/01 05:55:00,WAMBOWF1,32.22,Stanwell Corporation Limited,Wambo Wind Farm 1,Wind,245.0,13.15,Wambo Wind Farm 1,-35.187301,149.524945,2026-01-31T19:52:02.217716
2026/02/01 05:55:00,WATERLWF,11.4,Waterloo Wind Farm Pty Ltd,Waterloo Wind Farm,Wind,130.0,8.77,Waterloo Wind Farm,-34.00094,138.911567,2026-01-31T19:52:02.217716
2026/02/01 05:55:00,WGWF1,74.7,Willogoleche Power Pty Ltd As The Trustee For The Willogoleche Operating Trust,Willogoleche Wind Farm,Wind,119.0,62.77,Willogoleche Wind Farm,-33.39,138.85,2026-01-31T19:52:02.217716
2026/02/01 05:55:00,WOODLWN1,1.83,Woodlawn Wind Pty Ltd,Woodlawn Wind Farm,Wind,48.0,3.81,Woodlawn Wind Farm,-35.08,149.62,2026-01-31T19:52:02.217716
2026/02/01 05:55:00,WPWF,66.35,AGL SA Generation Pty Limited,Wattle Point Wind Farm,Wind,91.0,72.91,Wattle Point Wind Farm,-35.111624,137.7219,2026-01-31T19:52:02.217716
2026/02/01 05:55:00,WRWF1,37.88,White Rock Wind Farm Pty Ltd,White Rock Wind Farm,Wind,172.0,22.02,White Rock Wind Farm,-29.79,151.54,2026-01-31T19:52:02.217716
2026/02/01 05:55:00,YENDWF1,29.47,Lal Lal Wind Farms Nom Co Pty Ltd,Yendon Wind Farm,Wind,142.0,20.75,Yendon Wind Farm,-37.629987,144.022717,2026-01-31T19:52:02.217716
