SETTLEMENTDATE,DUID,SCADAVALUE,Participant,Station Name,Fuel Source - Primary,MAX_CAP,utilisation_pct,Plant,Latitude,Longitude,timestamp_utc
2026/02/10 00:00:00,CAPTL_WF,8.52,Iberdrola Australia Holdings Pty Limited,Capital Wind Farm,Wind,140.0,6.09,Capital Wind Farm,-35.1,149.31,2026-02-09T14:01:12.982459
2026/02/10 00:00:00,CHALLHWF,9.8,Pacific Hydro Challicum Hills Pty Ltd,Challicum Hills Wind Farm,Wind,52.0,18.85,Challicum Hills Wind Farm,-37.38,143.11,2026-02-09T14:01:12.982459
2026/02/10 00:00:00,CULLRGWF,6.81,Cullerin Range Wind Farm Pty Ltd,Cullerin Range Wind Farm,Wind,30.0,22.7,Cullerin Range Wind Farm,-34.81,149.4,2026-02-09T14:01:12.982459
2026/02/10 00:00:00,DIAPURWF1,6.2,Y.E.S. Energy (SA) Pty Ltd,Diapur Wind Farm,Wind,7.0,88.57,Diapur Wind Farm,-36.3425,141.43,2026-02-09T14:01:12.982459
2026/02/10 00:00:00,MLWF1,3.74,Mortons Lane Windfarm Pty Limited,Mortons Lane Wind Farm,Wind,20.0,18.7,Mortons Lane Wind Farm,-37.84,142.45,2026-02-09T14:01:12.982459
2026/02/10 00:00:00,WAUBRAWF,87.24,Pyrenees Wind Energy Developments Pty Ltd,Waubra Wind Farm,Wind,192.0,45.44,Waubra Wind Farm,-37.394498,143.638982,2026-02-09T14:01:12.982459
2026/02/10 00:00:00,WOOLNTH1,33.5,Hydro-Electric Corporation,Woolnorth Studland Bay / Bluff Point Wind Farm,Wind,140.0,23.93,Woolnorth Studland Bay / Bluff Point Wind Farm,-40.69,144.72,2026-02-09T14:01:12.982459
2026/02/10 00:00:00,YAMBUKWF,2.2,Energy Pacific (Vic) Pty Ltd,Yambuk Wind Farm,Wind,30.0,7.33,Yambuk Wind Farm,-38.299083,142.027577,2026-02-09T14:01:12.982459
2026/02/10 00:00:00,YSWF1,2.4,Pacific Hydro Yaloak South Pty Ltd,Yaloak South Wind Farm,Wind,28.0,8.57,Yaloak South Wind Farm,-37.7163,144.242853,2026-02-09T14:01:12.982459
2026/02/10 00:00:00,ARWF1,77.6,Ararat Wind Farm Pty Ltd,Ararat Wind Farm,Wind,241.0,32.2,Ararat Wind Farm,-37.232778,143.031389,2026-02-09T14:01:12.982459
2026/02/10 00:00:00,BALDHWF1,11.1,Alinta Energy Retail Sales Pty Ltd,Bald Hills Wind Farm,Wind,106.0,10.47,Bald Hills Wind Farm,-38.79,145.93,2026-02-09T14:01:12.982459
2026/02/10 00:00:00,BANGOWF1,27.8,BWF Nominees Pty Ltd as The Trustee for BWF Trust,Bango 973 Wind Farm,Wind,155.0,17.94,Bango 973 Wind Farm,-34.551582,148.732808,2026-02-09T14:01:12.982459
2026/02/10 00:00:00,BANGOWF2,11.3,BWF Nominees Pty Ltd as The Trustee for BWF Trust,Bango 999 Wind Farm,Wind,82.0,13.78,Bango 999 Wind Farm,-34.551582,148.732808,2026-02-09T14:01:12.982459
2026/02/10 00:00:00,BLUFF1,0.0,AGL SA Generation Pty Limited,The Bluff Wind Farm,Wind,53.0,0.0,The Bluff Wind Farm,-33.367778,138.728611,2026-02-09T14:01:12.982459
2026/02/10 00:00:00,BOCORWF1,16.21,Boco Rock Wind Farm Pty Ltd,Boco Rock Wind Farm,Wind,111.0,14.6,Boco Rock Wind Farm,-36.578611,149.103333,2026-02-09T14:01:12.982459
2026/02/10 00:00:00,BRYB1WF1,10.51,Berrybank Development Pty Ltd,Berrybank Wind Farm,Wind,175.9,5.97,Berrybank Wind Farm,-37.94,143.52,2026-02-09T14:01:12.982459
2026/02/10 00:00:00,BRYB2WF2,5.01,Berrybank 2 Asset Pty Ltd as trustee for Berrybank 2 Asset Trust,Berrybank 2 Wind Farm,Wind,105.0,4.77,Berrybank 2 Wind Farm,-37.94,143.52,2026-02-09T14:01:12.982459
2026/02/10 00:00:00,BULGANA1,100.61,Bulgana Wind Farm Pty Ltd,Bulgana Green Power Hub,Wind,204.0,49.32,Bulgana Green Power Hub,-37.0975,142.973611,2026-02-09T14:01:12.982459
2026/02/10 00:00:00,CATHROCK,36.0,Cathedral Rocks Wind Farm Pty Ltd,Cathedral Rocks,Wind,66.0,54.55,Cathedral Rocks,-34.51,135.35,2026-02-09T14:01:12.982459
2026/02/10 00:00:00,CHYTWF1,23.42,Cherry Tree Wind Farm Pty Ltd as trustee for The Cherry Tree Project trust ,Cherry Tree Wind Farm,Wind,57.0,41.09,Cherry Tree Wind Farm,-37.1,145.26,2026-02-09T14:01:12.982459
2026/02/10 00:00:00,CLEMGPWF,34.79,Pacific Hydro Clements Gap Pty Ltd,Clements Gap Wind Farm,Wind,57.0,61.04,Clements Gap Wind Farm,-33.48,138.1,2026-02-09T14:01:12.982459
2026/02/10 00:00:00,CLRKCWF1,265.67,Stanwell Corporation Limited ,Clarke Creek Wind Farm,Wind,338.0,78.6,Clarke Creek Wind Farm,-22.85,149.45,2026-02-09T14:01:12.982459
2026/02/10 00:00:00,CLRKCWF2,69.83,Stanwell Corporation Limited ,Clarke Creek Wind Farm,Wind,101.0,69.14,Clarke Creek Wind Farm,-22.85,149.45,2026-02-09T14:01:12.982459
2026/02/10 00:00:00,CNUNDAWF,10.91,Canunda Power Pty Ltd,Canunda Wind Farm,Wind,46.0,23.72,Canunda Wind Farm,-37.73,140.39,2026-02-09T14:01:12.982459
2026/02/10 00:00:00,COLWF01,22.51,Collector Wind Farm Pty Ltd,Collector Wind Farm 1,Wind,219.0,10.28,Collector Wind Farm 1,-34.8719,149.3967,2026-02-09T14:01:12.982459
2026/02/10 00:00:00,COOPGWF1,290.86,PARF Company 10 Pty Limited as The Trustee for Coopers Gap Project Trust,Coopers Gap Wind Farm,Wind,440.0,66.1,Coopers Gap Wind Farm,-26.74,151.45,2026-02-09T14:01:12.982459
2026/02/10 00:00:00,CROOKWF2,0.33,Crookwell Development Pty Ltd ,Crookwell 2 Wind Farm,Wind,91.0,0.36,Crookwell 2 Wind Farm,-34.52,149.54,2026-02-09T14:01:12.982459
2026/02/10 00:00:00,CROOKWF3,0.0,Crookwell 3 Development Pty Ltd,Crookwell 3 Wind Farm,Wind,56.0,0.0,Crookwell 3 Wind Farm,-34.52,149.54,2026-02-09T14:01:12.982459
2026/02/10 00:00:00,CROWLWF1,19.36,Pacific Hydro Crowlands Pty Ltd ,Crowlands Wind Farm,Wind,79.0,24.51,Crowlands Wind Farm,-37.13,143.16,2026-02-09T14:01:12.982459
2026/02/10 00:00:00,CRURWF1,3.4,CRWF Nominees Pty Ltd As Trustee For The CRWF Trust,Crudine Ridge Wind Farm,Wind,138.0,2.46,Crudine Ridge Wind Farm,-32.97,149.64,2026-02-09T14:01:12.982459
2026/02/10 00:00:00,CTHLWF1,0.0,Wild Cattle Hill Pty Ltd,Cattle Hill Wind Farm,Wind,144.0,0.0,Cattle Hill Wind Farm,-42.15,146.69,2026-02-09T14:01:12.982459
2026/02/10 00:00:00,DULAWF1,12.6,Dulacca Energy Project Co Pty Ltd,Dulacca Wind Farm,Wind,173.0,7.28,Dulacca Wind Farm,-26.63,149.87,2026-02-09T14:01:12.982459
2026/02/10 00:00:00,DUNDWF1,19.27,Dundonnell Wind Farm Pty Ltd,Dundonnell Wind Farm,Wind,168.0,11.47,Dundonnell Wind Farm,-37.52,142.58,2026-02-09T14:01:12.982459
2026/02/10 00:00:00,DUNDWF2,5.11,Dundonnell Wind Farm Pty Ltd,Dundonnell Wind Farm,Wind,46.0,11.11,Dundonnell Wind Farm,-37.52,142.58,2026-02-09T14:01:12.982459
2026/02/10 00:00:00,DUNDWF3,13.28,Dundonnell Wind Farm Pty Ltd,Dundonnell Wind Farm,Wind,122.0,10.89,Dundonnell Wind Farm,-37.52,142.58,2026-02-09T14:01:12.982459
2026/02/10 00:00:00,ELAINWF1,10.51,Lal Lal Wind Farms Nom Co Pty Ltd,Elaine Wind Farm,Wind,82.0,12.82,Elaine Wind Farm,-37.36,144.0,2026-02-09T14:01:12.982459
2026/02/10 00:00:00,FLYCRKWF,0.0,Iberdrola Australia Energy Markets Pty Limited,Flyers Creek Wind Farm,Wind,140.0,0.0,Flyers Creek Wind Farm,-33.365556,148.981944,2026-02-09T14:01:12.982459
2026/02/10 00:00:00,GPWFEST1,8.62,Golden Plains WF1 Pty Ltd as Trustee for the Golden Plains WF1 Unit Trust,Golden Plains Wind Farm East,Wind,240.0,3.59,Golden Plains Wind Farm East,-37.945091,143.752614,2026-02-09T14:01:12.982459
2026/02/10 00:00:00,GPWFEST2,12.02,Golden Plains WF1 Pty Ltd as Trustee for the Golden Plains WF1 Unit Trust,Golden Plains Wind Farm East,Wind,253.0,4.75,Golden Plains Wind Farm East,-37.945091,143.752614,2026-02-09T14:01:12.982459
2026/02/10 00:00:00,GPWFEST3,3.58,Golden Plains WF1 Pty Ltd as Trustee for the Golden Plains WF1 Unit Trust,Golden Plains Wind Farm East,Wind,240.0,1.49,Golden Plains Wind Farm East,-37.945091,143.752614,2026-02-09T14:01:12.982459
2026/02/10 00:00:00,GRANWF1,40.75,Granville Harbour Operations Pty Ltd as The Trustee for Granville Harbour Operations Trust,Granville Harbour Wind Farm,Wind,111.0,36.71,Granville Harbour Wind Farm,-41.8,145.06,2026-02-09T14:01:12.982459
2026/02/10 00:00:00,GSWF1A,2.48,Goyder Wind Farm 1 Pty Ltd as the Trustee for Goyder Wind Farm 1 Trust,Goyder South Wind Farm 1A,Wind,201.0,1.23,Goyder South Wind Farm 1A,-33.679758,138.937597,2026-02-09T14:01:12.982459
2026/02/10 00:00:00,GSWF1B1,0.0,Goyder Wind Farm 1B Pty Ltd as the Trustee for the Goyder Wind Farm 1B Trust,Goyder South Wind Farm 1B,Wind,196.0,0.0,Goyder South Wind Farm 1B,-33.679758,138.937597,2026-02-09T14:01:12.982459
2026/02/10 00:00:00,GULLRWF1,11.0,New Gullen Range Wind Farm Pty Ltd,Gullen Range Wind Farm,Wind,161.0,6.83,Gullen Range Wind Farm,-34.34,149.27,2026-02-09T14:01:12.982459
2026/02/10 00:00:00,GULLRWF2,24.05,New Gullen Range Wind Farm Pty Ltd,Gullen Range Wind Farm,Wind,107.0,22.48,Gullen Range Wind Farm,-34.34,149.27,2026-02-09T14:01:12.982459
2026/02/10 00:00:00,GUNNING1,10.8,Gunning Wind Energy Developments Pty Ltd,Gunning Wind Farm,Wind,47.0,22.98,Gunning Wind Farm,-34.813333,149.4,2026-02-09T14:01:12.982459
2026/02/10 00:00:00,HALLWF1,1.31,AGL SA Generation Pty Limited,Hallett 1 Wind Farm,Wind,95.0,1.38,Hallett 1 Wind Farm,-33.367778,138.728611,2026-02-09T14:01:12.982459
2026/02/10 00:00:00,HALLWF2,0.0,AGL SA Generation Pty Limited,Hallett 2 Wind Farm,Wind,71.0,0.0,Hallett 2 Wind Farm,-33.367778,138.728611,2026-02-09T14:01:12.982459
2026/02/10 00:00:00,HD1WF1,20.07,Hawkesdale Asset Pty Ltd as trustee for Hawkesdale Asset Trust,Hawkesdale Wind Farm,Wind,89.0,22.55,Hawkesdale Wind Farm,-38.147894,142.361381,2026-02-09T14:01:12.982459
2026/02/10 00:00:00,HDWF1,27.0,HWF1 Pty Ltd,Hornsdale Wind Farm,Wind,102.0,26.47,Hornsdale Wind Farm,-33.050556,138.543611,2026-02-09T14:01:12.982459
2026/02/10 00:00:00,HDWF2,28.3,HWF 2 Pty Ltd,Hornsdale Wind Farm 2,Wind,102.0,27.75,Hornsdale Wind Farm 2,-33.06,138.54,2026-02-09T14:01:12.982459
2026/02/10 00:00:00,HDWF3,21.7,HWF3 Pty Ltd,Hornsdale Wind Farm 3,Wind,109.0,19.91,Hornsdale Wind Farm 3,-33.06,138.54,2026-02-09T14:01:12.982459
2026/02/10 00:00:00,KABANWF1,83.05,Kaban Wind Farm Pty Ltd as trustee for Kaban Wind Farm Trust,Kaban Wind Farm,Wind,152.0,54.64,Kaban Wind Farm,-17.56,145.41,2026-02-09T14:01:12.982459
2026/02/10 00:00:00,KEPWF1,36.0,Kennedy Energy Park Pty Ltd,Kennedy Energy Park,Wind,43.0,83.72,Kennedy Energy Park,-20.88,144.42,2026-02-09T14:01:12.982459
2026/02/10 00:00:00,KIATAWF1,13.7,Kiata ProjectCo Pty Ltd Atf Kiata Project Trust,Kiata Wind Farm,Wind,31.0,44.19,Kiata Wind Farm,-36.4,141.75,2026-02-09T14:01:12.982459
2026/02/10 00:00:00,LGAPWF1,48.6,Lincoln Gap Wind Farm (Operations) Pty Ltd,Lincoln Gap Wind Farm,Wind,123.0,39.51,Lincoln Gap Wind Farm,-32.564279,137.557328,2026-02-09T14:01:12.982459
2026/02/10 00:00:00,LGAPWF1,48.6,Lincoln Gap Wind Farm (Operations) Pty Ltd,Lincoln Gap Wind Farm,Wind,123.0,39.51,Lincoln Gap Wind Farm,-32.564279,137.557328,2026-02-09T14:01:12.982459
2026/02/10 00:00:00,LGAPWF2,48.27,Lincoln Gap Wind Farm (Operations) Pty Ltd,Lincoln Gap Wind Farm,Wind,85.0,56.79,Lincoln Gap Wind Farm,-32.564279,137.557328,2026-02-09T14:01:12.982459
2026/02/10 00:00:00,LGAPWF2,48.27,Lincoln Gap Wind Farm (Operations) Pty Ltd,Lincoln Gap Wind Farm,Wind,85.0,56.79,Lincoln Gap Wind Farm,-32.564279,137.557328,2026-02-09T14:01:12.982459
2026/02/10 00:00:00,LKBONNY1,15.0,Lake Bonney Wind Power Pty Ltd,Lake Bonney Wind Farm Stage 1,Wind,81.0,18.52,Lake Bonney Wind Farm Stage 1,-37.76,140.4,2026-02-09T14:01:12.982459
2026/02/10 00:00:00,LKBONNY2,32.16,Lake Bonney Wind Power Pty Ltd,Lake Bonney Stage 2 Windfarm,Wind,159.0,20.23,Lake Bonney Stage 2 Windfarm,-37.76,140.4,2026-02-09T14:01:12.982459
2026/02/10 00:00:00,LKBONNY3,6.25,Lake Bonney Wind Power Pty Ltd,Lake Bonney Stage 3 Wind Farm,Wind,39.0,16.03,Lake Bonney Stage 3 Wind Farm,-37.737781,140.388137,2026-02-09T14:01:12.982459
2026/02/10 00:00:00,MACARTH1,30.9,AGL Hydro Partnership,Macarthur Wind Farm,Wind,420.0,7.36,Macarthur Wind Farm,-38.048957,142.192112,2026-02-09T14:01:12.982459
2026/02/10 00:00:00,MCINTYR1,227.8,MacIntyre UJV Operator Pty Ltd,MacIntyre Wind Farm,Wind,890.0,25.6,MacIntyre Wind Farm,-28.32,151.54,2026-02-09T14:01:12.982459
2026/02/10 00:00:00,MERCER01,3.1,Mt Mercer Windfarm Pty Ltd,Mt Mercer Wind Farm,Wind,131.0,2.37,Mt Mercer Wind Farm,-37.841111,143.871111,2026-02-09T14:01:12.982459
2026/02/10 00:00:00,MEWF1,91.83,Ergon Energy Queensland Pty Ltd ,Mount Emerald Wind Farm,Wind,178.0,51.59,Mount Emerald Wind Farm,-17.133007,145.380644,2026-02-09T14:01:12.982459
2026/02/10 00:00:00,MRTLSWF1,18.58,Mortlake South Wind Farm Pty Ltd,Mortlake South Wind Farm,Wind,153.0,12.14,Mortlake South Wind Farm,-38.127337,142.857801,2026-02-09T14:01:12.982459
2026/02/10 00:00:00,MTGELWF1,0.4,Mt. Gellibrand Wind Farm Pty Ltd,Mt Gellibrand Wind Farm,Wind,132.0,0.3,Mt Gellibrand Wind Farm,-38.23,143.77,2026-02-09T14:01:12.982459
2026/02/10 00:00:00,MTMILLAR,6.7,Mt Millar Wind Farm Pty Ltd,Mt Millar Wind Farm,Wind,70.0,9.57,Mt Millar Wind Farm,-33.624444,136.703611,2026-02-09T14:01:12.982459
2026/02/10 00:00:00,MUSSELR1,8.3,Hydro-Electric Corporation,Musselroe Wind Farm,Wind,168.0,4.94,Musselroe Wind Farm,-40.780225,148.010799,2026-02-09T14:01:12.982459
2026/02/10 00:00:00,MUWAWF1,152.07,Telstra Energy (Generation) Pty Ltd,Murra Warra Wind Farm,Wind,225.7,67.38,Murra Warra Wind Farm,-36.432404,142.317853,2026-02-09T14:01:12.982459
2026/02/10 00:00:00,MUWAWF2,176.1,Murra Warra II Project Co Pty Ltd ATF The Murra Warra II Project Trust,Murra Warra Wind Farm Stage 2,Wind,203.0,86.75,Murra Warra Wind Farm Stage 2,-36.43,142.32,2026-02-09T14:01:12.982459
2026/02/10 00:00:00,NBHWF1,13.3,AGL SA Generation Pty Limited,North Brown Hill Wind Farm,Wind,132.0,10.08,North Brown Hill Wind Farm,-33.367778,138.728611,2026-02-09T14:01:12.982459
2026/02/10 00:00:00,OAKLAND1,10.1,AGL Hydro Partnership,Oaklands Hill Wind Farm,Wind,63.0,16.03,Oaklands Hill Wind Farm,-37.683078,142.551678,2026-02-09T14:01:12.982459
2026/02/10 00:00:00,PAREPW1,63.35,Iberdrola Australia Energy Markets Pty Limited,Port Augusta Renewable Energy Park,Wind,201.0,31.52,Port Augusta Renewable Energy Park,-32.566944,137.856111,2026-02-09T14:01:12.982459
2026/02/10 00:00:00,RYANCWF1,37.39,Ryan Corner Development Pty Ltd,Ryan Corner Wind Farm,Wind,205.0,18.24,Ryan Corner Wind Farm,-38.271017,142.140647,2026-02-09T14:01:12.982459
2026/02/10 00:00:00,RYEPARK1,23.68,Rye Park Renewable Energy Pty Ltd as trustee for Rye Park Wind Farm Trust,Rye Park Renewable Energy,Wind,384.0,6.17,Rye Park Renewable Energy,-32.138333,148.972778,2026-02-09T14:01:12.982459
2026/02/10 00:00:00,SALTCRK1,5.61,Salt Creek Wind Farm Pty Ltd,Salt Creek Wind Farm,Wind,54.0,10.39,Salt Creek Wind Farm,-37.95,142.63,2026-02-09T14:01:12.982459
2026/02/10 00:00:00,SAPHWF1,1.3,The Trustee For The SWF1 Operations Trust,Sapphire Wind Farm,Wind,270.0,0.48,Sapphire Wind Farm,-29.7,151.41,2026-02-09T14:01:12.982459
2026/02/10 00:00:00,SNOWNTH1,18.5,Snowtown Wind Farm Stage 2 Pty Ltd,Snowtown Wind Farm Stage 2 North,Wind,144.0,12.85,Snowtown Wind Farm Stage 2 North,-33.83,138.118611,2026-02-09T14:01:12.982459
2026/02/10 00:00:00,SNOWSTH1,27.1,Snowtown Wind Farm Stage 2 Pty Ltd,Snowtown South Wind Farm,Wind,126.0,21.51,Snowtown South Wind Farm,-33.83,138.118611,2026-02-09T14:01:12.982459
2026/02/10 00:00:00,SNOWTWN1,27.03,Snowtown Wind Farm Pty Ltd,Snowtown Wind Farm Units 1 And 47,Wind,99.0,27.3,Snowtown Wind Farm Units 1 And 47,-33.83,138.118611,2026-02-09T14:01:12.982459
2026/02/10 00:00:00,STARHLWF,21.09,Starfish Hill Wind Farm Pty Ltd,Starfish Hill Wind Farm,Wind,35.0,60.26,Starfish Hill Wind Farm,-35.58,138.14,2026-02-09T14:01:12.982459
2026/02/10 00:00:00,STOCKYD1,87.06,Stockyard Hill Wind Farm Pty Ltd,Stockyard Hill Wind Farm,Wind,511.0,17.04,Stockyard Hill Wind Farm,-37.535833,143.251389,2026-02-09T14:01:12.982459
2026/02/10 00:00:00,STWF1,4.64,PARF Company 8 Pty Ltd as The Trustee for Silverton Project Trust,Silverton Wind Farm,Wind,198.0,2.34,Silverton Wind Farm,-37.683168,142.551678,2026-02-09T14:01:12.982459
2026/02/10 00:00:00,TARALGA1,0.0,Taralga Wind Farm Nominees No 2 Pty Ltd (ATF Taralga Wind Farm Operating Trust),Taralga Wind Farm,Wind,106.0,0.0,Taralga Wind Farm,-34.42352,149.826267,2026-02-09T14:01:12.982459
2026/02/10 00:00:00,WAMBOWF1,107.3,Stanwell Corporation Limited,Wambo Wind Farm 1,Wind,245.0,43.8,Wambo Wind Farm 1,-35.187301,149.524945,2026-02-09T14:01:12.982459
2026/02/10 00:00:00,WATERLWF,0.3,Waterloo Wind Farm Pty Ltd,Waterloo Wind Farm,Wind,130.0,0.23,Waterloo Wind Farm,-34.00094,138.911567,2026-02-09T14:01:12.982459
2026/02/10 00:00:00,WGWF1,2.3,Willogoleche Power Pty Ltd As The Trustee For The Willogoleche Operating Trust,Willogoleche Wind Farm,Wind,119.0,1.93,Willogoleche Wind Farm,-33.39,138.85,2026-02-09T14:01:12.982459
2026/02/10 00:00:00,WOODLWN1,5.25,Woodlawn Wind Pty Ltd,Woodlawn Wind Farm,Wind,48.0,10.94,Woodlawn Wind Farm,-35.08,149.62,2026-02-09T14:01:12.982459
2026/02/10 00:00:00,WPWF,48.4,AGL SA Generation Pty Limited,Wattle Point Wind Farm,Wind,91.0,53.19,Wattle Point Wind Farm,-35.111624,137.7219,2026-02-09T14:01:12.982459
2026/02/10 00:00:00,WRWF1,0.0,White Rock Wind Farm Pty Ltd,White Rock Wind Farm,Wind,172.0,0.0,White Rock Wind Farm,-29.79,151.54,2026-02-09T14:01:12.982459
2026/02/10 00:00:00,YENDWF1,24.46,Lal Lal Wind Farms Nom Co Pty Ltd,Yendon Wind Farm,Wind,142.0,17.23,Yendon Wind Farm,-37.629987,144.022717,2026-02-09T14:01:12.982459
