SETTLEMENTDATE,DUID,SCADAVALUE,Participant,Station Name,Fuel Source - Primary,MAX_CAP,utilisation_pct,Plant,Latitude,Longitude,timestamp_utc
2026/03/12 06:50:00,CAPTL_WF,29.62,Iberdrola Australia Holdings Pty Limited,Capital Wind Farm,Wind,140.0,21.16,Capital Wind Farm,-35.1,149.31,2026-03-11T20:46:45.277661
2026/03/12 06:50:00,CHALLHWF,8.4,Pacific Hydro Challicum Hills Pty Ltd,Challicum Hills Wind Farm,Wind,52.0,16.15,Challicum Hills Wind Farm,-37.38,143.11,2026-03-11T20:46:45.277661
2026/03/12 06:50:00,CULLRGWF,15.31,Cullerin Range Wind Farm Pty Ltd,Cullerin Range Wind Farm,Wind,30.0,51.03,Cullerin Range Wind Farm,-34.81,149.4,2026-03-11T20:46:45.277661
2026/03/12 06:50:00,DIAPURWF1,4.2,Y.E.S. Energy (SA) Pty Ltd,Diapur Wind Farm,Wind,7.0,60.0,Diapur Wind Farm,-36.3425,141.43,2026-03-11T20:46:45.277661
2026/03/12 06:50:00,MLWF1,4.68,Mortons Lane Windfarm Pty Limited,Mortons Lane Wind Farm,Wind,20.0,23.4,Mortons Lane Wind Farm,-37.84,142.45,2026-03-11T20:46:45.277661
2026/03/12 06:50:00,WAUBRAWF,54.45,Pyrenees Wind Energy Developments Pty Ltd,Waubra Wind Farm,Wind,192.0,28.36,Waubra Wind Farm,-37.394498,143.638982,2026-03-11T20:46:45.277661
2026/03/12 06:50:00,WOOLNTH1,106.37,Hydro-Electric Corporation,Woolnorth Studland Bay / Bluff Point Wind Farm,Wind,140.0,75.98,Woolnorth Studland Bay / Bluff Point Wind Farm,-40.69,144.72,2026-03-11T20:46:45.277661
2026/03/12 06:50:00,YAMBUKWF,26.8,Energy Pacific (Vic) Pty Ltd,Yambuk Wind Farm,Wind,30.0,89.33,Yambuk Wind Farm,-38.299083,142.027577,2026-03-11T20:46:45.277661
2026/03/12 06:50:00,YSWF1,4.5,Pacific Hydro Yaloak South Pty Ltd,Yaloak South Wind Farm,Wind,28.0,16.07,Yaloak South Wind Farm,-37.7163,144.242853,2026-03-11T20:46:45.277661
2026/03/12 06:50:00,ARWF1,32.4,Ararat Wind Farm Pty Ltd,Ararat Wind Farm,Wind,241.0,13.44,Ararat Wind Farm,-37.232778,143.031389,2026-03-11T20:46:45.277661
2026/03/12 06:50:00,BALDHWF1,85.47,Alinta Energy Retail Sales Pty Ltd,Bald Hills Wind Farm,Wind,106.0,80.63,Bald Hills Wind Farm,-38.79,145.93,2026-03-11T20:46:45.277661
2026/03/12 06:50:00,BANGOWF1,39.8,BWF Nominees Pty Ltd as The Trustee for BWF Trust,Bango 973 Wind Farm,Wind,155.0,25.68,Bango 973 Wind Farm,-34.551582,148.732808,2026-03-11T20:46:45.277661
2026/03/12 06:50:00,BANGOWF2,32.3,BWF Nominees Pty Ltd as The Trustee for BWF Trust,Bango 999 Wind Farm,Wind,82.0,39.39,Bango 999 Wind Farm,-34.551582,148.732808,2026-03-11T20:46:45.277661
2026/03/12 06:50:00,BLUFF1,10.8,AGL SA Generation Pty Limited,The Bluff Wind Farm,Wind,53.0,20.38,The Bluff Wind Farm,-33.367778,138.728611,2026-03-11T20:46:45.277661
2026/03/12 06:50:00,BOCORWF1,32.08,Boco Rock Wind Farm Pty Ltd,Boco Rock Wind Farm,Wind,111.0,28.9,Boco Rock Wind Farm,-36.578611,149.103333,2026-03-11T20:46:45.277661
2026/03/12 06:50:00,BRYB1WF1,48.98,Berrybank Development Pty Ltd,Berrybank Wind Farm,Wind,175.9,27.85,Berrybank Wind Farm,-37.94,143.52,2026-03-11T20:46:45.277661
2026/03/12 06:50:00,BRYB2WF2,37.03,Berrybank 2 Asset Pty Ltd as trustee for Berrybank 2 Asset Trust,Berrybank 2 Wind Farm,Wind,105.0,35.27,Berrybank 2 Wind Farm,-37.94,143.52,2026-03-11T20:46:45.277661
2026/03/12 06:50:00,BULGANA1,43.78,Bulgana Wind Farm Pty Ltd,Bulgana Green Power Hub,Wind,204.0,21.46,Bulgana Green Power Hub,-37.0975,142.973611,2026-03-11T20:46:45.277661
2026/03/12 06:50:00,CATHROCK,0.0,Cathedral Rocks Wind Farm Pty Ltd,Cathedral Rocks,Wind,66.0,0.0,Cathedral Rocks,-34.51,135.35,2026-03-11T20:46:45.277661
2026/03/12 06:50:00,CHYTWF1,38.69,Cherry Tree Wind Farm Pty Ltd as trustee for The Cherry Tree Project trust ,Cherry Tree Wind Farm,Wind,57.0,67.88,Cherry Tree Wind Farm,-37.1,145.26,2026-03-11T20:46:45.277661
2026/03/12 06:50:00,CLEMGPWF,15.78,Pacific Hydro Clements Gap Pty Ltd,Clements Gap Wind Farm,Wind,57.0,27.68,Clements Gap Wind Farm,-33.48,138.1,2026-03-11T20:46:45.277661
2026/03/12 06:50:00,CLRKCWF1,126.71,Stanwell Corporation Limited ,Clarke Creek Wind Farm,Wind,338.0,37.49,Clarke Creek Wind Farm,-22.85,149.45,2026-03-11T20:46:45.277661
2026/03/12 06:50:00,CLRKCWF2,40.66,Stanwell Corporation Limited ,Clarke Creek Wind Farm,Wind,101.0,40.26,Clarke Creek Wind Farm,-22.85,149.45,2026-03-11T20:46:45.277661
2026/03/12 06:50:00,CNUNDAWF,10.91,Canunda Power Pty Ltd,Canunda Wind Farm,Wind,46.0,23.72,Canunda Wind Farm,-37.73,140.39,2026-03-11T20:46:45.277661
2026/03/12 06:50:00,COLWF01,93.87,Collector Wind Farm Pty Ltd,Collector Wind Farm 1,Wind,219.0,42.86,Collector Wind Farm 1,-34.8719,149.3967,2026-03-11T20:46:45.277661
2026/03/12 06:50:00,COOPGWF1,39.29,PARF Company 10 Pty Limited as The Trustee for Coopers Gap Project Trust,Coopers Gap Wind Farm,Wind,440.0,8.93,Coopers Gap Wind Farm,-26.74,151.45,2026-03-11T20:46:45.277661
2026/03/12 06:50:00,CROOKWF2,21.57,Crookwell Development Pty Ltd ,Crookwell 2 Wind Farm,Wind,91.0,23.7,Crookwell 2 Wind Farm,-34.52,149.54,2026-03-11T20:46:45.277661
2026/03/12 06:50:00,CROOKWF3,10.21,Crookwell 3 Development Pty Ltd,Crookwell 3 Wind Farm,Wind,56.0,18.23,Crookwell 3 Wind Farm,-34.52,149.54,2026-03-11T20:46:45.277661
2026/03/12 06:50:00,CROWLWF1,22.09,Pacific Hydro Crowlands Pty Ltd ,Crowlands Wind Farm,Wind,79.0,27.96,Crowlands Wind Farm,-37.13,143.16,2026-03-11T20:46:45.277661
2026/03/12 06:50:00,CRURWF1,15.5,CRWF Nominees Pty Ltd As Trustee For The CRWF Trust,Crudine Ridge Wind Farm,Wind,138.0,11.23,Crudine Ridge Wind Farm,-32.97,149.64,2026-03-11T20:46:45.277661
2026/03/12 06:50:00,CTHLWF1,116.45,Wild Cattle Hill Pty Ltd,Cattle Hill Wind Farm,Wind,144.0,80.87,Cattle Hill Wind Farm,-42.15,146.69,2026-03-11T20:46:45.277661
2026/03/12 06:50:00,DULAWF1,114.7,Dulacca Energy Project Co Pty Ltd,Dulacca Wind Farm,Wind,173.0,66.3,Dulacca Wind Farm,-26.63,149.87,2026-03-11T20:46:45.277661
2026/03/12 06:50:00,DUNDWF1,40.25,Dundonnell Wind Farm Pty Ltd,Dundonnell Wind Farm,Wind,168.0,23.96,Dundonnell Wind Farm,-37.52,142.58,2026-03-11T20:46:45.277661
2026/03/12 06:50:00,DUNDWF2,0.0,Dundonnell Wind Farm Pty Ltd,Dundonnell Wind Farm,Wind,46.0,0.0,Dundonnell Wind Farm,-37.52,142.58,2026-03-11T20:46:45.277661
2026/03/12 06:50:00,DUNDWF3,0.0,Dundonnell Wind Farm Pty Ltd,Dundonnell Wind Farm,Wind,122.0,0.0,Dundonnell Wind Farm,-37.52,142.58,2026-03-11T20:46:45.277661
2026/03/12 06:50:00,ELAINWF1,10.04,Lal Lal Wind Farms Nom Co Pty Ltd,Elaine Wind Farm,Wind,82.0,12.24,Elaine Wind Farm,-37.36,144.0,2026-03-11T20:46:45.277661
2026/03/12 06:50:00,FLYCRKWF,0.0,Iberdrola Australia Energy Markets Pty Limited,Flyers Creek Wind Farm,Wind,140.0,0.0,Flyers Creek Wind Farm,-33.365556,148.981944,2026-03-11T20:46:45.277661
2026/03/12 06:50:00,GPWFEST1,73.58,Golden Plains WF1 Pty Ltd as Trustee for the Golden Plains WF1 Unit Trust,Golden Plains Wind Farm East,Wind,240.0,30.66,Golden Plains Wind Farm East,-37.945091,143.752614,2026-03-11T20:46:45.277661
2026/03/12 06:50:00,GPWFEST2,31.55,Golden Plains WF1 Pty Ltd as Trustee for the Golden Plains WF1 Unit Trust,Golden Plains Wind Farm East,Wind,253.0,12.47,Golden Plains Wind Farm East,-37.945091,143.752614,2026-03-11T20:46:45.277661
2026/03/12 06:50:00,GPWFEST3,50.57,Golden Plains WF1 Pty Ltd as Trustee for the Golden Plains WF1 Unit Trust,Golden Plains Wind Farm East,Wind,240.0,21.07,Golden Plains Wind Farm East,-37.945091,143.752614,2026-03-11T20:46:45.277661
2026/03/12 06:50:00,GRANWF1,100.79,Granville Harbour Operations Pty Ltd as The Trustee for Granville Harbour Operations Trust,Granville Harbour Wind Farm,Wind,111.0,90.8,Granville Harbour Wind Farm,-41.8,145.06,2026-03-11T20:46:45.277661
2026/03/12 06:50:00,GSWF1A,56.69,Goyder Wind Farm 1 Pty Ltd as the Trustee for Goyder Wind Farm 1 Trust,Goyder South Wind Farm 1A,Wind,201.0,28.2,Goyder South Wind Farm 1A,-33.679758,138.937597,2026-03-11T20:46:45.277661
2026/03/12 06:50:00,GSWF1B1,40.89,Goyder Wind Farm 1B Pty Ltd as the Trustee for the Goyder Wind Farm 1B Trust,Goyder South Wind Farm 1B,Wind,196.0,20.86,Goyder South Wind Farm 1B,-33.679758,138.937597,2026-03-11T20:46:45.277661
2026/03/12 06:50:00,GULLRWF1,44.44,New Gullen Range Wind Farm Pty Ltd,Gullen Range Wind Farm,Wind,161.0,27.6,Gullen Range Wind Farm,-34.34,149.27,2026-03-11T20:46:45.277661
2026/03/12 06:50:00,GULLRWF2,9.8,New Gullen Range Wind Farm Pty Ltd,Gullen Range Wind Farm,Wind,107.0,9.16,Gullen Range Wind Farm,-34.34,149.27,2026-03-11T20:46:45.277661
2026/03/12 06:50:00,GUNNING1,9.88,Gunning Wind Energy Developments Pty Ltd,Gunning Wind Farm,Wind,47.0,21.02,Gunning Wind Farm,-34.813333,149.4,2026-03-11T20:46:45.277661
2026/03/12 06:50:00,HALLWF1,60.59,AGL SA Generation Pty Limited,Hallett 1 Wind Farm,Wind,95.0,63.78,Hallett 1 Wind Farm,-33.367778,138.728611,2026-03-11T20:46:45.277661
2026/03/12 06:50:00,HALLWF2,34.87,AGL SA Generation Pty Limited,Hallett 2 Wind Farm,Wind,71.0,49.11,Hallett 2 Wind Farm,-33.367778,138.728611,2026-03-11T20:46:45.277661
2026/03/12 06:50:00,HD1WF1,25.09,Hawkesdale Asset Pty Ltd as trustee for Hawkesdale Asset Trust,Hawkesdale Wind Farm,Wind,89.0,28.19,Hawkesdale Wind Farm,-38.147894,142.361381,2026-03-11T20:46:45.277661
2026/03/12 06:50:00,HDWF1,72.4,HWF1 Pty Ltd,Hornsdale Wind Farm,Wind,102.0,70.98,Hornsdale Wind Farm,-33.050556,138.543611,2026-03-11T20:46:45.277661
2026/03/12 06:50:00,HDWF2,68.0,HWF 2 Pty Ltd,Hornsdale Wind Farm 2,Wind,102.0,66.67,Hornsdale Wind Farm 2,-33.06,138.54,2026-03-11T20:46:45.277661
2026/03/12 06:50:00,HDWF3,66.1,HWF3 Pty Ltd,Hornsdale Wind Farm 3,Wind,109.0,60.64,Hornsdale Wind Farm 3,-33.06,138.54,2026-03-11T20:46:45.277661
2026/03/12 06:50:00,KABANWF1,3.17,Kaban Wind Farm Pty Ltd as trustee for Kaban Wind Farm Trust,Kaban Wind Farm,Wind,152.0,2.09,Kaban Wind Farm,-17.56,145.41,2026-03-11T20:46:45.277661
2026/03/12 06:50:00,KEPWF1,6.1,Kennedy Energy Park Pty Ltd,Kennedy Energy Park,Wind,43.0,14.19,Kennedy Energy Park,-20.88,144.42,2026-03-11T20:46:45.277661
2026/03/12 06:50:00,KIATAWF1,10.0,Kiata ProjectCo Pty Ltd Atf Kiata Project Trust,Kiata Wind Farm,Wind,31.0,32.26,Kiata Wind Farm,-36.4,141.75,2026-03-11T20:46:45.277661
2026/03/12 06:50:00,LGAPWF1,39.96,Lincoln Gap Wind Farm (Operations) Pty Ltd,Lincoln Gap Wind Farm,Wind,123.0,32.49,Lincoln Gap Wind Farm,-32.564279,137.557328,2026-03-11T20:46:45.277661
2026/03/12 06:50:00,LGAPWF1,39.96,Lincoln Gap Wind Farm (Operations) Pty Ltd,Lincoln Gap Wind Farm,Wind,123.0,32.49,Lincoln Gap Wind Farm,-32.564279,137.557328,2026-03-11T20:46:45.277661
2026/03/12 06:50:00,LGAPWF2,50.48,Lincoln Gap Wind Farm (Operations) Pty Ltd,Lincoln Gap Wind Farm,Wind,85.0,59.39,Lincoln Gap Wind Farm,-32.564279,137.557328,2026-03-11T20:46:45.277661
2026/03/12 06:50:00,LGAPWF2,50.48,Lincoln Gap Wind Farm (Operations) Pty Ltd,Lincoln Gap Wind Farm,Wind,85.0,59.39,Lincoln Gap Wind Farm,-32.564279,137.557328,2026-03-11T20:46:45.277661
2026/03/12 06:50:00,LKBONNY1,15.9,Lake Bonney Wind Power Pty Ltd,Lake Bonney Wind Farm Stage 1,Wind,81.0,19.63,Lake Bonney Wind Farm Stage 1,-37.76,140.4,2026-03-11T20:46:45.277661
2026/03/12 06:50:00,LKBONNY2,32.05,Lake Bonney Wind Power Pty Ltd,Lake Bonney Stage 2 Windfarm,Wind,159.0,20.16,Lake Bonney Stage 2 Windfarm,-37.76,140.4,2026-03-11T20:46:45.277661
2026/03/12 06:50:00,LKBONNY3,8.65,Lake Bonney Wind Power Pty Ltd,Lake Bonney Stage 3 Wind Farm,Wind,39.0,22.18,Lake Bonney Stage 3 Wind Farm,-37.737781,140.388137,2026-03-11T20:46:45.277661
2026/03/12 06:50:00,MACARTH1,73.9,AGL Hydro Partnership,Macarthur Wind Farm,Wind,420.0,17.6,Macarthur Wind Farm,-38.048957,142.192112,2026-03-11T20:46:45.277661
2026/03/12 06:50:00,MCINTYR1,40.26,MacIntyre UJV Operator Pty Ltd,MacIntyre Wind Farm,Wind,890.0,4.52,MacIntyre Wind Farm,-28.32,151.54,2026-03-11T20:46:45.277661
2026/03/12 06:50:00,MERCER01,21.0,Mt Mercer Windfarm Pty Ltd,Mt Mercer Wind Farm,Wind,131.0,16.03,Mt Mercer Wind Farm,-37.841111,143.871111,2026-03-11T20:46:45.277661
2026/03/12 06:50:00,MEWF1,0.0,Ergon Energy Queensland Pty Ltd ,Mount Emerald Wind Farm,Wind,178.0,0.0,Mount Emerald Wind Farm,-17.133007,145.380644,2026-03-11T20:46:45.277661
2026/03/12 06:50:00,MRTLSWF1,53.66,Mortlake South Wind Farm Pty Ltd,Mortlake South Wind Farm,Wind,153.0,35.07,Mortlake South Wind Farm,-38.127337,142.857801,2026-03-11T20:46:45.277661
2026/03/12 06:50:00,MTGELWF1,51.0,Mt. Gellibrand Wind Farm Pty Ltd,Mt Gellibrand Wind Farm,Wind,132.0,38.64,Mt Gellibrand Wind Farm,-38.23,143.77,2026-03-11T20:46:45.277661
2026/03/12 06:50:00,MTMILLAR,27.8,Mt Millar Wind Farm Pty Ltd,Mt Millar Wind Farm,Wind,70.0,39.71,Mt Millar Wind Farm,-33.624444,136.703611,2026-03-11T20:46:45.277661
2026/03/12 06:50:00,MUSSELR1,0.0,Hydro-Electric Corporation,Musselroe Wind Farm,Wind,168.0,0.0,Musselroe Wind Farm,-40.780225,148.010799,2026-03-11T20:46:45.277661
2026/03/12 06:50:00,MUWAWF1,100.97,Telstra Energy (Generation) Pty Ltd,Murra Warra Wind Farm,Wind,225.7,44.74,Murra Warra Wind Farm,-36.432404,142.317853,2026-03-11T20:46:45.277661
2026/03/12 06:50:00,MUWAWF2,110.8,Murra Warra II Project Co Pty Ltd ATF The Murra Warra II Project Trust,Murra Warra Wind Farm Stage 2,Wind,203.0,54.58,Murra Warra Wind Farm Stage 2,-36.43,142.32,2026-03-11T20:46:45.277661
2026/03/12 06:50:00,NBHWF1,68.3,AGL SA Generation Pty Limited,North Brown Hill Wind Farm,Wind,132.0,51.74,North Brown Hill Wind Farm,-33.367778,138.728611,2026-03-11T20:46:45.277661
2026/03/12 06:50:00,OAKLAND1,20.2,AGL Hydro Partnership,Oaklands Hill Wind Farm,Wind,63.0,32.06,Oaklands Hill Wind Farm,-37.683078,142.551678,2026-03-11T20:46:45.277661
2026/03/12 06:50:00,PAREPW1,110.02,Iberdrola Australia Energy Markets Pty Limited,Port Augusta Renewable Energy Park,Wind,201.0,54.74,Port Augusta Renewable Energy Park,-32.566944,137.856111,2026-03-11T20:46:45.277661
2026/03/12 06:50:00,RYANCWF1,83.42,Ryan Corner Development Pty Ltd,Ryan Corner Wind Farm,Wind,205.0,40.69,Ryan Corner Wind Farm,-38.271017,142.140647,2026-03-11T20:46:45.277661
2026/03/12 06:50:00,RYEPARK1,136.29,Rye Park Renewable Energy Pty Ltd as trustee for Rye Park Wind Farm Trust,Rye Park Renewable Energy,Wind,384.0,35.49,Rye Park Renewable Energy,-32.138333,148.972778,2026-03-11T20:46:45.277661
2026/03/12 06:50:00,SALTCRK1,30.83,Salt Creek Wind Farm Pty Ltd,Salt Creek Wind Farm,Wind,54.0,57.09,Salt Creek Wind Farm,-37.95,142.63,2026-03-11T20:46:45.277661
2026/03/12 06:50:00,SAPHWF1,36.28,The Trustee For The SWF1 Operations Trust,Sapphire Wind Farm,Wind,270.0,13.44,Sapphire Wind Farm,-29.7,151.41,2026-03-11T20:46:45.277661
2026/03/12 06:50:00,SNOWNTH1,44.6,Snowtown Wind Farm Stage 2 Pty Ltd,Snowtown Wind Farm Stage 2 North,Wind,144.0,30.97,Snowtown Wind Farm Stage 2 North,-33.83,138.118611,2026-03-11T20:46:45.277661
2026/03/12 06:50:00,SNOWSTH1,36.8,Snowtown Wind Farm Stage 2 Pty Ltd,Snowtown South Wind Farm,Wind,126.0,29.21,Snowtown South Wind Farm,-33.83,138.118611,2026-03-11T20:46:45.277661
2026/03/12 06:50:00,SNOWTWN1,47.98,Snowtown Wind Farm Pty Ltd,Snowtown Wind Farm Units 1 And 47,Wind,99.0,48.46,Snowtown Wind Farm Units 1 And 47,-33.83,138.118611,2026-03-11T20:46:45.277661
2026/03/12 06:50:00,STARHLWF,3.6,Starfish Hill Wind Farm Pty Ltd,Starfish Hill Wind Farm,Wind,35.0,10.29,Starfish Hill Wind Farm,-35.58,138.14,2026-03-11T20:46:45.277661
2026/03/12 06:50:00,STOCKYD1,134.54,Stockyard Hill Wind Farm Pty Ltd,Stockyard Hill Wind Farm,Wind,511.0,26.33,Stockyard Hill Wind Farm,-37.535833,143.251389,2026-03-11T20:46:45.277661
2026/03/12 06:50:00,STWF1,139.35,PARF Company 8 Pty Ltd as The Trustee for Silverton Project Trust,Silverton Wind Farm,Wind,198.0,70.38,Silverton Wind Farm,-37.683168,142.551678,2026-03-11T20:46:45.277661
2026/03/12 06:50:00,TARALGA1,20.34,Taralga Wind Farm Nominees No 2 Pty Ltd (ATF Taralga Wind Farm Operating Trust),Taralga Wind Farm,Wind,106.0,19.19,Taralga Wind Farm,-34.42352,149.826267,2026-03-11T20:46:45.277661
2026/03/12 06:50:00,WAMBOWF1,63.73,Stanwell Corporation Limited,Wambo Wind Farm 1,Wind,245.0,26.01,Wambo Wind Farm 1,-35.187301,149.524945,2026-03-11T20:46:45.277661
2026/03/12 06:50:00,WATERLWF,8.5,Waterloo Wind Farm Pty Ltd,Waterloo Wind Farm,Wind,130.0,6.54,Waterloo Wind Farm,-34.00094,138.911567,2026-03-11T20:46:45.277661
2026/03/12 06:50:00,WGWF1,52.7,Willogoleche Power Pty Ltd As The Trustee For The Willogoleche Operating Trust,Willogoleche Wind Farm,Wind,119.0,44.29,Willogoleche Wind Farm,-33.39,138.85,2026-03-11T20:46:45.277661
2026/03/12 06:50:00,WOODLWN1,23.77,Woodlawn Wind Pty Ltd,Woodlawn Wind Farm,Wind,48.0,49.52,Woodlawn Wind Farm,-35.08,149.62,2026-03-11T20:46:45.277661
2026/03/12 06:50:00,WPWF,54.66,AGL SA Generation Pty Limited,Wattle Point Wind Farm,Wind,91.0,60.07,Wattle Point Wind Farm,-35.111624,137.7219,2026-03-11T20:46:45.277661
2026/03/12 06:50:00,WRWF1,7.09,White Rock Wind Farm Pty Ltd,White Rock Wind Farm,Wind,172.0,4.12,White Rock Wind Farm,-29.79,151.54,2026-03-11T20:46:45.277661
2026/03/12 06:50:00,YENDWF1,20.03,Lal Lal Wind Farms Nom Co Pty Ltd,Yendon Wind Farm,Wind,142.0,14.11,Yendon Wind Farm,-37.629987,144.022717,2026-03-11T20:46:45.277661
