SETTLEMENTDATE,DUID,SCADAVALUE,Participant,Station Name,Fuel Source - Primary,MAX_CAP,utilisation_pct,Plant,Latitude,Longitude,timestamp_utc
2026/02/10 01:10:00,CAPTL_WF,0.0,Iberdrola Australia Holdings Pty Limited,Capital Wind Farm,Wind,140.0,0.0,Capital Wind Farm,-35.1,149.31,2026-02-09T15:07:20.797122
2026/02/10 01:10:00,CHALLHWF,6.4,Pacific Hydro Challicum Hills Pty Ltd,Challicum Hills Wind Farm,Wind,52.0,12.31,Challicum Hills Wind Farm,-37.38,143.11,2026-02-09T15:07:20.797122
2026/02/10 01:10:00,CULLRGWF,3.73,Cullerin Range Wind Farm Pty Ltd,Cullerin Range Wind Farm,Wind,30.0,12.43,Cullerin Range Wind Farm,-34.81,149.4,2026-02-09T15:07:20.797122
2026/02/10 01:10:00,DIAPURWF1,7.1,Y.E.S. Energy (SA) Pty Ltd,Diapur Wind Farm,Wind,7.0,101.43,Diapur Wind Farm,-36.3425,141.43,2026-02-09T15:07:20.797122
2026/02/10 01:10:00,MLWF1,3.34,Mortons Lane Windfarm Pty Limited,Mortons Lane Wind Farm,Wind,20.0,16.7,Mortons Lane Wind Farm,-37.84,142.45,2026-02-09T15:07:20.797122
2026/02/10 01:10:00,WAUBRAWF,61.23,Pyrenees Wind Energy Developments Pty Ltd,Waubra Wind Farm,Wind,192.0,31.89,Waubra Wind Farm,-37.394498,143.638982,2026-02-09T15:07:20.797122
2026/02/10 01:10:00,WOOLNTH1,41.9,Hydro-Electric Corporation,Woolnorth Studland Bay / Bluff Point Wind Farm,Wind,140.0,29.93,Woolnorth Studland Bay / Bluff Point Wind Farm,-40.69,144.72,2026-02-09T15:07:20.797122
2026/02/10 01:10:00,YAMBUKWF,1.6,Energy Pacific (Vic) Pty Ltd,Yambuk Wind Farm,Wind,30.0,5.33,Yambuk Wind Farm,-38.299083,142.027577,2026-02-09T15:07:20.797122
2026/02/10 01:10:00,YSWF1,1.0,Pacific Hydro Yaloak South Pty Ltd,Yaloak South Wind Farm,Wind,28.0,3.57,Yaloak South Wind Farm,-37.7163,144.242853,2026-02-09T15:07:20.797122
2026/02/10 01:10:00,ARWF1,38.2,Ararat Wind Farm Pty Ltd,Ararat Wind Farm,Wind,241.0,15.85,Ararat Wind Farm,-37.232778,143.031389,2026-02-09T15:07:20.797122
2026/02/10 01:10:00,BALDHWF1,7.82,Alinta Energy Retail Sales Pty Ltd,Bald Hills Wind Farm,Wind,106.0,7.38,Bald Hills Wind Farm,-38.79,145.93,2026-02-09T15:07:20.797122
2026/02/10 01:10:00,BANGOWF1,15.0,BWF Nominees Pty Ltd as The Trustee for BWF Trust,Bango 973 Wind Farm,Wind,155.0,9.68,Bango 973 Wind Farm,-34.551582,148.732808,2026-02-09T15:07:20.797122
2026/02/10 01:10:00,BANGOWF2,13.0,BWF Nominees Pty Ltd as The Trustee for BWF Trust,Bango 999 Wind Farm,Wind,82.0,15.85,Bango 999 Wind Farm,-34.551582,148.732808,2026-02-09T15:07:20.797122
2026/02/10 01:10:00,BLUFF1,0.0,AGL SA Generation Pty Limited,The Bluff Wind Farm,Wind,53.0,0.0,The Bluff Wind Farm,-33.367778,138.728611,2026-02-09T15:07:20.797122
2026/02/10 01:10:00,BOCORWF1,18.02,Boco Rock Wind Farm Pty Ltd,Boco Rock Wind Farm,Wind,111.0,16.23,Boco Rock Wind Farm,-36.578611,149.103333,2026-02-09T15:07:20.797122
2026/02/10 01:10:00,BRYB1WF1,1.42,Berrybank Development Pty Ltd,Berrybank Wind Farm,Wind,175.9,0.81,Berrybank Wind Farm,-37.94,143.52,2026-02-09T15:07:20.797122
2026/02/10 01:10:00,BRYB2WF2,0.0,Berrybank 2 Asset Pty Ltd as trustee for Berrybank 2 Asset Trust,Berrybank 2 Wind Farm,Wind,105.0,0.0,Berrybank 2 Wind Farm,-37.94,143.52,2026-02-09T15:07:20.797122
2026/02/10 01:10:00,BULGANA1,57.23,Bulgana Wind Farm Pty Ltd,Bulgana Green Power Hub,Wind,204.0,28.05,Bulgana Green Power Hub,-37.0975,142.973611,2026-02-09T15:07:20.797122
2026/02/10 01:10:00,CATHROCK,41.1,Cathedral Rocks Wind Farm Pty Ltd,Cathedral Rocks,Wind,66.0,62.27,Cathedral Rocks,-34.51,135.35,2026-02-09T15:07:20.797122
2026/02/10 01:10:00,CHYTWF1,23.83,Cherry Tree Wind Farm Pty Ltd as trustee for The Cherry Tree Project trust ,Cherry Tree Wind Farm,Wind,57.0,41.81,Cherry Tree Wind Farm,-37.1,145.26,2026-02-09T15:07:20.797122
2026/02/10 01:10:00,CLEMGPWF,16.5,Pacific Hydro Clements Gap Pty Ltd,Clements Gap Wind Farm,Wind,57.0,28.95,Clements Gap Wind Farm,-33.48,138.1,2026-02-09T15:07:20.797122
2026/02/10 01:10:00,CLRKCWF1,272.81,Stanwell Corporation Limited ,Clarke Creek Wind Farm,Wind,338.0,80.71,Clarke Creek Wind Farm,-22.85,149.45,2026-02-09T15:07:20.797122
2026/02/10 01:10:00,CLRKCWF2,64.77,Stanwell Corporation Limited ,Clarke Creek Wind Farm,Wind,101.0,64.13,Clarke Creek Wind Farm,-22.85,149.45,2026-02-09T15:07:20.797122
2026/02/10 01:10:00,CNUNDAWF,15.22,Canunda Power Pty Ltd,Canunda Wind Farm,Wind,46.0,33.09,Canunda Wind Farm,-37.73,140.39,2026-02-09T15:07:20.797122
2026/02/10 01:10:00,COLWF01,14.96,Collector Wind Farm Pty Ltd,Collector Wind Farm 1,Wind,219.0,6.83,Collector Wind Farm 1,-34.8719,149.3967,2026-02-09T15:07:20.797122
2026/02/10 01:10:00,COOPGWF1,276.15,PARF Company 10 Pty Limited as The Trustee for Coopers Gap Project Trust,Coopers Gap Wind Farm,Wind,440.0,62.76,Coopers Gap Wind Farm,-26.74,151.45,2026-02-09T15:07:20.797122
2026/02/10 01:10:00,CROOKWF2,0.11,Crookwell Development Pty Ltd ,Crookwell 2 Wind Farm,Wind,91.0,0.12,Crookwell 2 Wind Farm,-34.52,149.54,2026-02-09T15:07:20.797122
2026/02/10 01:10:00,CROOKWF3,0.0,Crookwell 3 Development Pty Ltd,Crookwell 3 Wind Farm,Wind,56.0,0.0,Crookwell 3 Wind Farm,-34.52,149.54,2026-02-09T15:07:20.797122
2026/02/10 01:10:00,CROWLWF1,38.67,Pacific Hydro Crowlands Pty Ltd ,Crowlands Wind Farm,Wind,79.0,48.95,Crowlands Wind Farm,-37.13,143.16,2026-02-09T15:07:20.797122
2026/02/10 01:10:00,CRURWF1,0.0,CRWF Nominees Pty Ltd As Trustee For The CRWF Trust,Crudine Ridge Wind Farm,Wind,138.0,0.0,Crudine Ridge Wind Farm,-32.97,149.64,2026-02-09T15:07:20.797122
2026/02/10 01:10:00,CTHLWF1,0.0,Wild Cattle Hill Pty Ltd,Cattle Hill Wind Farm,Wind,144.0,0.0,Cattle Hill Wind Farm,-42.15,146.69,2026-02-09T15:07:20.797122
2026/02/10 01:10:00,DULAWF1,2.1,Dulacca Energy Project Co Pty Ltd,Dulacca Wind Farm,Wind,173.0,1.21,Dulacca Wind Farm,-26.63,149.87,2026-02-09T15:07:20.797122
2026/02/10 01:10:00,DUNDWF1,11.87,Dundonnell Wind Farm Pty Ltd,Dundonnell Wind Farm,Wind,168.0,7.07,Dundonnell Wind Farm,-37.52,142.58,2026-02-09T15:07:20.797122
2026/02/10 01:10:00,DUNDWF2,3.85,Dundonnell Wind Farm Pty Ltd,Dundonnell Wind Farm,Wind,46.0,8.37,Dundonnell Wind Farm,-37.52,142.58,2026-02-09T15:07:20.797122
2026/02/10 01:10:00,DUNDWF3,8.2,Dundonnell Wind Farm Pty Ltd,Dundonnell Wind Farm,Wind,122.0,6.72,Dundonnell Wind Farm,-37.52,142.58,2026-02-09T15:07:20.797122
2026/02/10 01:10:00,ELAINWF1,11.11,Lal Lal Wind Farms Nom Co Pty Ltd,Elaine Wind Farm,Wind,82.0,13.55,Elaine Wind Farm,-37.36,144.0,2026-02-09T15:07:20.797122
2026/02/10 01:10:00,FLYCRKWF,0.0,Iberdrola Australia Energy Markets Pty Limited,Flyers Creek Wind Farm,Wind,140.0,0.0,Flyers Creek Wind Farm,-33.365556,148.981944,2026-02-09T15:07:20.797122
2026/02/10 01:10:00,GPWFEST1,0.13,Golden Plains WF1 Pty Ltd as Trustee for the Golden Plains WF1 Unit Trust,Golden Plains Wind Farm East,Wind,240.0,0.05,Golden Plains Wind Farm East,-37.945091,143.752614,2026-02-09T15:07:20.797122
2026/02/10 01:10:00,GPWFEST2,3.49,Golden Plains WF1 Pty Ltd as Trustee for the Golden Plains WF1 Unit Trust,Golden Plains Wind Farm East,Wind,253.0,1.38,Golden Plains Wind Farm East,-37.945091,143.752614,2026-02-09T15:07:20.797122
2026/02/10 01:10:00,GPWFEST3,2.21,Golden Plains WF1 Pty Ltd as Trustee for the Golden Plains WF1 Unit Trust,Golden Plains Wind Farm East,Wind,240.0,0.92,Golden Plains Wind Farm East,-37.945091,143.752614,2026-02-09T15:07:20.797122
2026/02/10 01:10:00,GRANWF1,33.82,Granville Harbour Operations Pty Ltd as The Trustee for Granville Harbour Operations Trust,Granville Harbour Wind Farm,Wind,111.0,30.47,Granville Harbour Wind Farm,-41.8,145.06,2026-02-09T15:07:20.797122
2026/02/10 01:10:00,GSWF1A,1.56,Goyder Wind Farm 1 Pty Ltd as the Trustee for Goyder Wind Farm 1 Trust,Goyder South Wind Farm 1A,Wind,201.0,0.78,Goyder South Wind Farm 1A,-33.679758,138.937597,2026-02-09T15:07:20.797122
2026/02/10 01:10:00,GSWF1B1,0.0,Goyder Wind Farm 1B Pty Ltd as the Trustee for the Goyder Wind Farm 1B Trust,Goyder South Wind Farm 1B,Wind,196.0,0.0,Goyder South Wind Farm 1B,-33.679758,138.937597,2026-02-09T15:07:20.797122
2026/02/10 01:10:00,GULLRWF1,11.13,New Gullen Range Wind Farm Pty Ltd,Gullen Range Wind Farm,Wind,161.0,6.91,Gullen Range Wind Farm,-34.34,149.27,2026-02-09T15:07:20.797122
2026/02/10 01:10:00,GULLRWF2,16.89,New Gullen Range Wind Farm Pty Ltd,Gullen Range Wind Farm,Wind,107.0,15.79,Gullen Range Wind Farm,-34.34,149.27,2026-02-09T15:07:20.797122
2026/02/10 01:10:00,GUNNING1,5.41,Gunning Wind Energy Developments Pty Ltd,Gunning Wind Farm,Wind,47.0,11.51,Gunning Wind Farm,-34.813333,149.4,2026-02-09T15:07:20.797122
2026/02/10 01:10:00,HALLWF1,5.13,AGL SA Generation Pty Limited,Hallett 1 Wind Farm,Wind,95.0,5.4,Hallett 1 Wind Farm,-33.367778,138.728611,2026-02-09T15:07:20.797122
2026/02/10 01:10:00,HALLWF2,0.0,AGL SA Generation Pty Limited,Hallett 2 Wind Farm,Wind,71.0,0.0,Hallett 2 Wind Farm,-33.367778,138.728611,2026-02-09T15:07:20.797122
2026/02/10 01:10:00,HD1WF1,18.29,Hawkesdale Asset Pty Ltd as trustee for Hawkesdale Asset Trust,Hawkesdale Wind Farm,Wind,89.0,20.55,Hawkesdale Wind Farm,-38.147894,142.361381,2026-02-09T15:07:20.797122
2026/02/10 01:10:00,HDWF1,41.3,HWF1 Pty Ltd,Hornsdale Wind Farm,Wind,102.0,40.49,Hornsdale Wind Farm,-33.050556,138.543611,2026-02-09T15:07:20.797122
2026/02/10 01:10:00,HDWF2,36.4,HWF 2 Pty Ltd,Hornsdale Wind Farm 2,Wind,102.0,35.69,Hornsdale Wind Farm 2,-33.06,138.54,2026-02-09T15:07:20.797122
2026/02/10 01:10:00,HDWF3,30.2,HWF3 Pty Ltd,Hornsdale Wind Farm 3,Wind,109.0,27.71,Hornsdale Wind Farm 3,-33.06,138.54,2026-02-09T15:07:20.797122
2026/02/10 01:10:00,KABANWF1,85.89,Kaban Wind Farm Pty Ltd as trustee for Kaban Wind Farm Trust,Kaban Wind Farm,Wind,152.0,56.51,Kaban Wind Farm,-17.56,145.41,2026-02-09T15:07:20.797122
2026/02/10 01:10:00,KEPWF1,27.9,Kennedy Energy Park Pty Ltd,Kennedy Energy Park,Wind,43.0,64.88,Kennedy Energy Park,-20.88,144.42,2026-02-09T15:07:20.797122
2026/02/10 01:10:00,KIATAWF1,15.7,Kiata ProjectCo Pty Ltd Atf Kiata Project Trust,Kiata Wind Farm,Wind,31.0,50.65,Kiata Wind Farm,-36.4,141.75,2026-02-09T15:07:20.797122
2026/02/10 01:10:00,LGAPWF1,27.51,Lincoln Gap Wind Farm (Operations) Pty Ltd,Lincoln Gap Wind Farm,Wind,123.0,22.37,Lincoln Gap Wind Farm,-32.564279,137.557328,2026-02-09T15:07:20.797122
2026/02/10 01:10:00,LGAPWF1,27.51,Lincoln Gap Wind Farm (Operations) Pty Ltd,Lincoln Gap Wind Farm,Wind,123.0,22.37,Lincoln Gap Wind Farm,-32.564279,137.557328,2026-02-09T15:07:20.797122
2026/02/10 01:10:00,LGAPWF2,16.98,Lincoln Gap Wind Farm (Operations) Pty Ltd,Lincoln Gap Wind Farm,Wind,85.0,19.98,Lincoln Gap Wind Farm,-32.564279,137.557328,2026-02-09T15:07:20.797122
2026/02/10 01:10:00,LGAPWF2,16.98,Lincoln Gap Wind Farm (Operations) Pty Ltd,Lincoln Gap Wind Farm,Wind,85.0,19.98,Lincoln Gap Wind Farm,-32.564279,137.557328,2026-02-09T15:07:20.797122
2026/02/10 01:10:00,LKBONNY1,20.81,Lake Bonney Wind Power Pty Ltd,Lake Bonney Wind Farm Stage 1,Wind,81.0,25.69,Lake Bonney Wind Farm Stage 1,-37.76,140.4,2026-02-09T15:07:20.797122
2026/02/10 01:10:00,LKBONNY2,43.42,Lake Bonney Wind Power Pty Ltd,Lake Bonney Stage 2 Windfarm,Wind,159.0,27.31,Lake Bonney Stage 2 Windfarm,-37.76,140.4,2026-02-09T15:07:20.797122
2026/02/10 01:10:00,LKBONNY3,7.76,Lake Bonney Wind Power Pty Ltd,Lake Bonney Stage 3 Wind Farm,Wind,39.0,19.9,Lake Bonney Stage 3 Wind Farm,-37.737781,140.388137,2026-02-09T15:07:20.797122
2026/02/10 01:10:00,MACARTH1,23.9,AGL Hydro Partnership,Macarthur Wind Farm,Wind,420.0,5.69,Macarthur Wind Farm,-38.048957,142.192112,2026-02-09T15:07:20.797122
2026/02/10 01:10:00,MCINTYR1,89.14,MacIntyre UJV Operator Pty Ltd,MacIntyre Wind Farm,Wind,890.0,10.02,MacIntyre Wind Farm,-28.32,151.54,2026-02-09T15:07:20.797122
2026/02/10 01:10:00,MERCER01,10.5,Mt Mercer Windfarm Pty Ltd,Mt Mercer Wind Farm,Wind,131.0,8.02,Mt Mercer Wind Farm,-37.841111,143.871111,2026-02-09T15:07:20.797122
2026/02/10 01:10:00,MEWF1,74.83,Ergon Energy Queensland Pty Ltd ,Mount Emerald Wind Farm,Wind,178.0,42.04,Mount Emerald Wind Farm,-17.133007,145.380644,2026-02-09T15:07:20.797122
2026/02/10 01:10:00,MRTLSWF1,13.28,Mortlake South Wind Farm Pty Ltd,Mortlake South Wind Farm,Wind,153.0,8.68,Mortlake South Wind Farm,-38.127337,142.857801,2026-02-09T15:07:20.797122
2026/02/10 01:10:00,MTGELWF1,0.0,Mt. Gellibrand Wind Farm Pty Ltd,Mt Gellibrand Wind Farm,Wind,132.0,0.0,Mt Gellibrand Wind Farm,-38.23,143.77,2026-02-09T15:07:20.797122
2026/02/10 01:10:00,MTMILLAR,6.7,Mt Millar Wind Farm Pty Ltd,Mt Millar Wind Farm,Wind,70.0,9.57,Mt Millar Wind Farm,-33.624444,136.703611,2026-02-09T15:07:20.797122
2026/02/10 01:10:00,MUSSELR1,2.9,Hydro-Electric Corporation,Musselroe Wind Farm,Wind,168.0,1.73,Musselroe Wind Farm,-40.780225,148.010799,2026-02-09T15:07:20.797122
2026/02/10 01:10:00,MUWAWF1,146.43,Telstra Energy (Generation) Pty Ltd,Murra Warra Wind Farm,Wind,225.7,64.88,Murra Warra Wind Farm,-36.432404,142.317853,2026-02-09T15:07:20.797122
2026/02/10 01:10:00,MUWAWF2,174.5,Murra Warra II Project Co Pty Ltd ATF The Murra Warra II Project Trust,Murra Warra Wind Farm Stage 2,Wind,203.0,85.96,Murra Warra Wind Farm Stage 2,-36.43,142.32,2026-02-09T15:07:20.797122
2026/02/10 01:10:00,NBHWF1,17.9,AGL SA Generation Pty Limited,North Brown Hill Wind Farm,Wind,132.0,13.56,North Brown Hill Wind Farm,-33.367778,138.728611,2026-02-09T15:07:20.797122
2026/02/10 01:10:00,OAKLAND1,10.4,AGL Hydro Partnership,Oaklands Hill Wind Farm,Wind,63.0,16.51,Oaklands Hill Wind Farm,-37.683078,142.551678,2026-02-09T15:07:20.797122
2026/02/10 01:10:00,PAREPW1,30.53,Iberdrola Australia Energy Markets Pty Limited,Port Augusta Renewable Energy Park,Wind,201.0,15.19,Port Augusta Renewable Energy Park,-32.566944,137.856111,2026-02-09T15:07:20.797122
2026/02/10 01:10:00,RYANCWF1,21.2,Ryan Corner Development Pty Ltd,Ryan Corner Wind Farm,Wind,205.0,10.34,Ryan Corner Wind Farm,-38.271017,142.140647,2026-02-09T15:07:20.797122
2026/02/10 01:10:00,RYEPARK1,62.1,Rye Park Renewable Energy Pty Ltd as trustee for Rye Park Wind Farm Trust,Rye Park Renewable Energy,Wind,384.0,16.17,Rye Park Renewable Energy,-32.138333,148.972778,2026-02-09T15:07:20.797122
2026/02/10 01:10:00,SALTCRK1,8.31,Salt Creek Wind Farm Pty Ltd,Salt Creek Wind Farm,Wind,54.0,15.39,Salt Creek Wind Farm,-37.95,142.63,2026-02-09T15:07:20.797122
2026/02/10 01:10:00,SAPHWF1,0.0,The Trustee For The SWF1 Operations Trust,Sapphire Wind Farm,Wind,270.0,0.0,Sapphire Wind Farm,-29.7,151.41,2026-02-09T15:07:20.797122
2026/02/10 01:10:00,SNOWNTH1,5.3,Snowtown Wind Farm Stage 2 Pty Ltd,Snowtown Wind Farm Stage 2 North,Wind,144.0,3.68,Snowtown Wind Farm Stage 2 North,-33.83,138.118611,2026-02-09T15:07:20.797122
2026/02/10 01:10:00,SNOWSTH1,6.6,Snowtown Wind Farm Stage 2 Pty Ltd,Snowtown South Wind Farm,Wind,126.0,5.24,Snowtown South Wind Farm,-33.83,138.118611,2026-02-09T15:07:20.797122
2026/02/10 01:10:00,SNOWTWN1,6.9,Snowtown Wind Farm Pty Ltd,Snowtown Wind Farm Units 1 And 47,Wind,99.0,6.97,Snowtown Wind Farm Units 1 And 47,-33.83,138.118611,2026-02-09T15:07:20.797122
2026/02/10 01:10:00,STARHLWF,23.99,Starfish Hill Wind Farm Pty Ltd,Starfish Hill Wind Farm,Wind,35.0,68.54,Starfish Hill Wind Farm,-35.58,138.14,2026-02-09T15:07:20.797122
2026/02/10 01:10:00,STOCKYD1,57.78,Stockyard Hill Wind Farm Pty Ltd,Stockyard Hill Wind Farm,Wind,511.0,11.31,Stockyard Hill Wind Farm,-37.535833,143.251389,2026-02-09T15:07:20.797122
2026/02/10 01:10:00,STWF1,0.0,PARF Company 8 Pty Ltd as The Trustee for Silverton Project Trust,Silverton Wind Farm,Wind,198.0,0.0,Silverton Wind Farm,-37.683168,142.551678,2026-02-09T15:07:20.797122
2026/02/10 01:10:00,TARALGA1,0.0,Taralga Wind Farm Nominees No 2 Pty Ltd (ATF Taralga Wind Farm Operating Trust),Taralga Wind Farm,Wind,106.0,0.0,Taralga Wind Farm,-34.42352,149.826267,2026-02-09T15:07:20.797122
2026/02/10 01:10:00,WAMBOWF1,92.91,Stanwell Corporation Limited,Wambo Wind Farm 1,Wind,245.0,37.92,Wambo Wind Farm 1,-35.187301,149.524945,2026-02-09T15:07:20.797122
2026/02/10 01:10:00,WATERLWF,2.5,Waterloo Wind Farm Pty Ltd,Waterloo Wind Farm,Wind,130.0,1.92,Waterloo Wind Farm,-34.00094,138.911567,2026-02-09T15:07:20.797122
2026/02/10 01:10:00,WGWF1,0.6,Willogoleche Power Pty Ltd As The Trustee For The Willogoleche Operating Trust,Willogoleche Wind Farm,Wind,119.0,0.5,Willogoleche Wind Farm,-33.39,138.85,2026-02-09T15:07:20.797122
2026/02/10 01:10:00,WOODLWN1,0.0,Woodlawn Wind Pty Ltd,Woodlawn Wind Farm,Wind,48.0,0.0,Woodlawn Wind Farm,-35.08,149.62,2026-02-09T15:07:20.797122
2026/02/10 01:10:00,WPWF,19.81,AGL SA Generation Pty Limited,Wattle Point Wind Farm,Wind,91.0,21.77,Wattle Point Wind Farm,-35.111624,137.7219,2026-02-09T15:07:20.797122
2026/02/10 01:10:00,WRWF1,0.0,White Rock Wind Farm Pty Ltd,White Rock Wind Farm,Wind,172.0,0.0,White Rock Wind Farm,-29.79,151.54,2026-02-09T15:07:20.797122
2026/02/10 01:10:00,YENDWF1,22.55,Lal Lal Wind Farms Nom Co Pty Ltd,Yendon Wind Farm,Wind,142.0,15.88,Yendon Wind Farm,-37.629987,144.022717,2026-02-09T15:07:20.797122
