SETTLEMENTDATE,DUID,SCADAVALUE,Participant,Station Name,Fuel Source - Primary,MAX_CAP,utilisation_pct,Plant,Latitude,Longitude,timestamp_utc
2026/03/02 08:15:00,CAPTL_WF,0.0,Iberdrola Australia Holdings Pty Limited,Capital Wind Farm,Wind,140.0,0.0,Capital Wind Farm,-35.1,149.31,2026-03-01T22:15:19.115996
2026/03/02 08:15:00,CHALLHWF,0.0,Pacific Hydro Challicum Hills Pty Ltd,Challicum Hills Wind Farm,Wind,52.0,0.0,Challicum Hills Wind Farm,-37.38,143.11,2026-03-01T22:15:19.115996
2026/03/02 08:15:00,CULLRGWF,0.0,Cullerin Range Wind Farm Pty Ltd,Cullerin Range Wind Farm,Wind,30.0,0.0,Cullerin Range Wind Farm,-34.81,149.4,2026-03-01T22:15:19.115996
2026/03/02 08:15:00,DIAPURWF1,8.2,Y.E.S. Energy (SA) Pty Ltd,Diapur Wind Farm,Wind,7.0,117.14,Diapur Wind Farm,-36.3425,141.43,2026-03-01T22:15:19.115996
2026/03/02 08:15:00,MLWF1,8.28,Mortons Lane Windfarm Pty Limited,Mortons Lane Wind Farm,Wind,20.0,41.4,Mortons Lane Wind Farm,-37.84,142.45,2026-03-01T22:15:19.115996
2026/03/02 08:15:00,WAUBRAWF,58.56,Pyrenees Wind Energy Developments Pty Ltd,Waubra Wind Farm,Wind,192.0,30.5,Waubra Wind Farm,-37.394498,143.638982,2026-03-01T22:15:19.115996
2026/03/02 08:15:00,WOOLNTH1,5.74,Hydro-Electric Corporation,Woolnorth Studland Bay / Bluff Point Wind Farm,Wind,140.0,4.1,Woolnorth Studland Bay / Bluff Point Wind Farm,-40.69,144.72,2026-03-01T22:15:19.115996
2026/03/02 08:15:00,YAMBUKWF,8.8,Energy Pacific (Vic) Pty Ltd,Yambuk Wind Farm,Wind,30.0,29.33,Yambuk Wind Farm,-38.299083,142.027577,2026-03-01T22:15:19.115996
2026/03/02 08:15:00,YSWF1,0.0,Pacific Hydro Yaloak South Pty Ltd,Yaloak South Wind Farm,Wind,28.0,0.0,Yaloak South Wind Farm,-37.7163,144.242853,2026-03-01T22:15:19.115996
2026/03/02 08:15:00,ARWF1,1.1,Ararat Wind Farm Pty Ltd,Ararat Wind Farm,Wind,241.0,0.46,Ararat Wind Farm,-37.232778,143.031389,2026-03-01T22:15:19.115996
2026/03/02 08:15:00,BALDHWF1,0.0,Alinta Energy Retail Sales Pty Ltd,Bald Hills Wind Farm,Wind,106.0,0.0,Bald Hills Wind Farm,-38.79,145.93,2026-03-01T22:15:19.115996
2026/03/02 08:15:00,BANGOWF1,14.3,BWF Nominees Pty Ltd as The Trustee for BWF Trust,Bango 973 Wind Farm,Wind,155.0,9.23,Bango 973 Wind Farm,-34.551582,148.732808,2026-03-01T22:15:19.115996
2026/03/02 08:15:00,BANGOWF2,10.0,BWF Nominees Pty Ltd as The Trustee for BWF Trust,Bango 999 Wind Farm,Wind,82.0,12.2,Bango 999 Wind Farm,-34.551582,148.732808,2026-03-01T22:15:19.115996
2026/03/02 08:15:00,BLUFF1,31.3,AGL SA Generation Pty Limited,The Bluff Wind Farm,Wind,53.0,59.06,The Bluff Wind Farm,-33.367778,138.728611,2026-03-01T22:15:19.115996
2026/03/02 08:15:00,BOCORWF1,95.93,Boco Rock Wind Farm Pty Ltd,Boco Rock Wind Farm,Wind,111.0,86.42,Boco Rock Wind Farm,-36.578611,149.103333,2026-03-01T22:15:19.115996
2026/03/02 08:15:00,BRYB1WF1,15.54,Berrybank Development Pty Ltd,Berrybank Wind Farm,Wind,175.9,8.83,Berrybank Wind Farm,-37.94,143.52,2026-03-01T22:15:19.115996
2026/03/02 08:15:00,BRYB2WF2,2.11,Berrybank 2 Asset Pty Ltd as trustee for Berrybank 2 Asset Trust,Berrybank 2 Wind Farm,Wind,105.0,2.01,Berrybank 2 Wind Farm,-37.94,143.52,2026-03-01T22:15:19.115996
2026/03/02 08:15:00,BULGANA1,5.48,Bulgana Wind Farm Pty Ltd,Bulgana Green Power Hub,Wind,204.0,2.69,Bulgana Green Power Hub,-37.0975,142.973611,2026-03-01T22:15:19.115996
2026/03/02 08:15:00,CATHROCK,23.0,Cathedral Rocks Wind Farm Pty Ltd,Cathedral Rocks,Wind,66.0,34.85,Cathedral Rocks,-34.51,135.35,2026-03-01T22:15:19.115996
2026/03/02 08:15:00,CHYTWF1,19.24,Cherry Tree Wind Farm Pty Ltd as trustee for The Cherry Tree Project trust ,Cherry Tree Wind Farm,Wind,57.0,33.75,Cherry Tree Wind Farm,-37.1,145.26,2026-03-01T22:15:19.115996
2026/03/02 08:15:00,CLEMGPWF,36.23,Pacific Hydro Clements Gap Pty Ltd,Clements Gap Wind Farm,Wind,57.0,63.56,Clements Gap Wind Farm,-33.48,138.1,2026-03-01T22:15:19.115996
2026/03/02 08:15:00,CLRKCWF1,204.78,Stanwell Corporation Limited ,Clarke Creek Wind Farm,Wind,338.0,60.59,Clarke Creek Wind Farm,-22.85,149.45,2026-03-01T22:15:19.115996
2026/03/02 08:15:00,CLRKCWF2,54.15,Stanwell Corporation Limited ,Clarke Creek Wind Farm,Wind,101.0,53.61,Clarke Creek Wind Farm,-22.85,149.45,2026-03-01T22:15:19.115996
2026/03/02 08:15:00,CNUNDAWF,7.71,Canunda Power Pty Ltd,Canunda Wind Farm,Wind,46.0,16.76,Canunda Wind Farm,-37.73,140.39,2026-03-01T22:15:19.115996
2026/03/02 08:15:00,COLWF01,0.0,Collector Wind Farm Pty Ltd,Collector Wind Farm 1,Wind,219.0,0.0,Collector Wind Farm 1,-34.8719,149.3967,2026-03-01T22:15:19.115996
2026/03/02 08:15:00,COOPGWF1,297.16,PARF Company 10 Pty Limited as The Trustee for Coopers Gap Project Trust,Coopers Gap Wind Farm,Wind,440.0,67.54,Coopers Gap Wind Farm,-26.74,151.45,2026-03-01T22:15:19.115996
2026/03/02 08:15:00,CROOKWF2,8.52,Crookwell Development Pty Ltd ,Crookwell 2 Wind Farm,Wind,91.0,9.36,Crookwell 2 Wind Farm,-34.52,149.54,2026-03-01T22:15:19.115996
2026/03/02 08:15:00,CROOKWF3,7.65,Crookwell 3 Development Pty Ltd,Crookwell 3 Wind Farm,Wind,56.0,13.66,Crookwell 3 Wind Farm,-34.52,149.54,2026-03-01T22:15:19.115996
2026/03/02 08:15:00,CROWLWF1,25.92,Pacific Hydro Crowlands Pty Ltd ,Crowlands Wind Farm,Wind,79.0,32.81,Crowlands Wind Farm,-37.13,143.16,2026-03-01T22:15:19.115996
2026/03/02 08:15:00,CRURWF1,10.5,CRWF Nominees Pty Ltd As Trustee For The CRWF Trust,Crudine Ridge Wind Farm,Wind,138.0,7.61,Crudine Ridge Wind Farm,-32.97,149.64,2026-03-01T22:15:19.115996
2026/03/02 08:15:00,CTHLWF1,14.71,Wild Cattle Hill Pty Ltd,Cattle Hill Wind Farm,Wind,144.0,10.22,Cattle Hill Wind Farm,-42.15,146.69,2026-03-01T22:15:19.115996
2026/03/02 08:15:00,DULAWF1,101.6,Dulacca Energy Project Co Pty Ltd,Dulacca Wind Farm,Wind,173.0,58.73,Dulacca Wind Farm,-26.63,149.87,2026-03-01T22:15:19.115996
2026/03/02 08:15:00,DUNDWF1,41.66,Dundonnell Wind Farm Pty Ltd,Dundonnell Wind Farm,Wind,168.0,24.8,Dundonnell Wind Farm,-37.52,142.58,2026-03-01T22:15:19.115996
2026/03/02 08:15:00,DUNDWF2,14.05,Dundonnell Wind Farm Pty Ltd,Dundonnell Wind Farm,Wind,46.0,30.54,Dundonnell Wind Farm,-37.52,142.58,2026-03-01T22:15:19.115996
2026/03/02 08:15:00,DUNDWF3,40.98,Dundonnell Wind Farm Pty Ltd,Dundonnell Wind Farm,Wind,122.0,33.59,Dundonnell Wind Farm,-37.52,142.58,2026-03-01T22:15:19.115996
2026/03/02 08:15:00,ELAINWF1,15.04,Lal Lal Wind Farms Nom Co Pty Ltd,Elaine Wind Farm,Wind,82.0,18.34,Elaine Wind Farm,-37.36,144.0,2026-03-01T22:15:19.115996
2026/03/02 08:15:00,FLYCRKWF,33.64,Iberdrola Australia Energy Markets Pty Limited,Flyers Creek Wind Farm,Wind,140.0,24.03,Flyers Creek Wind Farm,-33.365556,148.981944,2026-03-01T22:15:19.115996
2026/03/02 08:15:00,GPWFEST1,9.67,Golden Plains WF1 Pty Ltd as Trustee for the Golden Plains WF1 Unit Trust,Golden Plains Wind Farm East,Wind,240.0,4.03,Golden Plains Wind Farm East,-37.945091,143.752614,2026-03-01T22:15:19.115996
2026/03/02 08:15:00,GPWFEST2,18.56,Golden Plains WF1 Pty Ltd as Trustee for the Golden Plains WF1 Unit Trust,Golden Plains Wind Farm East,Wind,253.0,7.34,Golden Plains Wind Farm East,-37.945091,143.752614,2026-03-01T22:15:19.115996
2026/03/02 08:15:00,GPWFEST3,21.03,Golden Plains WF1 Pty Ltd as Trustee for the Golden Plains WF1 Unit Trust,Golden Plains Wind Farm East,Wind,240.0,8.76,Golden Plains Wind Farm East,-37.945091,143.752614,2026-03-01T22:15:19.115996
2026/03/02 08:15:00,GRANWF1,5.38,Granville Harbour Operations Pty Ltd as The Trustee for Granville Harbour Operations Trust,Granville Harbour Wind Farm,Wind,111.0,4.85,Granville Harbour Wind Farm,-41.8,145.06,2026-03-01T22:15:19.115996
2026/03/02 08:15:00,GSWF1A,111.4,Goyder Wind Farm 1 Pty Ltd as the Trustee for Goyder Wind Farm 1 Trust,Goyder South Wind Farm 1A,Wind,201.0,55.42,Goyder South Wind Farm 1A,-33.679758,138.937597,2026-03-01T22:15:19.115996
2026/03/02 08:15:00,GSWF1B1,0.0,Goyder Wind Farm 1B Pty Ltd as the Trustee for the Goyder Wind Farm 1B Trust,Goyder South Wind Farm 1B,Wind,196.0,0.0,Goyder South Wind Farm 1B,-33.679758,138.937597,2026-03-01T22:15:19.115996
2026/03/02 08:15:00,GULLRWF1,16.5,New Gullen Range Wind Farm Pty Ltd,Gullen Range Wind Farm,Wind,161.0,10.25,Gullen Range Wind Farm,-34.34,149.27,2026-03-01T22:15:19.115996
2026/03/02 08:15:00,GULLRWF2,18.76,New Gullen Range Wind Farm Pty Ltd,Gullen Range Wind Farm,Wind,107.0,17.53,Gullen Range Wind Farm,-34.34,149.27,2026-03-01T22:15:19.115996
2026/03/02 08:15:00,GUNNING1,3.71,Gunning Wind Energy Developments Pty Ltd,Gunning Wind Farm,Wind,47.0,7.89,Gunning Wind Farm,-34.813333,149.4,2026-03-01T22:15:19.115996
2026/03/02 08:15:00,HALLWF1,57.99,AGL SA Generation Pty Limited,Hallett 1 Wind Farm,Wind,95.0,61.04,Hallett 1 Wind Farm,-33.367778,138.728611,2026-03-01T22:15:19.115996
2026/03/02 08:15:00,HALLWF2,29.81,AGL SA Generation Pty Limited,Hallett 2 Wind Farm,Wind,71.0,41.99,Hallett 2 Wind Farm,-33.367778,138.728611,2026-03-01T22:15:19.115996
2026/03/02 08:15:00,HD1WF1,25.7,Hawkesdale Asset Pty Ltd as trustee for Hawkesdale Asset Trust,Hawkesdale Wind Farm,Wind,89.0,28.88,Hawkesdale Wind Farm,-38.147894,142.361381,2026-03-01T22:15:19.115996
2026/03/02 08:15:00,HDWF1,57.0,HWF1 Pty Ltd,Hornsdale Wind Farm,Wind,102.0,55.88,Hornsdale Wind Farm,-33.050556,138.543611,2026-03-01T22:15:19.115996
2026/03/02 08:15:00,HDWF2,76.2,HWF 2 Pty Ltd,Hornsdale Wind Farm 2,Wind,102.0,74.71,Hornsdale Wind Farm 2,-33.06,138.54,2026-03-01T22:15:19.115996
2026/03/02 08:15:00,HDWF3,76.2,HWF3 Pty Ltd,Hornsdale Wind Farm 3,Wind,109.0,69.91,Hornsdale Wind Farm 3,-33.06,138.54,2026-03-01T22:15:19.115996
2026/03/02 08:15:00,KABANWF1,35.42,Kaban Wind Farm Pty Ltd as trustee for Kaban Wind Farm Trust,Kaban Wind Farm,Wind,152.0,23.3,Kaban Wind Farm,-17.56,145.41,2026-03-01T22:15:19.115996
2026/03/02 08:15:00,KEPWF1,35.9,Kennedy Energy Park Pty Ltd,Kennedy Energy Park,Wind,43.0,83.49,Kennedy Energy Park,-20.88,144.42,2026-03-01T22:15:19.115996
2026/03/02 08:15:00,KIATAWF1,23.6,Kiata ProjectCo Pty Ltd Atf Kiata Project Trust,Kiata Wind Farm,Wind,31.0,76.13,Kiata Wind Farm,-36.4,141.75,2026-03-01T22:15:19.115996
2026/03/02 08:15:00,LGAPWF1,44.95,Lincoln Gap Wind Farm (Operations) Pty Ltd,Lincoln Gap Wind Farm,Wind,123.0,36.54,Lincoln Gap Wind Farm,-32.564279,137.557328,2026-03-01T22:15:19.115996
2026/03/02 08:15:00,LGAPWF1,44.95,Lincoln Gap Wind Farm (Operations) Pty Ltd,Lincoln Gap Wind Farm,Wind,123.0,36.54,Lincoln Gap Wind Farm,-32.564279,137.557328,2026-03-01T22:15:19.115996
2026/03/02 08:15:00,LGAPWF2,74.54,Lincoln Gap Wind Farm (Operations) Pty Ltd,Lincoln Gap Wind Farm,Wind,85.0,87.69,Lincoln Gap Wind Farm,-32.564279,137.557328,2026-03-01T22:15:19.115996
2026/03/02 08:15:00,LGAPWF2,74.54,Lincoln Gap Wind Farm (Operations) Pty Ltd,Lincoln Gap Wind Farm,Wind,85.0,87.69,Lincoln Gap Wind Farm,-32.564279,137.557328,2026-03-01T22:15:19.115996
2026/03/02 08:15:00,LKBONNY1,15.81,Lake Bonney Wind Power Pty Ltd,Lake Bonney Wind Farm Stage 1,Wind,81.0,19.52,Lake Bonney Wind Farm Stage 1,-37.76,140.4,2026-03-01T22:15:19.115996
2026/03/02 08:15:00,LKBONNY2,25.43,Lake Bonney Wind Power Pty Ltd,Lake Bonney Stage 2 Windfarm,Wind,159.0,15.99,Lake Bonney Stage 2 Windfarm,-37.76,140.4,2026-03-01T22:15:19.115996
2026/03/02 08:15:00,LKBONNY3,4.02,Lake Bonney Wind Power Pty Ltd,Lake Bonney Stage 3 Wind Farm,Wind,39.0,10.31,Lake Bonney Stage 3 Wind Farm,-37.737781,140.388137,2026-03-01T22:15:19.115996
2026/03/02 08:15:00,MACARTH1,90.9,AGL Hydro Partnership,Macarthur Wind Farm,Wind,420.0,21.64,Macarthur Wind Farm,-38.048957,142.192112,2026-03-01T22:15:19.115996
2026/03/02 08:15:00,MCINTYR1,341.34,MacIntyre UJV Operator Pty Ltd,MacIntyre Wind Farm,Wind,890.0,38.35,MacIntyre Wind Farm,-28.32,151.54,2026-03-01T22:15:19.115996
2026/03/02 08:15:00,MERCER01,42.3,Mt Mercer Windfarm Pty Ltd,Mt Mercer Wind Farm,Wind,131.0,32.29,Mt Mercer Wind Farm,-37.841111,143.871111,2026-03-01T22:15:19.115996
2026/03/02 08:15:00,MEWF1,39.5,Ergon Energy Queensland Pty Ltd ,Mount Emerald Wind Farm,Wind,178.0,22.19,Mount Emerald Wind Farm,-17.133007,145.380644,2026-03-01T22:15:19.115996
2026/03/02 08:15:00,MRTLSWF1,63.17,Mortlake South Wind Farm Pty Ltd,Mortlake South Wind Farm,Wind,153.0,41.29,Mortlake South Wind Farm,-38.127337,142.857801,2026-03-01T22:15:19.115996
2026/03/02 08:15:00,MTGELWF1,0.5,Mt. Gellibrand Wind Farm Pty Ltd,Mt Gellibrand Wind Farm,Wind,132.0,0.38,Mt Gellibrand Wind Farm,-38.23,143.77,2026-03-01T22:15:19.115996
2026/03/02 08:15:00,MTMILLAR,36.4,Mt Millar Wind Farm Pty Ltd,Mt Millar Wind Farm,Wind,70.0,52.0,Mt Millar Wind Farm,-33.624444,136.703611,2026-03-01T22:15:19.115996
2026/03/02 08:15:00,MUSSELR1,25.0,Hydro-Electric Corporation,Musselroe Wind Farm,Wind,168.0,14.88,Musselroe Wind Farm,-40.780225,148.010799,2026-03-01T22:15:19.115996
2026/03/02 08:15:00,MUWAWF1,52.29,Telstra Energy (Generation) Pty Ltd,Murra Warra Wind Farm,Wind,225.7,23.17,Murra Warra Wind Farm,-36.432404,142.317853,2026-03-01T22:15:19.115996
2026/03/02 08:15:00,MUWAWF2,82.3,Murra Warra II Project Co Pty Ltd ATF The Murra Warra II Project Trust,Murra Warra Wind Farm Stage 2,Wind,203.0,40.54,Murra Warra Wind Farm Stage 2,-36.43,142.32,2026-03-01T22:15:19.115996
2026/03/02 08:15:00,NBHWF1,78.2,AGL SA Generation Pty Limited,North Brown Hill Wind Farm,Wind,132.0,59.24,North Brown Hill Wind Farm,-33.367778,138.728611,2026-03-01T22:15:19.115996
2026/03/02 08:15:00,OAKLAND1,26.5,AGL Hydro Partnership,Oaklands Hill Wind Farm,Wind,63.0,42.06,Oaklands Hill Wind Farm,-37.683078,142.551678,2026-03-01T22:15:19.115996
2026/03/02 08:15:00,PAREPW1,191.54,Iberdrola Australia Energy Markets Pty Limited,Port Augusta Renewable Energy Park,Wind,201.0,95.29,Port Augusta Renewable Energy Park,-32.566944,137.856111,2026-03-01T22:15:19.115996
2026/03/02 08:15:00,RYANCWF1,27.22,Ryan Corner Development Pty Ltd,Ryan Corner Wind Farm,Wind,205.0,13.28,Ryan Corner Wind Farm,-38.271017,142.140647,2026-03-01T22:15:19.115996
2026/03/02 08:15:00,RYEPARK1,33.47,Rye Park Renewable Energy Pty Ltd as trustee for Rye Park Wind Farm Trust,Rye Park Renewable Energy,Wind,384.0,8.72,Rye Park Renewable Energy,-32.138333,148.972778,2026-03-01T22:15:19.115996
2026/03/02 08:15:00,SALTCRK1,11.48,Salt Creek Wind Farm Pty Ltd,Salt Creek Wind Farm,Wind,54.0,21.26,Salt Creek Wind Farm,-37.95,142.63,2026-03-01T22:15:19.115996
2026/03/02 08:15:00,SAPHWF1,209.27,The Trustee For The SWF1 Operations Trust,Sapphire Wind Farm,Wind,270.0,77.51,Sapphire Wind Farm,-29.7,151.41,2026-03-01T22:15:19.115996
2026/03/02 08:15:00,SNOWNTH1,77.6,Snowtown Wind Farm Stage 2 Pty Ltd,Snowtown Wind Farm Stage 2 North,Wind,144.0,53.89,Snowtown Wind Farm Stage 2 North,-33.83,138.118611,2026-03-01T22:15:19.115996
2026/03/02 08:15:00,SNOWSTH1,52.9,Snowtown Wind Farm Stage 2 Pty Ltd,Snowtown South Wind Farm,Wind,126.0,41.98,Snowtown South Wind Farm,-33.83,138.118611,2026-03-01T22:15:19.115996
2026/03/02 08:15:00,SNOWTWN1,43.08,Snowtown Wind Farm Pty Ltd,Snowtown Wind Farm Units 1 And 47,Wind,99.0,43.52,Snowtown Wind Farm Units 1 And 47,-33.83,138.118611,2026-03-01T22:15:19.115996
2026/03/02 08:15:00,STARHLWF,18.99,Starfish Hill Wind Farm Pty Ltd,Starfish Hill Wind Farm,Wind,35.0,54.26,Starfish Hill Wind Farm,-35.58,138.14,2026-03-01T22:15:19.115996
2026/03/02 08:15:00,STOCKYD1,76.46,Stockyard Hill Wind Farm Pty Ltd,Stockyard Hill Wind Farm,Wind,511.0,14.96,Stockyard Hill Wind Farm,-37.535833,143.251389,2026-03-01T22:15:19.115996
2026/03/02 08:15:00,STWF1,39.88,PARF Company 8 Pty Ltd as The Trustee for Silverton Project Trust,Silverton Wind Farm,Wind,198.0,20.14,Silverton Wind Farm,-37.683168,142.551678,2026-03-01T22:15:19.115996
2026/03/02 08:15:00,TARALGA1,29.72,Taralga Wind Farm Nominees No 2 Pty Ltd (ATF Taralga Wind Farm Operating Trust),Taralga Wind Farm,Wind,106.0,28.04,Taralga Wind Farm,-34.42352,149.826267,2026-03-01T22:15:19.115996
2026/03/02 08:15:00,WAMBOWF1,205.38,Stanwell Corporation Limited,Wambo Wind Farm 1,Wind,245.0,83.83,Wambo Wind Farm 1,-35.187301,149.524945,2026-03-01T22:15:19.115996
2026/03/02 08:15:00,WATERLWF,42.7,Waterloo Wind Farm Pty Ltd,Waterloo Wind Farm,Wind,130.0,32.85,Waterloo Wind Farm,-34.00094,138.911567,2026-03-01T22:15:19.115996
2026/03/02 08:15:00,WGWF1,45.2,Willogoleche Power Pty Ltd As The Trustee For The Willogoleche Operating Trust,Willogoleche Wind Farm,Wind,119.0,37.98,Willogoleche Wind Farm,-33.39,138.85,2026-03-01T22:15:19.115996
2026/03/02 08:15:00,WOODLWN1,8.25,Woodlawn Wind Pty Ltd,Woodlawn Wind Farm,Wind,48.0,17.19,Woodlawn Wind Farm,-35.08,149.62,2026-03-01T22:15:19.115996
2026/03/02 08:15:00,WPWF,34.3,AGL SA Generation Pty Limited,Wattle Point Wind Farm,Wind,91.0,37.69,Wattle Point Wind Farm,-35.111624,137.7219,2026-03-01T22:15:19.115996
2026/03/02 08:15:00,WRWF1,105.23,White Rock Wind Farm Pty Ltd,White Rock Wind Farm,Wind,172.0,61.18,White Rock Wind Farm,-29.79,151.54,2026-03-01T22:15:19.115996
2026/03/02 08:15:00,YENDWF1,5.32,Lal Lal Wind Farms Nom Co Pty Ltd,Yendon Wind Farm,Wind,142.0,3.75,Yendon Wind Farm,-37.629987,144.022717,2026-03-01T22:15:19.115996
