SETTLEMENTDATE,DUID,SCADAVALUE,Participant,Station Name,Fuel Source - Primary,MAX_CAP,utilisation_pct,Plant,Latitude,Longitude,timestamp_utc
2026/03/02 21:50:00,CAPTL_WF,0.0,Iberdrola Australia Holdings Pty Limited,Capital Wind Farm,Wind,140.0,0.0,Capital Wind Farm,-35.1,149.31,2026-03-02T11:47:11.963841
2026/03/02 21:50:00,CHALLHWF,16.4,Pacific Hydro Challicum Hills Pty Ltd,Challicum Hills Wind Farm,Wind,52.0,31.54,Challicum Hills Wind Farm,-37.38,143.11,2026-03-02T11:47:11.963841
2026/03/02 21:50:00,CULLRGWF,2.85,Cullerin Range Wind Farm Pty Ltd,Cullerin Range Wind Farm,Wind,30.0,9.5,Cullerin Range Wind Farm,-34.81,149.4,2026-03-02T11:47:11.963841
2026/03/02 21:50:00,DIAPURWF1,2.7,Y.E.S. Energy (SA) Pty Ltd,Diapur Wind Farm,Wind,7.0,38.57,Diapur Wind Farm,-36.3425,141.43,2026-03-02T11:47:11.963841
2026/03/02 21:50:00,MLWF1,3.12,Mortons Lane Windfarm Pty Limited,Mortons Lane Wind Farm,Wind,20.0,15.6,Mortons Lane Wind Farm,-37.84,142.45,2026-03-02T11:47:11.963841
2026/03/02 21:50:00,WAUBRAWF,87.68,Pyrenees Wind Energy Developments Pty Ltd,Waubra Wind Farm,Wind,192.0,45.67,Waubra Wind Farm,-37.394498,143.638982,2026-03-02T11:47:11.963841
2026/03/02 21:50:00,WOOLNTH1,74.38,Hydro-Electric Corporation,Woolnorth Studland Bay / Bluff Point Wind Farm,Wind,140.0,53.13,Woolnorth Studland Bay / Bluff Point Wind Farm,-40.69,144.72,2026-03-02T11:47:11.963841
2026/03/02 21:50:00,YAMBUKWF,8.0,Energy Pacific (Vic) Pty Ltd,Yambuk Wind Farm,Wind,30.0,26.67,Yambuk Wind Farm,-38.299083,142.027577,2026-03-02T11:47:11.963841
2026/03/02 21:50:00,YSWF1,1.0,Pacific Hydro Yaloak South Pty Ltd,Yaloak South Wind Farm,Wind,28.0,3.57,Yaloak South Wind Farm,-37.7163,144.242853,2026-03-02T11:47:11.963841
2026/03/02 21:50:00,ARWF1,141.5,Ararat Wind Farm Pty Ltd,Ararat Wind Farm,Wind,241.0,58.71,Ararat Wind Farm,-37.232778,143.031389,2026-03-02T11:47:11.963841
2026/03/02 21:50:00,BALDHWF1,28.89,Alinta Energy Retail Sales Pty Ltd,Bald Hills Wind Farm,Wind,106.0,27.25,Bald Hills Wind Farm,-38.79,145.93,2026-03-02T11:47:11.963841
2026/03/02 21:50:00,BANGOWF1,11.0,BWF Nominees Pty Ltd as The Trustee for BWF Trust,Bango 973 Wind Farm,Wind,155.0,7.1,Bango 973 Wind Farm,-34.551582,148.732808,2026-03-02T11:47:11.963841
2026/03/02 21:50:00,BANGOWF2,0.0,BWF Nominees Pty Ltd as The Trustee for BWF Trust,Bango 999 Wind Farm,Wind,82.0,0.0,Bango 999 Wind Farm,-34.551582,148.732808,2026-03-02T11:47:11.963841
2026/03/02 21:50:00,BLUFF1,5.8,AGL SA Generation Pty Limited,The Bluff Wind Farm,Wind,53.0,10.94,The Bluff Wind Farm,-33.367778,138.728611,2026-03-02T11:47:11.963841
2026/03/02 21:50:00,BOCORWF1,26.36,Boco Rock Wind Farm Pty Ltd,Boco Rock Wind Farm,Wind,111.0,23.75,Boco Rock Wind Farm,-36.578611,149.103333,2026-03-02T11:47:11.963841
2026/03/02 21:50:00,BRYB1WF1,53.44,Berrybank Development Pty Ltd,Berrybank Wind Farm,Wind,175.9,30.38,Berrybank Wind Farm,-37.94,143.52,2026-03-02T11:47:11.963841
2026/03/02 21:50:00,BRYB2WF2,31.56,Berrybank 2 Asset Pty Ltd as trustee for Berrybank 2 Asset Trust,Berrybank 2 Wind Farm,Wind,105.0,30.06,Berrybank 2 Wind Farm,-37.94,143.52,2026-03-02T11:47:11.963841
2026/03/02 21:50:00,BULGANA1,142.79,Bulgana Wind Farm Pty Ltd,Bulgana Green Power Hub,Wind,204.0,70.0,Bulgana Green Power Hub,-37.0975,142.973611,2026-03-02T11:47:11.963841
2026/03/02 21:50:00,CATHROCK,10.8,Cathedral Rocks Wind Farm Pty Ltd,Cathedral Rocks,Wind,66.0,16.36,Cathedral Rocks,-34.51,135.35,2026-03-02T11:47:11.963841
2026/03/02 21:50:00,CHYTWF1,19.16,Cherry Tree Wind Farm Pty Ltd as trustee for The Cherry Tree Project trust ,Cherry Tree Wind Farm,Wind,57.0,33.61,Cherry Tree Wind Farm,-37.1,145.26,2026-03-02T11:47:11.963841
2026/03/02 21:50:00,CLEMGPWF,6.41,Pacific Hydro Clements Gap Pty Ltd,Clements Gap Wind Farm,Wind,57.0,11.25,Clements Gap Wind Farm,-33.48,138.1,2026-03-02T11:47:11.963841
2026/03/02 21:50:00,CLRKCWF1,310.59,Stanwell Corporation Limited ,Clarke Creek Wind Farm,Wind,338.0,91.89,Clarke Creek Wind Farm,-22.85,149.45,2026-03-02T11:47:11.963841
2026/03/02 21:50:00,CLRKCWF2,96.32,Stanwell Corporation Limited ,Clarke Creek Wind Farm,Wind,101.0,95.37,Clarke Creek Wind Farm,-22.85,149.45,2026-03-02T11:47:11.963841
2026/03/02 21:50:00,CNUNDAWF,5.31,Canunda Power Pty Ltd,Canunda Wind Farm,Wind,46.0,11.54,Canunda Wind Farm,-37.73,140.39,2026-03-02T11:47:11.963841
2026/03/02 21:50:00,COLWF01,12.3,Collector Wind Farm Pty Ltd,Collector Wind Farm 1,Wind,219.0,5.62,Collector Wind Farm 1,-34.8719,149.3967,2026-03-02T11:47:11.963841
2026/03/02 21:50:00,COOPGWF1,310.39,PARF Company 10 Pty Limited as The Trustee for Coopers Gap Project Trust,Coopers Gap Wind Farm,Wind,440.0,70.54,Coopers Gap Wind Farm,-26.74,151.45,2026-03-02T11:47:11.963841
2026/03/02 21:50:00,CROOKWF2,32.59,Crookwell Development Pty Ltd ,Crookwell 2 Wind Farm,Wind,91.0,35.81,Crookwell 2 Wind Farm,-34.52,149.54,2026-03-02T11:47:11.963841
2026/03/02 21:50:00,CROOKWF3,10.27,Crookwell 3 Development Pty Ltd,Crookwell 3 Wind Farm,Wind,56.0,18.34,Crookwell 3 Wind Farm,-34.52,149.54,2026-03-02T11:47:11.963841
2026/03/02 21:50:00,CROWLWF1,50.57,Pacific Hydro Crowlands Pty Ltd ,Crowlands Wind Farm,Wind,79.0,64.01,Crowlands Wind Farm,-37.13,143.16,2026-03-02T11:47:11.963841
2026/03/02 21:50:00,CRURWF1,6.6,CRWF Nominees Pty Ltd As Trustee For The CRWF Trust,Crudine Ridge Wind Farm,Wind,138.0,4.78,Crudine Ridge Wind Farm,-32.97,149.64,2026-03-02T11:47:11.963841
2026/03/02 21:50:00,CTHLWF1,0.0,Wild Cattle Hill Pty Ltd,Cattle Hill Wind Farm,Wind,144.0,0.0,Cattle Hill Wind Farm,-42.15,146.69,2026-03-02T11:47:11.963841
2026/03/02 21:50:00,DULAWF1,153.6,Dulacca Energy Project Co Pty Ltd,Dulacca Wind Farm,Wind,173.0,88.79,Dulacca Wind Farm,-26.63,149.87,2026-03-02T11:47:11.963841
2026/03/02 21:50:00,DUNDWF1,55.5,Dundonnell Wind Farm Pty Ltd,Dundonnell Wind Farm,Wind,168.0,33.04,Dundonnell Wind Farm,-37.52,142.58,2026-03-02T11:47:11.963841
2026/03/02 21:50:00,DUNDWF2,17.94,Dundonnell Wind Farm Pty Ltd,Dundonnell Wind Farm,Wind,46.0,39.0,Dundonnell Wind Farm,-37.52,142.58,2026-03-02T11:47:11.963841
2026/03/02 21:50:00,DUNDWF3,40.72,Dundonnell Wind Farm Pty Ltd,Dundonnell Wind Farm,Wind,122.0,33.38,Dundonnell Wind Farm,-37.52,142.58,2026-03-02T11:47:11.963841
2026/03/02 21:50:00,ELAINWF1,5.39,Lal Lal Wind Farms Nom Co Pty Ltd,Elaine Wind Farm,Wind,82.0,6.57,Elaine Wind Farm,-37.36,144.0,2026-03-02T11:47:11.963841
2026/03/02 21:50:00,FLYCRKWF,13.44,Iberdrola Australia Energy Markets Pty Limited,Flyers Creek Wind Farm,Wind,140.0,9.6,Flyers Creek Wind Farm,-33.365556,148.981944,2026-03-02T11:47:11.963841
2026/03/02 21:50:00,GPWFEST1,13.8,Golden Plains WF1 Pty Ltd as Trustee for the Golden Plains WF1 Unit Trust,Golden Plains Wind Farm East,Wind,240.0,5.75,Golden Plains Wind Farm East,-37.945091,143.752614,2026-03-02T11:47:11.963841
2026/03/02 21:50:00,GPWFEST2,9.33,Golden Plains WF1 Pty Ltd as Trustee for the Golden Plains WF1 Unit Trust,Golden Plains Wind Farm East,Wind,253.0,3.69,Golden Plains Wind Farm East,-37.945091,143.752614,2026-03-02T11:47:11.963841
2026/03/02 21:50:00,GPWFEST3,16.96,Golden Plains WF1 Pty Ltd as Trustee for the Golden Plains WF1 Unit Trust,Golden Plains Wind Farm East,Wind,240.0,7.07,Golden Plains Wind Farm East,-37.945091,143.752614,2026-03-02T11:47:11.963841
2026/03/02 21:50:00,GRANWF1,57.56,Granville Harbour Operations Pty Ltd as The Trustee for Granville Harbour Operations Trust,Granville Harbour Wind Farm,Wind,111.0,51.86,Granville Harbour Wind Farm,-41.8,145.06,2026-03-02T11:47:11.963841
2026/03/02 21:50:00,GSWF1A,10.54,Goyder Wind Farm 1 Pty Ltd as the Trustee for Goyder Wind Farm 1 Trust,Goyder South Wind Farm 1A,Wind,201.0,5.24,Goyder South Wind Farm 1A,-33.679758,138.937597,2026-03-02T11:47:11.963841
2026/03/02 21:50:00,GSWF1B1,2.4,Goyder Wind Farm 1B Pty Ltd as the Trustee for the Goyder Wind Farm 1B Trust,Goyder South Wind Farm 1B,Wind,196.0,1.22,Goyder South Wind Farm 1B,-33.679758,138.937597,2026-03-02T11:47:11.963841
2026/03/02 21:50:00,GULLRWF1,22.94,New Gullen Range Wind Farm Pty Ltd,Gullen Range Wind Farm,Wind,161.0,14.25,Gullen Range Wind Farm,-34.34,149.27,2026-03-02T11:47:11.963841
2026/03/02 21:50:00,GULLRWF2,20.03,New Gullen Range Wind Farm Pty Ltd,Gullen Range Wind Farm,Wind,107.0,18.72,Gullen Range Wind Farm,-34.34,149.27,2026-03-02T11:47:11.963841
2026/03/02 21:50:00,GUNNING1,10.02,Gunning Wind Energy Developments Pty Ltd,Gunning Wind Farm,Wind,47.0,21.32,Gunning Wind Farm,-34.813333,149.4,2026-03-02T11:47:11.963841
2026/03/02 21:50:00,HALLWF1,2.95,AGL SA Generation Pty Limited,Hallett 1 Wind Farm,Wind,95.0,3.11,Hallett 1 Wind Farm,-33.367778,138.728611,2026-03-02T11:47:11.963841
2026/03/02 21:50:00,HALLWF2,0.48,AGL SA Generation Pty Limited,Hallett 2 Wind Farm,Wind,71.0,0.68,Hallett 2 Wind Farm,-33.367778,138.728611,2026-03-02T11:47:11.963841
2026/03/02 21:50:00,HD1WF1,23.09,Hawkesdale Asset Pty Ltd as trustee for Hawkesdale Asset Trust,Hawkesdale Wind Farm,Wind,89.0,25.94,Hawkesdale Wind Farm,-38.147894,142.361381,2026-03-02T11:47:11.963841
2026/03/02 21:50:00,HDWF1,17.3,HWF1 Pty Ltd,Hornsdale Wind Farm,Wind,102.0,16.96,Hornsdale Wind Farm,-33.050556,138.543611,2026-03-02T11:47:11.963841
2026/03/02 21:50:00,HDWF2,24.1,HWF 2 Pty Ltd,Hornsdale Wind Farm 2,Wind,102.0,23.63,Hornsdale Wind Farm 2,-33.06,138.54,2026-03-02T11:47:11.963841
2026/03/02 21:50:00,HDWF3,25.9,HWF3 Pty Ltd,Hornsdale Wind Farm 3,Wind,109.0,23.76,Hornsdale Wind Farm 3,-33.06,138.54,2026-03-02T11:47:11.963841
2026/03/02 21:50:00,KABANWF1,98.42,Kaban Wind Farm Pty Ltd as trustee for Kaban Wind Farm Trust,Kaban Wind Farm,Wind,152.0,64.75,Kaban Wind Farm,-17.56,145.41,2026-03-02T11:47:11.963841
2026/03/02 21:50:00,KEPWF1,30.2,Kennedy Energy Park Pty Ltd,Kennedy Energy Park,Wind,43.0,70.23,Kennedy Energy Park,-20.88,144.42,2026-03-02T11:47:11.963841
2026/03/02 21:50:00,KIATAWF1,23.3,Kiata ProjectCo Pty Ltd Atf Kiata Project Trust,Kiata Wind Farm,Wind,31.0,75.16,Kiata Wind Farm,-36.4,141.75,2026-03-02T11:47:11.963841
2026/03/02 21:50:00,LGAPWF1,27.02,Lincoln Gap Wind Farm (Operations) Pty Ltd,Lincoln Gap Wind Farm,Wind,123.0,21.97,Lincoln Gap Wind Farm,-32.564279,137.557328,2026-03-02T11:47:11.963841
2026/03/02 21:50:00,LGAPWF1,27.02,Lincoln Gap Wind Farm (Operations) Pty Ltd,Lincoln Gap Wind Farm,Wind,123.0,21.97,Lincoln Gap Wind Farm,-32.564279,137.557328,2026-03-02T11:47:11.963841
2026/03/02 21:50:00,LGAPWF2,40.35,Lincoln Gap Wind Farm (Operations) Pty Ltd,Lincoln Gap Wind Farm,Wind,85.0,47.47,Lincoln Gap Wind Farm,-32.564279,137.557328,2026-03-02T11:47:11.963841
2026/03/02 21:50:00,LGAPWF2,40.35,Lincoln Gap Wind Farm (Operations) Pty Ltd,Lincoln Gap Wind Farm,Wind,85.0,47.47,Lincoln Gap Wind Farm,-32.564279,137.557328,2026-03-02T11:47:11.963841
2026/03/02 21:50:00,LKBONNY1,7.06,Lake Bonney Wind Power Pty Ltd,Lake Bonney Wind Farm Stage 1,Wind,81.0,8.72,Lake Bonney Wind Farm Stage 1,-37.76,140.4,2026-03-02T11:47:11.963841
2026/03/02 21:50:00,LKBONNY2,17.22,Lake Bonney Wind Power Pty Ltd,Lake Bonney Stage 2 Windfarm,Wind,159.0,10.83,Lake Bonney Stage 2 Windfarm,-37.76,140.4,2026-03-02T11:47:11.963841
2026/03/02 21:50:00,LKBONNY3,3.35,Lake Bonney Wind Power Pty Ltd,Lake Bonney Stage 3 Wind Farm,Wind,39.0,8.59,Lake Bonney Stage 3 Wind Farm,-37.737781,140.388137,2026-03-02T11:47:11.963841
2026/03/02 21:50:00,MACARTH1,48.0,AGL Hydro Partnership,Macarthur Wind Farm,Wind,420.0,11.43,Macarthur Wind Farm,-38.048957,142.192112,2026-03-02T11:47:11.963841
2026/03/02 21:50:00,MCINTYR1,254.92,MacIntyre UJV Operator Pty Ltd,MacIntyre Wind Farm,Wind,890.0,28.64,MacIntyre Wind Farm,-28.32,151.54,2026-03-02T11:47:11.963841
2026/03/02 21:50:00,MERCER01,4.0,Mt Mercer Windfarm Pty Ltd,Mt Mercer Wind Farm,Wind,131.0,3.05,Mt Mercer Wind Farm,-37.841111,143.871111,2026-03-02T11:47:11.963841
2026/03/02 21:50:00,MEWF1,123.31,Ergon Energy Queensland Pty Ltd ,Mount Emerald Wind Farm,Wind,178.0,69.28,Mount Emerald Wind Farm,-17.133007,145.380644,2026-03-02T11:47:11.963841
2026/03/02 21:50:00,MRTLSWF1,29.62,Mortlake South Wind Farm Pty Ltd,Mortlake South Wind Farm,Wind,153.0,19.36,Mortlake South Wind Farm,-38.127337,142.857801,2026-03-02T11:47:11.963841
2026/03/02 21:50:00,MTGELWF1,11.32,Mt. Gellibrand Wind Farm Pty Ltd,Mt Gellibrand Wind Farm,Wind,132.0,8.58,Mt Gellibrand Wind Farm,-38.23,143.77,2026-03-02T11:47:11.963841
2026/03/02 21:50:00,MTMILLAR,14.8,Mt Millar Wind Farm Pty Ltd,Mt Millar Wind Farm,Wind,70.0,21.14,Mt Millar Wind Farm,-33.624444,136.703611,2026-03-02T11:47:11.963841
2026/03/02 21:50:00,MUSSELR1,0.0,Hydro-Electric Corporation,Musselroe Wind Farm,Wind,168.0,0.0,Musselroe Wind Farm,-40.780225,148.010799,2026-03-02T11:47:11.963841
2026/03/02 21:50:00,MUWAWF1,54.02,Telstra Energy (Generation) Pty Ltd,Murra Warra Wind Farm,Wind,225.7,23.93,Murra Warra Wind Farm,-36.432404,142.317853,2026-03-02T11:47:11.963841
2026/03/02 21:50:00,MUWAWF2,66.8,Murra Warra II Project Co Pty Ltd ATF The Murra Warra II Project Trust,Murra Warra Wind Farm Stage 2,Wind,203.0,32.91,Murra Warra Wind Farm Stage 2,-36.43,142.32,2026-03-02T11:47:11.963841
2026/03/02 21:50:00,NBHWF1,10.9,AGL SA Generation Pty Limited,North Brown Hill Wind Farm,Wind,132.0,8.26,North Brown Hill Wind Farm,-33.367778,138.728611,2026-03-02T11:47:11.963841
2026/03/02 21:50:00,OAKLAND1,22.6,AGL Hydro Partnership,Oaklands Hill Wind Farm,Wind,63.0,35.87,Oaklands Hill Wind Farm,-37.683078,142.551678,2026-03-02T11:47:11.963841
2026/03/02 21:50:00,PAREPW1,56.4,Iberdrola Australia Energy Markets Pty Limited,Port Augusta Renewable Energy Park,Wind,201.0,28.06,Port Augusta Renewable Energy Park,-32.566944,137.856111,2026-03-02T11:47:11.963841
2026/03/02 21:50:00,RYANCWF1,38.69,Ryan Corner Development Pty Ltd,Ryan Corner Wind Farm,Wind,205.0,18.87,Ryan Corner Wind Farm,-38.271017,142.140647,2026-03-02T11:47:11.963841
2026/03/02 21:50:00,RYEPARK1,24.79,Rye Park Renewable Energy Pty Ltd as trustee for Rye Park Wind Farm Trust,Rye Park Renewable Energy,Wind,384.0,6.46,Rye Park Renewable Energy,-32.138333,148.972778,2026-03-02T11:47:11.963841
2026/03/02 21:50:00,SALTCRK1,11.87,Salt Creek Wind Farm Pty Ltd,Salt Creek Wind Farm,Wind,54.0,21.98,Salt Creek Wind Farm,-37.95,142.63,2026-03-02T11:47:11.963841
2026/03/02 21:50:00,SAPHWF1,214.26,The Trustee For The SWF1 Operations Trust,Sapphire Wind Farm,Wind,270.0,79.36,Sapphire Wind Farm,-29.7,151.41,2026-03-02T11:47:11.963841
2026/03/02 21:50:00,SNOWNTH1,32.8,Snowtown Wind Farm Stage 2 Pty Ltd,Snowtown Wind Farm Stage 2 North,Wind,144.0,22.78,Snowtown Wind Farm Stage 2 North,-33.83,138.118611,2026-03-02T11:47:11.963841
2026/03/02 21:50:00,SNOWSTH1,17.2,Snowtown Wind Farm Stage 2 Pty Ltd,Snowtown South Wind Farm,Wind,126.0,13.65,Snowtown South Wind Farm,-33.83,138.118611,2026-03-02T11:47:11.963841
2026/03/02 21:50:00,SNOWTWN1,20.39,Snowtown Wind Farm Pty Ltd,Snowtown Wind Farm Units 1 And 47,Wind,99.0,20.6,Snowtown Wind Farm Units 1 And 47,-33.83,138.118611,2026-03-02T11:47:11.963841
2026/03/02 21:50:00,STARHLWF,7.7,Starfish Hill Wind Farm Pty Ltd,Starfish Hill Wind Farm,Wind,35.0,22.0,Starfish Hill Wind Farm,-35.58,138.14,2026-03-02T11:47:11.963841
2026/03/02 21:50:00,STOCKYD1,194.2,Stockyard Hill Wind Farm Pty Ltd,Stockyard Hill Wind Farm,Wind,511.0,38.0,Stockyard Hill Wind Farm,-37.535833,143.251389,2026-03-02T11:47:11.963841
2026/03/02 21:50:00,STWF1,99.6,PARF Company 8 Pty Ltd as The Trustee for Silverton Project Trust,Silverton Wind Farm,Wind,198.0,50.3,Silverton Wind Farm,-37.683168,142.551678,2026-03-02T11:47:11.963841
2026/03/02 21:50:00,TARALGA1,3.31,Taralga Wind Farm Nominees No 2 Pty Ltd (ATF Taralga Wind Farm Operating Trust),Taralga Wind Farm,Wind,106.0,3.12,Taralga Wind Farm,-34.42352,149.826267,2026-03-02T11:47:11.963841
2026/03/02 21:50:00,WAMBOWF1,239.05,Stanwell Corporation Limited,Wambo Wind Farm 1,Wind,245.0,97.57,Wambo Wind Farm 1,-35.187301,149.524945,2026-03-02T11:47:11.963841
2026/03/02 21:50:00,WATERLWF,4.7,Waterloo Wind Farm Pty Ltd,Waterloo Wind Farm,Wind,130.0,3.62,Waterloo Wind Farm,-34.00094,138.911567,2026-03-02T11:47:11.963841
2026/03/02 21:50:00,WGWF1,15.9,Willogoleche Power Pty Ltd As The Trustee For The Willogoleche Operating Trust,Willogoleche Wind Farm,Wind,119.0,13.36,Willogoleche Wind Farm,-33.39,138.85,2026-03-02T11:47:11.963841
2026/03/02 21:50:00,WOODLWN1,0.0,Woodlawn Wind Pty Ltd,Woodlawn Wind Farm,Wind,48.0,0.0,Woodlawn Wind Farm,-35.08,149.62,2026-03-02T11:47:11.963841
2026/03/02 21:50:00,WPWF,40.38,AGL SA Generation Pty Limited,Wattle Point Wind Farm,Wind,91.0,44.37,Wattle Point Wind Farm,-35.111624,137.7219,2026-03-02T11:47:11.963841
2026/03/02 21:50:00,WRWF1,98.72,White Rock Wind Farm Pty Ltd,White Rock Wind Farm,Wind,172.0,57.4,White Rock Wind Farm,-29.79,151.54,2026-03-02T11:47:11.963841
2026/03/02 21:50:00,YENDWF1,15.66,Lal Lal Wind Farms Nom Co Pty Ltd,Yendon Wind Farm,Wind,142.0,11.03,Yendon Wind Farm,-37.629987,144.022717,2026-03-02T11:47:11.963841
