SETTLEMENTDATE,DUID,SCADAVALUE,Participant,Station Name,Fuel Source - Primary,MAX_CAP,utilisation_pct,Plant,Latitude,Longitude,timestamp_utc
2026/04/21 19:45:00,CAPTL_WF,54.39,Iberdrola Australia Holdings Pty Limited,Capital Wind Farm,Wind,140.0,38.85,Capital Wind Farm,-35.1,149.31,2026-04-21T09:52:05.725684
2026/04/21 19:45:00,CHALLHWF,12.0,Pacific Hydro Challicum Hills Pty Ltd,Challicum Hills Wind Farm,Wind,52.0,23.08,Challicum Hills Wind Farm,-37.38,143.11,2026-04-21T09:52:05.725684
2026/04/21 19:45:00,CULLRGWF,8.51,Cullerin Range Wind Farm Pty Ltd,Cullerin Range Wind Farm,Wind,30.0,28.37,Cullerin Range Wind Farm,-34.81,149.4,2026-04-21T09:52:05.725684
2026/04/21 19:45:00,DIAPURWF1,0.2,Y.E.S. Energy (SA) Pty Ltd,Diapur Wind Farm,Wind,7.0,2.86,Diapur Wind Farm,-36.3425,141.43,2026-04-21T09:52:05.725684
2026/04/21 19:45:00,MLWF1,7.38,Mortons Lane Windfarm Pty Limited,Mortons Lane Wind Farm,Wind,20.0,36.9,Mortons Lane Wind Farm,-37.84,142.45,2026-04-21T09:52:05.725684
2026/04/21 19:45:00,WAUBRAWF,75.04,Pyrenees Wind Energy Developments Pty Ltd,Waubra Wind Farm,Wind,192.0,39.08,Waubra Wind Farm,-37.394498,143.638982,2026-04-21T09:52:05.725684
2026/04/21 19:45:00,WOOLNTH1,125.97,Hydro-Electric Corporation,Woolnorth Studland Bay / Bluff Point Wind Farm,Wind,140.0,89.98,Woolnorth Studland Bay / Bluff Point Wind Farm,-40.69,144.72,2026-04-21T09:52:05.725684
2026/04/21 19:45:00,YAMBUKWF,4.4,Energy Pacific (Vic) Pty Ltd,Yambuk Wind Farm,Wind,30.0,14.67,Yambuk Wind Farm,-38.299083,142.027577,2026-04-21T09:52:05.725684
2026/04/21 19:45:00,YSWF1,8.5,Pacific Hydro Yaloak South Pty Ltd,Yaloak South Wind Farm,Wind,28.0,30.36,Yaloak South Wind Farm,-37.7163,144.242853,2026-04-21T09:52:05.725684
2026/04/21 19:45:00,ARWF1,34.0,Ararat Wind Farm Pty Ltd,Ararat Wind Farm,Wind,241.0,14.11,Ararat Wind Farm,-37.232778,143.031389,2026-04-21T09:52:05.725684
2026/04/21 19:45:00,BALDHWF1,93.49,Alinta Energy Retail Sales Pty Ltd,Bald Hills Wind Farm,Wind,106.0,88.2,Bald Hills Wind Farm,-38.79,145.93,2026-04-21T09:52:05.725684
2026/04/21 19:45:00,BANGOWF1,26.4,BWF Nominees Pty Ltd as The Trustee for BWF Trust,Bango 973 Wind Farm,Wind,155.0,17.03,Bango 973 Wind Farm,-34.551582,148.732808,2026-04-21T09:52:05.725684
2026/04/21 19:45:00,BANGOWF2,32.0,BWF Nominees Pty Ltd as The Trustee for BWF Trust,Bango 999 Wind Farm,Wind,82.0,39.02,Bango 999 Wind Farm,-34.551582,148.732808,2026-04-21T09:52:05.725684
2026/04/21 19:45:00,BLUFF1,19.0,AGL SA Generation Pty Limited,The Bluff Wind Farm,Wind,53.0,35.85,The Bluff Wind Farm,-33.367778,138.728611,2026-04-21T09:52:05.725684
2026/04/21 19:45:00,BOCORWF1,0.33,Boco Rock Wind Farm Pty Ltd,Boco Rock Wind Farm,Wind,111.0,0.3,Boco Rock Wind Farm,-36.578611,149.103333,2026-04-21T09:52:05.725684
2026/04/21 19:45:00,BRYB1WF1,103.39,Berrybank Development Pty Ltd,Berrybank Wind Farm,Wind,175.9,58.78,Berrybank Wind Farm,-37.94,143.52,2026-04-21T09:52:05.725684
2026/04/21 19:45:00,BRYB2WF2,55.62,Berrybank 2 Asset Pty Ltd as trustee for Berrybank 2 Asset Trust,Berrybank 2 Wind Farm,Wind,105.0,52.97,Berrybank 2 Wind Farm,-37.94,143.52,2026-04-21T09:52:05.725684
2026/04/21 19:45:00,BULGANA1,51.02,Bulgana Wind Farm Pty Ltd,Bulgana Green Power Hub,Wind,204.0,25.01,Bulgana Green Power Hub,-37.0975,142.973611,2026-04-21T09:52:05.725684
2026/04/21 19:45:00,CATHROCK,44.9,Cathedral Rocks Wind Farm Pty Ltd,Cathedral Rocks,Wind,66.0,68.03,Cathedral Rocks,-34.51,135.35,2026-04-21T09:52:05.725684
2026/04/21 19:45:00,CHYTWF1,0.0,Cherry Tree Wind Farm Pty Ltd as trustee for The Cherry Tree Project trust ,Cherry Tree Wind Farm,Wind,57.0,0.0,Cherry Tree Wind Farm,-37.1,145.26,2026-04-21T09:52:05.725684
2026/04/21 19:45:00,CLEMGPWF,0.0,Pacific Hydro Clements Gap Pty Ltd,Clements Gap Wind Farm,Wind,57.0,0.0,Clements Gap Wind Farm,-33.48,138.1,2026-04-21T09:52:05.725684
2026/04/21 19:45:00,CLRKCWF1,204.18,Stanwell Corporation Limited ,Clarke Creek Wind Farm,Wind,338.0,60.41,Clarke Creek Wind Farm,-22.85,149.45,2026-04-21T09:52:05.725684
2026/04/21 19:45:00,CLRKCWF2,44.32,Stanwell Corporation Limited ,Clarke Creek Wind Farm,Wind,101.0,43.88,Clarke Creek Wind Farm,-22.85,149.45,2026-04-21T09:52:05.725684
2026/04/21 19:45:00,CNUNDAWF,9.61,Canunda Power Pty Ltd,Canunda Wind Farm,Wind,46.0,20.89,Canunda Wind Farm,-37.73,140.39,2026-04-21T09:52:05.725684
2026/04/21 19:45:00,COLWF01,43.54,Collector Wind Farm Pty Ltd,Collector Wind Farm 1,Wind,219.0,19.88,Collector Wind Farm 1,-34.8719,149.3967,2026-04-21T09:52:05.725684
2026/04/21 19:45:00,COOPGWF1,91.0,PARF Company 10 Pty Limited as The Trustee for Coopers Gap Project Trust,Coopers Gap Wind Farm,Wind,440.0,20.68,Coopers Gap Wind Farm,-26.74,151.45,2026-04-21T09:52:05.725684
2026/04/21 19:45:00,CROOKWF2,14.35,Crookwell Development Pty Ltd ,Crookwell 2 Wind Farm,Wind,91.0,15.77,Crookwell 2 Wind Farm,-34.52,149.54,2026-04-21T09:52:05.725684
2026/04/21 19:45:00,CROOKWF3,4.26,Crookwell 3 Development Pty Ltd,Crookwell 3 Wind Farm,Wind,56.0,7.61,Crookwell 3 Wind Farm,-34.52,149.54,2026-04-21T09:52:05.725684
2026/04/21 19:45:00,CROWLWF1,36.62,Pacific Hydro Crowlands Pty Ltd ,Crowlands Wind Farm,Wind,79.0,46.35,Crowlands Wind Farm,-37.13,143.16,2026-04-21T09:52:05.725684
2026/04/21 19:45:00,CRURWF1,6.4,CRWF Nominees Pty Ltd As Trustee For The CRWF Trust,Crudine Ridge Wind Farm,Wind,138.0,4.64,Crudine Ridge Wind Farm,-32.97,149.64,2026-04-21T09:52:05.725684
2026/04/21 19:45:00,CTHLWF1,80.63,Wild Cattle Hill Pty Ltd,Cattle Hill Wind Farm,Wind,144.0,55.99,Cattle Hill Wind Farm,-42.15,146.69,2026-04-21T09:52:05.725684
2026/04/21 19:45:00,DULAWF1,13.0,Dulacca Energy Project Co Pty Ltd,Dulacca Wind Farm,Wind,173.0,7.51,Dulacca Wind Farm,-26.63,149.87,2026-04-21T09:52:05.725684
2026/04/21 19:45:00,DUNDWF1,84.5,Dundonnell Wind Farm Pty Ltd,Dundonnell Wind Farm,Wind,168.0,50.3,Dundonnell Wind Farm,-37.52,142.58,2026-04-21T09:52:05.725684
2026/04/21 19:45:00,DUNDWF2,8.88,Dundonnell Wind Farm Pty Ltd,Dundonnell Wind Farm,Wind,46.0,19.3,Dundonnell Wind Farm,-37.52,142.58,2026-04-21T09:52:05.725684
2026/04/21 19:45:00,DUNDWF3,24.07,Dundonnell Wind Farm Pty Ltd,Dundonnell Wind Farm,Wind,122.0,19.73,Dundonnell Wind Farm,-37.52,142.58,2026-04-21T09:52:05.725684
2026/04/21 19:45:00,ELAINWF1,20.82,Lal Lal Wind Farms Nom Co Pty Ltd,Elaine Wind Farm,Wind,82.0,25.39,Elaine Wind Farm,-37.36,144.0,2026-04-21T09:52:05.725684
2026/04/21 19:45:00,FLYCRKWF,40.61,Iberdrola Australia Energy Markets Pty Limited,Flyers Creek Wind Farm,Wind,140.0,29.01,Flyers Creek Wind Farm,-33.365556,148.981944,2026-04-21T09:52:05.725684
2026/04/21 19:45:00,GPWFEST1,88.8,Golden Plains WF1 Pty Ltd as Trustee for the Golden Plains WF1 Unit Trust,Golden Plains Wind Farm East,Wind,240.0,37.0,Golden Plains Wind Farm East,-37.945091,143.752614,2026-04-21T09:52:05.725684
2026/04/21 19:45:00,GPWFEST2,155.13,Golden Plains WF1 Pty Ltd as Trustee for the Golden Plains WF1 Unit Trust,Golden Plains Wind Farm East,Wind,253.0,61.32,Golden Plains Wind Farm East,-37.945091,143.752614,2026-04-21T09:52:05.725684
2026/04/21 19:45:00,GPWFEST3,160.09,Golden Plains WF1 Pty Ltd as Trustee for the Golden Plains WF1 Unit Trust,Golden Plains Wind Farm East,Wind,240.0,66.7,Golden Plains Wind Farm East,-37.945091,143.752614,2026-04-21T09:52:05.725684
2026/04/21 19:45:00,GRANWF1,99.35,Granville Harbour Operations Pty Ltd as The Trustee for Granville Harbour Operations Trust,Granville Harbour Wind Farm,Wind,111.0,89.5,Granville Harbour Wind Farm,-41.8,145.06,2026-04-21T09:52:05.725684
2026/04/21 19:45:00,GSWF1A,110.67,Goyder Wind Farm 1 Pty Ltd as the Trustee for Goyder Wind Farm 1 Trust,Goyder South Wind Farm 1A,Wind,201.0,55.06,Goyder South Wind Farm 1A,-33.679758,138.937597,2026-04-21T09:52:05.725684
2026/04/21 19:45:00,GSWF1B1,83.56,Goyder Wind Farm 1B Pty Ltd as the Trustee for the Goyder Wind Farm 1B Trust,Goyder South Wind Farm 1B,Wind,196.0,42.63,Goyder South Wind Farm 1B,-33.679758,138.937597,2026-04-21T09:52:05.725684
2026/04/21 19:45:00,GULLRWF1,36.29,New Gullen Range Wind Farm Pty Ltd,Gullen Range Wind Farm,Wind,161.0,22.54,Gullen Range Wind Farm,-34.34,149.27,2026-04-21T09:52:05.725684
2026/04/21 19:45:00,GULLRWF2,84.22,New Gullen Range Wind Farm Pty Ltd,Gullen Range Wind Farm,Wind,107.0,78.71,Gullen Range Wind Farm,-34.34,149.27,2026-04-21T09:52:05.725684
2026/04/21 19:45:00,GUNNING1,40.02,Gunning Wind Energy Developments Pty Ltd,Gunning Wind Farm,Wind,47.0,85.15,Gunning Wind Farm,-34.813333,149.4,2026-04-21T09:52:05.725684
2026/04/21 19:45:00,HALLWF1,32.19,AGL SA Generation Pty Limited,Hallett 1 Wind Farm,Wind,95.0,33.88,Hallett 1 Wind Farm,-33.367778,138.728611,2026-04-21T09:52:05.725684
2026/04/21 19:45:00,HALLWF2,19.64,AGL SA Generation Pty Limited,Hallett 2 Wind Farm,Wind,71.0,27.66,Hallett 2 Wind Farm,-33.367778,138.728611,2026-04-21T09:52:05.725684
2026/04/21 19:45:00,HD1WF1,30.83,Hawkesdale Asset Pty Ltd as trustee for Hawkesdale Asset Trust,Hawkesdale Wind Farm,Wind,89.0,34.64,Hawkesdale Wind Farm,-38.147894,142.361381,2026-04-21T09:52:05.725684
2026/04/21 19:45:00,HDWF1,43.5,HWF1 Pty Ltd,Hornsdale Wind Farm,Wind,102.0,42.65,Hornsdale Wind Farm,-33.050556,138.543611,2026-04-21T09:52:05.725684
2026/04/21 19:45:00,HDWF2,39.7,HWF 2 Pty Ltd,Hornsdale Wind Farm 2,Wind,102.0,38.92,Hornsdale Wind Farm 2,-33.06,138.54,2026-04-21T09:52:05.725684
2026/04/21 19:45:00,HDWF3,44.3,HWF3 Pty Ltd,Hornsdale Wind Farm 3,Wind,109.0,40.64,Hornsdale Wind Farm 3,-33.06,138.54,2026-04-21T09:52:05.725684
2026/04/21 19:45:00,KABANWF1,41.6,Kaban Wind Farm Pty Ltd as trustee for Kaban Wind Farm Trust,Kaban Wind Farm,Wind,152.0,27.37,Kaban Wind Farm,-17.56,145.41,2026-04-21T09:52:05.725684
2026/04/21 19:45:00,KEPWF1,27.2,Kennedy Energy Park Pty Ltd,Kennedy Energy Park,Wind,43.0,63.26,Kennedy Energy Park,-20.88,144.42,2026-04-21T09:52:05.725684
2026/04/21 19:45:00,KIATAWF1,3.6,Kiata ProjectCo Pty Ltd Atf Kiata Project Trust,Kiata Wind Farm,Wind,31.0,11.61,Kiata Wind Farm,-36.4,141.75,2026-04-21T09:52:05.725684
2026/04/21 19:45:00,LGAPWF1,19.8,Lincoln Gap Wind Farm (Operations) Pty Ltd,Lincoln Gap Wind Farm,Wind,123.0,16.1,Lincoln Gap Wind Farm,-32.564279,137.557328,2026-04-21T09:52:05.725684
2026/04/21 19:45:00,LGAPWF1,19.8,Lincoln Gap Wind Farm (Operations) Pty Ltd,Lincoln Gap Wind Farm,Wind,123.0,16.1,Lincoln Gap Wind Farm,-32.564279,137.557328,2026-04-21T09:52:05.725684
2026/04/21 19:45:00,LGAPWF2,11.06,Lincoln Gap Wind Farm (Operations) Pty Ltd,Lincoln Gap Wind Farm,Wind,85.0,13.01,Lincoln Gap Wind Farm,-32.564279,137.557328,2026-04-21T09:52:05.725684
2026/04/21 19:45:00,LGAPWF2,11.06,Lincoln Gap Wind Farm (Operations) Pty Ltd,Lincoln Gap Wind Farm,Wind,85.0,13.01,Lincoln Gap Wind Farm,-32.564279,137.557328,2026-04-21T09:52:05.725684
2026/04/21 19:45:00,LKBONNY1,14.83,Lake Bonney Wind Power Pty Ltd,Lake Bonney Wind Farm Stage 1,Wind,81.0,18.31,Lake Bonney Wind Farm Stage 1,-37.76,140.4,2026-04-21T09:52:05.725684
2026/04/21 19:45:00,LKBONNY2,23.24,Lake Bonney Wind Power Pty Ltd,Lake Bonney Stage 2 Windfarm,Wind,159.0,14.62,Lake Bonney Stage 2 Windfarm,-37.76,140.4,2026-04-21T09:52:05.725684
2026/04/21 19:45:00,LKBONNY3,4.13,Lake Bonney Wind Power Pty Ltd,Lake Bonney Stage 3 Wind Farm,Wind,39.0,10.59,Lake Bonney Stage 3 Wind Farm,-37.737781,140.388137,2026-04-21T09:52:05.725684
2026/04/21 19:45:00,MACARTH1,50.3,AGL Hydro Partnership,Macarthur Wind Farm,Wind,420.0,11.98,Macarthur Wind Farm,-38.048957,142.192112,2026-04-21T09:52:05.725684
2026/04/21 19:45:00,MCINTYR1,283.69,MacIntyre UJV Operator Pty Ltd,MacIntyre Wind Farm,Wind,890.0,31.88,MacIntyre Wind Farm,-28.32,151.54,2026-04-21T09:52:05.725684
2026/04/21 19:45:00,MERCER01,43.7,Mt Mercer Windfarm Pty Ltd,Mt Mercer Wind Farm,Wind,131.0,33.36,Mt Mercer Wind Farm,-37.841111,143.871111,2026-04-21T09:52:05.725684
2026/04/21 19:45:00,MEWF1,49.67,Ergon Energy Queensland Pty Ltd ,Mount Emerald Wind Farm,Wind,178.0,27.9,Mount Emerald Wind Farm,-17.133007,145.380644,2026-04-21T09:52:05.725684
2026/04/21 19:45:00,MRTLSWF1,25.71,Mortlake South Wind Farm Pty Ltd,Mortlake South Wind Farm,Wind,153.0,16.8,Mortlake South Wind Farm,-38.127337,142.857801,2026-04-21T09:52:05.725684
2026/04/21 19:45:00,MTGELWF1,39.36,Mt. Gellibrand Wind Farm Pty Ltd,Mt Gellibrand Wind Farm,Wind,132.0,29.82,Mt Gellibrand Wind Farm,-38.23,143.77,2026-04-21T09:52:05.725684
2026/04/21 19:45:00,MTMILLAR,14.8,Mt Millar Wind Farm Pty Ltd,Mt Millar Wind Farm,Wind,70.0,21.14,Mt Millar Wind Farm,-33.624444,136.703611,2026-04-21T09:52:05.725684
2026/04/21 19:45:00,MUSSELR1,31.1,Hydro-Electric Corporation,Musselroe Wind Farm,Wind,168.0,18.51,Musselroe Wind Farm,-40.780225,148.010799,2026-04-21T09:52:05.725684
2026/04/21 19:45:00,MUWAWF1,50.85,Telstra Energy (Generation) Pty Ltd,Murra Warra Wind Farm,Wind,225.7,22.53,Murra Warra Wind Farm,-36.432404,142.317853,2026-04-21T09:52:05.725684
2026/04/21 19:45:00,MUWAWF2,58.8,Murra Warra II Project Co Pty Ltd ATF The Murra Warra II Project Trust,Murra Warra Wind Farm Stage 2,Wind,203.0,28.97,Murra Warra Wind Farm Stage 2,-36.43,142.32,2026-04-21T09:52:05.725684
2026/04/21 19:45:00,NBHWF1,45.7,AGL SA Generation Pty Limited,North Brown Hill Wind Farm,Wind,132.0,34.62,North Brown Hill Wind Farm,-33.367778,138.728611,2026-04-21T09:52:05.725684
2026/04/21 19:45:00,OAKLAND1,9.2,AGL Hydro Partnership,Oaklands Hill Wind Farm,Wind,63.0,14.6,Oaklands Hill Wind Farm,-37.683078,142.551678,2026-04-21T09:52:05.725684
2026/04/21 19:45:00,PAREPW1,11.3,Iberdrola Australia Energy Markets Pty Limited,Port Augusta Renewable Energy Park,Wind,201.0,5.62,Port Augusta Renewable Energy Park,-32.566944,137.856111,2026-04-21T09:52:05.725684
2026/04/21 19:45:00,RYANCWF1,19.02,Ryan Corner Development Pty Ltd,Ryan Corner Wind Farm,Wind,205.0,9.28,Ryan Corner Wind Farm,-38.271017,142.140647,2026-04-21T09:52:05.725684
2026/04/21 19:45:00,RYEPARK1,195.26,Rye Park Renewable Energy Pty Ltd as trustee for Rye Park Wind Farm Trust,Rye Park Renewable Energy,Wind,384.0,50.85,Rye Park Renewable Energy,-32.138333,148.972778,2026-04-21T09:52:05.725684
2026/04/21 19:45:00,SALTCRK1,6.96,Salt Creek Wind Farm Pty Ltd,Salt Creek Wind Farm,Wind,54.0,12.89,Salt Creek Wind Farm,-37.95,142.63,2026-04-21T09:52:05.725684
2026/04/21 19:45:00,SAPHWF1,172.63,The Trustee For The SWF1 Operations Trust,Sapphire Wind Farm,Wind,270.0,63.94,Sapphire Wind Farm,-29.7,151.41,2026-04-21T09:52:05.725684
2026/04/21 19:45:00,SNOWNTH1,16.7,Snowtown Wind Farm Stage 2 Pty Ltd,Snowtown Wind Farm Stage 2 North,Wind,144.0,11.6,Snowtown Wind Farm Stage 2 North,-33.83,138.118611,2026-04-21T09:52:05.725684
2026/04/21 19:45:00,SNOWSTH1,15.6,Snowtown Wind Farm Stage 2 Pty Ltd,Snowtown South Wind Farm,Wind,126.0,12.38,Snowtown South Wind Farm,-33.83,138.118611,2026-04-21T09:52:05.725684
2026/04/21 19:45:00,SNOWTWN1,18.17,Snowtown Wind Farm Pty Ltd,Snowtown Wind Farm Units 1 And 47,Wind,99.0,18.35,Snowtown Wind Farm Units 1 And 47,-33.83,138.118611,2026-04-21T09:52:05.725684
2026/04/21 19:45:00,STARHLWF,4.8,Starfish Hill Wind Farm Pty Ltd,Starfish Hill Wind Farm,Wind,35.0,13.71,Starfish Hill Wind Farm,-35.58,138.14,2026-04-21T09:52:05.725684
2026/04/21 19:45:00,STOCKYD1,255.49,Stockyard Hill Wind Farm Pty Ltd,Stockyard Hill Wind Farm,Wind,511.0,50.0,Stockyard Hill Wind Farm,-37.535833,143.251389,2026-04-21T09:52:05.725684
2026/04/21 19:45:00,STWF1,41.66,PARF Company 8 Pty Ltd as The Trustee for Silverton Project Trust,Silverton Wind Farm,Wind,198.0,21.04,Silverton Wind Farm,-37.683168,142.551678,2026-04-21T09:52:05.725684
2026/04/21 19:45:00,TARALGA1,15.86,Taralga Wind Farm Nominees No 2 Pty Ltd (ATF Taralga Wind Farm Operating Trust),Taralga Wind Farm,Wind,106.0,14.96,Taralga Wind Farm,-34.42352,149.826267,2026-04-21T09:52:05.725684
2026/04/21 19:45:00,WAMBOWF1,74.65,Stanwell Corporation Limited,Wambo Wind Farm 1,Wind,245.0,30.47,Wambo Wind Farm 1,-35.187301,149.524945,2026-04-21T09:52:05.725684
2026/04/21 19:45:00,WATERLWF,0.0,Waterloo Wind Farm Pty Ltd,Waterloo Wind Farm,Wind,130.0,0.0,Waterloo Wind Farm,-34.00094,138.911567,2026-04-21T09:52:05.725684
2026/04/21 19:45:00,WGWF1,27.2,Willogoleche Power Pty Ltd As The Trustee For The Willogoleche Operating Trust,Willogoleche Wind Farm,Wind,119.0,22.86,Willogoleche Wind Farm,-33.39,138.85,2026-04-21T09:52:05.725684
2026/04/21 19:45:00,WOODLWN1,25.91,Woodlawn Wind Pty Ltd,Woodlawn Wind Farm,Wind,48.0,53.98,Woodlawn Wind Farm,-35.08,149.62,2026-04-21T09:52:05.725684
2026/04/21 19:45:00,WPWF,42.39,AGL SA Generation Pty Limited,Wattle Point Wind Farm,Wind,91.0,46.58,Wattle Point Wind Farm,-35.111624,137.7219,2026-04-21T09:52:05.725684
2026/04/21 19:45:00,WRWF1,116.02,White Rock Wind Farm Pty Ltd,White Rock Wind Farm,Wind,172.0,67.45,White Rock Wind Farm,-29.79,151.54,2026-04-21T09:52:05.725684
2026/04/21 19:45:00,YENDWF1,58.64,Lal Lal Wind Farms Nom Co Pty Ltd,Yendon Wind Farm,Wind,142.0,41.3,Yendon Wind Farm,-37.629987,144.022717,2026-04-21T09:52:05.725684
