SETTLEMENTDATE,DUID,SCADAVALUE,Participant,Station Name,Fuel Source - Primary,MAX_CAP,utilisation_pct,Plant,Latitude,Longitude,timestamp_utc
2026/03/27 21:30:00,CAPTL_WF,87.75,Iberdrola Australia Holdings Pty Limited,Capital Wind Farm,Wind,140.0,62.68,Capital Wind Farm,-35.1,149.31,2026-03-27T11:26:41.597360
2026/03/27 21:30:00,CHALLHWF,18.3,Pacific Hydro Challicum Hills Pty Ltd,Challicum Hills Wind Farm,Wind,52.0,35.19,Challicum Hills Wind Farm,-37.38,143.11,2026-03-27T11:26:41.597360
2026/03/27 21:30:00,CULLRGWF,14.15,Cullerin Range Wind Farm Pty Ltd,Cullerin Range Wind Farm,Wind,30.0,47.17,Cullerin Range Wind Farm,-34.81,149.4,2026-03-27T11:26:41.597360
2026/03/27 21:30:00,DIAPURWF1,8.0,Y.E.S. Energy (SA) Pty Ltd,Diapur Wind Farm,Wind,7.0,114.29,Diapur Wind Farm,-36.3425,141.43,2026-03-27T11:26:41.597360
2026/03/27 21:30:00,MLWF1,4.36,Mortons Lane Windfarm Pty Limited,Mortons Lane Wind Farm,Wind,20.0,21.8,Mortons Lane Wind Farm,-37.84,142.45,2026-03-27T11:26:41.597360
2026/03/27 21:30:00,WAUBRAWF,116.2,Pyrenees Wind Energy Developments Pty Ltd,Waubra Wind Farm,Wind,192.0,60.52,Waubra Wind Farm,-37.394498,143.638982,2026-03-27T11:26:41.597360
2026/03/27 21:30:00,WOOLNTH1,28.51,Hydro-Electric Corporation,Woolnorth Studland Bay / Bluff Point Wind Farm,Wind,140.0,20.36,Woolnorth Studland Bay / Bluff Point Wind Farm,-40.69,144.72,2026-03-27T11:26:41.597360
2026/03/27 21:30:00,YAMBUKWF,11.9,Energy Pacific (Vic) Pty Ltd,Yambuk Wind Farm,Wind,30.0,39.67,Yambuk Wind Farm,-38.299083,142.027577,2026-03-27T11:26:41.597360
2026/03/27 21:30:00,YSWF1,10.9,Pacific Hydro Yaloak South Pty Ltd,Yaloak South Wind Farm,Wind,28.0,38.93,Yaloak South Wind Farm,-37.7163,144.242853,2026-03-27T11:26:41.597360
2026/03/27 21:30:00,ARWF1,172.0,Ararat Wind Farm Pty Ltd,Ararat Wind Farm,Wind,241.0,71.37,Ararat Wind Farm,-37.232778,143.031389,2026-03-27T11:26:41.597360
2026/03/27 21:30:00,BALDHWF1,40.06,Alinta Energy Retail Sales Pty Ltd,Bald Hills Wind Farm,Wind,106.0,37.79,Bald Hills Wind Farm,-38.79,145.93,2026-03-27T11:26:41.597360
2026/03/27 21:30:00,BANGOWF1,110.8,BWF Nominees Pty Ltd as The Trustee for BWF Trust,Bango 973 Wind Farm,Wind,155.0,71.48,Bango 973 Wind Farm,-34.551582,148.732808,2026-03-27T11:26:41.597360
2026/03/27 21:30:00,BANGOWF2,77.6,BWF Nominees Pty Ltd as The Trustee for BWF Trust,Bango 999 Wind Farm,Wind,82.0,94.63,Bango 999 Wind Farm,-34.551582,148.732808,2026-03-27T11:26:41.597360
2026/03/27 21:30:00,BLUFF1,13.0,AGL SA Generation Pty Limited,The Bluff Wind Farm,Wind,53.0,24.53,The Bluff Wind Farm,-33.367778,138.728611,2026-03-27T11:26:41.597360
2026/03/27 21:30:00,BOCORWF1,101.56,Boco Rock Wind Farm Pty Ltd,Boco Rock Wind Farm,Wind,111.0,91.5,Boco Rock Wind Farm,-36.578611,149.103333,2026-03-27T11:26:41.597360
2026/03/27 21:30:00,BRYB1WF1,26.44,Berrybank Development Pty Ltd,Berrybank Wind Farm,Wind,175.9,15.03,Berrybank Wind Farm,-37.94,143.52,2026-03-27T11:26:41.597360
2026/03/27 21:30:00,BRYB2WF2,17.04,Berrybank 2 Asset Pty Ltd as trustee for Berrybank 2 Asset Trust,Berrybank 2 Wind Farm,Wind,105.0,16.23,Berrybank 2 Wind Farm,-37.94,143.52,2026-03-27T11:26:41.597360
2026/03/27 21:30:00,BULGANA1,89.63,Bulgana Wind Farm Pty Ltd,Bulgana Green Power Hub,Wind,204.0,43.94,Bulgana Green Power Hub,-37.0975,142.973611,2026-03-27T11:26:41.597360
2026/03/27 21:30:00,CATHROCK,12.3,Cathedral Rocks Wind Farm Pty Ltd,Cathedral Rocks,Wind,66.0,18.64,Cathedral Rocks,-34.51,135.35,2026-03-27T11:26:41.597360
2026/03/27 21:30:00,CHYTWF1,55.0,Cherry Tree Wind Farm Pty Ltd as trustee for The Cherry Tree Project trust ,Cherry Tree Wind Farm,Wind,57.0,96.49,Cherry Tree Wind Farm,-37.1,145.26,2026-03-27T11:26:41.597360
2026/03/27 21:30:00,CLEMGPWF,40.05,Pacific Hydro Clements Gap Pty Ltd,Clements Gap Wind Farm,Wind,57.0,70.26,Clements Gap Wind Farm,-33.48,138.1,2026-03-27T11:26:41.597360
2026/03/27 21:30:00,CLRKCWF1,185.12,Stanwell Corporation Limited ,Clarke Creek Wind Farm,Wind,338.0,54.77,Clarke Creek Wind Farm,-22.85,149.45,2026-03-27T11:26:41.597360
2026/03/27 21:30:00,CLRKCWF2,38.87,Stanwell Corporation Limited ,Clarke Creek Wind Farm,Wind,101.0,38.49,Clarke Creek Wind Farm,-22.85,149.45,2026-03-27T11:26:41.597360
2026/03/27 21:30:00,CNUNDAWF,0.0,Canunda Power Pty Ltd,Canunda Wind Farm,Wind,46.0,0.0,Canunda Wind Farm,-37.73,140.39,2026-03-27T11:26:41.597360
2026/03/27 21:30:00,COLWF01,55.12,Collector Wind Farm Pty Ltd,Collector Wind Farm 1,Wind,219.0,25.17,Collector Wind Farm 1,-34.8719,149.3967,2026-03-27T11:26:41.597360
2026/03/27 21:30:00,COOPGWF1,323.61,PARF Company 10 Pty Limited as The Trustee for Coopers Gap Project Trust,Coopers Gap Wind Farm,Wind,440.0,73.55,Coopers Gap Wind Farm,-26.74,151.45,2026-03-27T11:26:41.597360
2026/03/27 21:30:00,CROOKWF2,82.32,Crookwell Development Pty Ltd ,Crookwell 2 Wind Farm,Wind,91.0,90.46,Crookwell 2 Wind Farm,-34.52,149.54,2026-03-27T11:26:41.597360
2026/03/27 21:30:00,CROOKWF3,49.87,Crookwell 3 Development Pty Ltd,Crookwell 3 Wind Farm,Wind,56.0,89.05,Crookwell 3 Wind Farm,-34.52,149.54,2026-03-27T11:26:41.597360
2026/03/27 21:30:00,CROWLWF1,56.44,Pacific Hydro Crowlands Pty Ltd ,Crowlands Wind Farm,Wind,79.0,71.44,Crowlands Wind Farm,-37.13,143.16,2026-03-27T11:26:41.597360
2026/03/27 21:30:00,CRURWF1,134.0,CRWF Nominees Pty Ltd As Trustee For The CRWF Trust,Crudine Ridge Wind Farm,Wind,138.0,97.1,Crudine Ridge Wind Farm,-32.97,149.64,2026-03-27T11:26:41.597360
2026/03/27 21:30:00,CTHLWF1,20.11,Wild Cattle Hill Pty Ltd,Cattle Hill Wind Farm,Wind,144.0,13.97,Cattle Hill Wind Farm,-42.15,146.69,2026-03-27T11:26:41.597360
2026/03/27 21:30:00,DULAWF1,38.0,Dulacca Energy Project Co Pty Ltd,Dulacca Wind Farm,Wind,173.0,21.97,Dulacca Wind Farm,-26.63,149.87,2026-03-27T11:26:41.597360
2026/03/27 21:30:00,DUNDWF1,51.63,Dundonnell Wind Farm Pty Ltd,Dundonnell Wind Farm,Wind,168.0,30.73,Dundonnell Wind Farm,-37.52,142.58,2026-03-27T11:26:41.597360
2026/03/27 21:30:00,DUNDWF2,18.88,Dundonnell Wind Farm Pty Ltd,Dundonnell Wind Farm,Wind,46.0,41.04,Dundonnell Wind Farm,-37.52,142.58,2026-03-27T11:26:41.597360
2026/03/27 21:30:00,DUNDWF3,44.35,Dundonnell Wind Farm Pty Ltd,Dundonnell Wind Farm,Wind,122.0,36.35,Dundonnell Wind Farm,-37.52,142.58,2026-03-27T11:26:41.597360
2026/03/27 21:30:00,ELAINWF1,12.2,Lal Lal Wind Farms Nom Co Pty Ltd,Elaine Wind Farm,Wind,82.0,14.88,Elaine Wind Farm,-37.36,144.0,2026-03-27T11:26:41.597360
2026/03/27 21:30:00,FLYCRKWF,98.47,Iberdrola Australia Energy Markets Pty Limited,Flyers Creek Wind Farm,Wind,140.0,70.34,Flyers Creek Wind Farm,-33.365556,148.981944,2026-03-27T11:26:41.597360
2026/03/27 21:30:00,GPWFEST1,53.0,Golden Plains WF1 Pty Ltd as Trustee for the Golden Plains WF1 Unit Trust,Golden Plains Wind Farm East,Wind,240.0,22.08,Golden Plains Wind Farm East,-37.945091,143.752614,2026-03-27T11:26:41.597360
2026/03/27 21:30:00,GPWFEST2,48.53,Golden Plains WF1 Pty Ltd as Trustee for the Golden Plains WF1 Unit Trust,Golden Plains Wind Farm East,Wind,253.0,19.18,Golden Plains Wind Farm East,-37.945091,143.752614,2026-03-27T11:26:41.597360
2026/03/27 21:30:00,GPWFEST3,39.45,Golden Plains WF1 Pty Ltd as Trustee for the Golden Plains WF1 Unit Trust,Golden Plains Wind Farm East,Wind,240.0,16.44,Golden Plains Wind Farm East,-37.945091,143.752614,2026-03-27T11:26:41.597360
2026/03/27 21:30:00,GRANWF1,0.14,Granville Harbour Operations Pty Ltd as The Trustee for Granville Harbour Operations Trust,Granville Harbour Wind Farm,Wind,111.0,0.13,Granville Harbour Wind Farm,-41.8,145.06,2026-03-27T11:26:41.597360
2026/03/27 21:30:00,GSWF1A,74.42,Goyder Wind Farm 1 Pty Ltd as the Trustee for Goyder Wind Farm 1 Trust,Goyder South Wind Farm 1A,Wind,201.0,37.02,Goyder South Wind Farm 1A,-33.679758,138.937597,2026-03-27T11:26:41.597360
2026/03/27 21:30:00,GSWF1B1,115.61,Goyder Wind Farm 1B Pty Ltd as the Trustee for the Goyder Wind Farm 1B Trust,Goyder South Wind Farm 1B,Wind,196.0,58.98,Goyder South Wind Farm 1B,-33.679758,138.937597,2026-03-27T11:26:41.597360
2026/03/27 21:30:00,GULLRWF1,57.11,New Gullen Range Wind Farm Pty Ltd,Gullen Range Wind Farm,Wind,161.0,35.47,Gullen Range Wind Farm,-34.34,149.27,2026-03-27T11:26:41.597360
2026/03/27 21:30:00,GULLRWF2,12.04,New Gullen Range Wind Farm Pty Ltd,Gullen Range Wind Farm,Wind,107.0,11.25,Gullen Range Wind Farm,-34.34,149.27,2026-03-27T11:26:41.597360
2026/03/27 21:30:00,GUNNING1,16.9,Gunning Wind Energy Developments Pty Ltd,Gunning Wind Farm,Wind,47.0,35.96,Gunning Wind Farm,-34.813333,149.4,2026-03-27T11:26:41.597360
2026/03/27 21:30:00,HALLWF1,68.57,AGL SA Generation Pty Limited,Hallett 1 Wind Farm,Wind,95.0,72.18,Hallett 1 Wind Farm,-33.367778,138.728611,2026-03-27T11:26:41.597360
2026/03/27 21:30:00,HALLWF2,22.46,AGL SA Generation Pty Limited,Hallett 2 Wind Farm,Wind,71.0,31.63,Hallett 2 Wind Farm,-33.367778,138.728611,2026-03-27T11:26:41.597360
2026/03/27 21:30:00,HD1WF1,20.91,Hawkesdale Asset Pty Ltd as trustee for Hawkesdale Asset Trust,Hawkesdale Wind Farm,Wind,89.0,23.49,Hawkesdale Wind Farm,-38.147894,142.361381,2026-03-27T11:26:41.597360
2026/03/27 21:30:00,HDWF1,56.4,HWF1 Pty Ltd,Hornsdale Wind Farm,Wind,102.0,55.29,Hornsdale Wind Farm,-33.050556,138.543611,2026-03-27T11:26:41.597360
2026/03/27 21:30:00,HDWF2,59.3,HWF 2 Pty Ltd,Hornsdale Wind Farm 2,Wind,102.0,58.14,Hornsdale Wind Farm 2,-33.06,138.54,2026-03-27T11:26:41.597360
2026/03/27 21:30:00,HDWF3,56.1,HWF3 Pty Ltd,Hornsdale Wind Farm 3,Wind,109.0,51.47,Hornsdale Wind Farm 3,-33.06,138.54,2026-03-27T11:26:41.597360
2026/03/27 21:30:00,KABANWF1,42.53,Kaban Wind Farm Pty Ltd as trustee for Kaban Wind Farm Trust,Kaban Wind Farm,Wind,152.0,27.98,Kaban Wind Farm,-17.56,145.41,2026-03-27T11:26:41.597360
2026/03/27 21:30:00,KEPWF1,27.1,Kennedy Energy Park Pty Ltd,Kennedy Energy Park,Wind,43.0,63.02,Kennedy Energy Park,-20.88,144.42,2026-03-27T11:26:41.597360
2026/03/27 21:30:00,KIATAWF1,28.0,Kiata ProjectCo Pty Ltd Atf Kiata Project Trust,Kiata Wind Farm,Wind,31.0,90.32,Kiata Wind Farm,-36.4,141.75,2026-03-27T11:26:41.597360
2026/03/27 21:30:00,LGAPWF1,37.92,Lincoln Gap Wind Farm (Operations) Pty Ltd,Lincoln Gap Wind Farm,Wind,123.0,30.83,Lincoln Gap Wind Farm,-32.564279,137.557328,2026-03-27T11:26:41.597360
2026/03/27 21:30:00,LGAPWF1,37.92,Lincoln Gap Wind Farm (Operations) Pty Ltd,Lincoln Gap Wind Farm,Wind,123.0,30.83,Lincoln Gap Wind Farm,-32.564279,137.557328,2026-03-27T11:26:41.597360
2026/03/27 21:30:00,LGAPWF2,65.18,Lincoln Gap Wind Farm (Operations) Pty Ltd,Lincoln Gap Wind Farm,Wind,85.0,76.68,Lincoln Gap Wind Farm,-32.564279,137.557328,2026-03-27T11:26:41.597360
2026/03/27 21:30:00,LGAPWF2,65.18,Lincoln Gap Wind Farm (Operations) Pty Ltd,Lincoln Gap Wind Farm,Wind,85.0,76.68,Lincoln Gap Wind Farm,-32.564279,137.557328,2026-03-27T11:26:41.597360
2026/03/27 21:30:00,LKBONNY1,0.36,Lake Bonney Wind Power Pty Ltd,Lake Bonney Wind Farm Stage 1,Wind,81.0,0.44,Lake Bonney Wind Farm Stage 1,-37.76,140.4,2026-03-27T11:26:41.597360
2026/03/27 21:30:00,LKBONNY2,0.0,Lake Bonney Wind Power Pty Ltd,Lake Bonney Stage 2 Windfarm,Wind,159.0,0.0,Lake Bonney Stage 2 Windfarm,-37.76,140.4,2026-03-27T11:26:41.597360
2026/03/27 21:30:00,LKBONNY3,0.0,Lake Bonney Wind Power Pty Ltd,Lake Bonney Stage 3 Wind Farm,Wind,39.0,0.0,Lake Bonney Stage 3 Wind Farm,-37.737781,140.388137,2026-03-27T11:26:41.597360
2026/03/27 21:30:00,MACARTH1,16.5,AGL Hydro Partnership,Macarthur Wind Farm,Wind,420.0,3.93,Macarthur Wind Farm,-38.048957,142.192112,2026-03-27T11:26:41.597360
2026/03/27 21:30:00,MCINTYR1,238.3,MacIntyre UJV Operator Pty Ltd,MacIntyre Wind Farm,Wind,890.0,26.78,MacIntyre Wind Farm,-28.32,151.54,2026-03-27T11:26:41.597360
2026/03/27 21:30:00,MERCER01,20.8,Mt Mercer Windfarm Pty Ltd,Mt Mercer Wind Farm,Wind,131.0,15.88,Mt Mercer Wind Farm,-37.841111,143.871111,2026-03-27T11:26:41.597360
2026/03/27 21:30:00,MEWF1,16.96,Ergon Energy Queensland Pty Ltd ,Mount Emerald Wind Farm,Wind,178.0,9.53,Mount Emerald Wind Farm,-17.133007,145.380644,2026-03-27T11:26:41.597360
2026/03/27 21:30:00,MRTLSWF1,22.75,Mortlake South Wind Farm Pty Ltd,Mortlake South Wind Farm,Wind,153.0,14.87,Mortlake South Wind Farm,-38.127337,142.857801,2026-03-27T11:26:41.597360
2026/03/27 21:30:00,MTGELWF1,10.05,Mt. Gellibrand Wind Farm Pty Ltd,Mt Gellibrand Wind Farm,Wind,132.0,7.61,Mt Gellibrand Wind Farm,-38.23,143.77,2026-03-27T11:26:41.597360
2026/03/27 21:30:00,MTMILLAR,24.0,Mt Millar Wind Farm Pty Ltd,Mt Millar Wind Farm,Wind,70.0,34.29,Mt Millar Wind Farm,-33.624444,136.703611,2026-03-27T11:26:41.597360
2026/03/27 21:30:00,MUSSELR1,49.2,Hydro-Electric Corporation,Musselroe Wind Farm,Wind,168.0,29.29,Musselroe Wind Farm,-40.780225,148.010799,2026-03-27T11:26:41.597360
2026/03/27 21:30:00,MUWAWF1,160.64,Telstra Energy (Generation) Pty Ltd,Murra Warra Wind Farm,Wind,225.7,71.17,Murra Warra Wind Farm,-36.432404,142.317853,2026-03-27T11:26:41.597360
2026/03/27 21:30:00,MUWAWF2,145.6,Murra Warra II Project Co Pty Ltd ATF The Murra Warra II Project Trust,Murra Warra Wind Farm Stage 2,Wind,203.0,71.72,Murra Warra Wind Farm Stage 2,-36.43,142.32,2026-03-27T11:26:41.597360
2026/03/27 21:30:00,NBHWF1,88.4,AGL SA Generation Pty Limited,North Brown Hill Wind Farm,Wind,132.0,66.97,North Brown Hill Wind Farm,-33.367778,138.728611,2026-03-27T11:26:41.597360
2026/03/27 21:30:00,OAKLAND1,20.5,AGL Hydro Partnership,Oaklands Hill Wind Farm,Wind,63.0,32.54,Oaklands Hill Wind Farm,-37.683078,142.551678,2026-03-27T11:26:41.597360
2026/03/27 21:30:00,PAREPW1,177.5,Iberdrola Australia Energy Markets Pty Limited,Port Augusta Renewable Energy Park,Wind,201.0,88.31,Port Augusta Renewable Energy Park,-32.566944,137.856111,2026-03-27T11:26:41.597360
2026/03/27 21:30:00,RYANCWF1,61.14,Ryan Corner Development Pty Ltd,Ryan Corner Wind Farm,Wind,205.0,29.82,Ryan Corner Wind Farm,-38.271017,142.140647,2026-03-27T11:26:41.597360
2026/03/27 21:30:00,RYEPARK1,265.73,Rye Park Renewable Energy Pty Ltd as trustee for Rye Park Wind Farm Trust,Rye Park Renewable Energy,Wind,384.0,69.2,Rye Park Renewable Energy,-32.138333,148.972778,2026-03-27T11:26:41.597360
2026/03/27 21:30:00,SALTCRK1,16.52,Salt Creek Wind Farm Pty Ltd,Salt Creek Wind Farm,Wind,54.0,30.59,Salt Creek Wind Farm,-37.95,142.63,2026-03-27T11:26:41.597360
2026/03/27 21:30:00,SAPHWF1,185.12,The Trustee For The SWF1 Operations Trust,Sapphire Wind Farm,Wind,270.0,68.56,Sapphire Wind Farm,-29.7,151.41,2026-03-27T11:26:41.597360
2026/03/27 21:30:00,SNOWNTH1,57.4,Snowtown Wind Farm Stage 2 Pty Ltd,Snowtown Wind Farm Stage 2 North,Wind,144.0,39.86,Snowtown Wind Farm Stage 2 North,-33.83,138.118611,2026-03-27T11:26:41.597360
2026/03/27 21:30:00,SNOWSTH1,33.2,Snowtown Wind Farm Stage 2 Pty Ltd,Snowtown South Wind Farm,Wind,126.0,26.35,Snowtown South Wind Farm,-33.83,138.118611,2026-03-27T11:26:41.597360
2026/03/27 21:30:00,SNOWTWN1,37.42,Snowtown Wind Farm Pty Ltd,Snowtown Wind Farm Units 1 And 47,Wind,99.0,37.8,Snowtown Wind Farm Units 1 And 47,-33.83,138.118611,2026-03-27T11:26:41.597360
2026/03/27 21:30:00,STARHLWF,2.4,Starfish Hill Wind Farm Pty Ltd,Starfish Hill Wind Farm,Wind,35.0,6.86,Starfish Hill Wind Farm,-35.58,138.14,2026-03-27T11:26:41.597360
2026/03/27 21:30:00,STOCKYD1,369.73,Stockyard Hill Wind Farm Pty Ltd,Stockyard Hill Wind Farm,Wind,511.0,72.35,Stockyard Hill Wind Farm,-37.535833,143.251389,2026-03-27T11:26:41.597360
2026/03/27 21:30:00,STWF1,132.61,PARF Company 8 Pty Ltd as The Trustee for Silverton Project Trust,Silverton Wind Farm,Wind,198.0,66.97,Silverton Wind Farm,-37.683168,142.551678,2026-03-27T11:26:41.597360
2026/03/27 21:30:00,TARALGA1,91.85,Taralga Wind Farm Nominees No 2 Pty Ltd (ATF Taralga Wind Farm Operating Trust),Taralga Wind Farm,Wind,106.0,86.65,Taralga Wind Farm,-34.42352,149.826267,2026-03-27T11:26:41.597360
2026/03/27 21:30:00,WAMBOWF1,210.96,Stanwell Corporation Limited,Wambo Wind Farm 1,Wind,245.0,86.11,Wambo Wind Farm 1,-35.187301,149.524945,2026-03-27T11:26:41.597360
2026/03/27 21:30:00,WATERLWF,25.4,Waterloo Wind Farm Pty Ltd,Waterloo Wind Farm,Wind,130.0,19.54,Waterloo Wind Farm,-34.00094,138.911567,2026-03-27T11:26:41.597360
2026/03/27 21:30:00,WGWF1,75.0,Willogoleche Power Pty Ltd As The Trustee For The Willogoleche Operating Trust,Willogoleche Wind Farm,Wind,119.0,63.03,Willogoleche Wind Farm,-33.39,138.85,2026-03-27T11:26:41.597360
2026/03/27 21:30:00,WOODLWN1,33.34,Woodlawn Wind Pty Ltd,Woodlawn Wind Farm,Wind,48.0,69.46,Woodlawn Wind Farm,-35.08,149.62,2026-03-27T11:26:41.597360
2026/03/27 21:30:00,WPWF,41.77,AGL SA Generation Pty Limited,Wattle Point Wind Farm,Wind,91.0,45.9,Wattle Point Wind Farm,-35.111624,137.7219,2026-03-27T11:26:41.597360
2026/03/27 21:30:00,WRWF1,111.61,White Rock Wind Farm Pty Ltd,White Rock Wind Farm,Wind,172.0,64.89,White Rock Wind Farm,-29.79,151.54,2026-03-27T11:26:41.597360
2026/03/27 21:30:00,YENDWF1,34.58,Lal Lal Wind Farms Nom Co Pty Ltd,Yendon Wind Farm,Wind,142.0,24.35,Yendon Wind Farm,-37.629987,144.022717,2026-03-27T11:26:41.597360
