SETTLEMENTDATE,DUID,SCADAVALUE,Participant,Station Name,Fuel Source - Primary,MAX_CAP,utilisation_pct,Plant,Latitude,Longitude,timestamp_utc
2026/03/08 02:40:00,CAPTL_WF,89.85,Iberdrola Australia Holdings Pty Limited,Capital Wind Farm,Wind,140.0,64.18,Capital Wind Farm,-35.1,149.31,2026-03-07T16:38:55.369881
2026/03/08 02:40:00,CHALLHWF,34.7,Pacific Hydro Challicum Hills Pty Ltd,Challicum Hills Wind Farm,Wind,52.0,66.73,Challicum Hills Wind Farm,-37.38,143.11,2026-03-07T16:38:55.369881
2026/03/08 02:40:00,CULLRGWF,24.34,Cullerin Range Wind Farm Pty Ltd,Cullerin Range Wind Farm,Wind,30.0,81.13,Cullerin Range Wind Farm,-34.81,149.4,2026-03-07T16:38:55.369881
2026/03/08 02:40:00,DIAPURWF1,8.0,Y.E.S. Energy (SA) Pty Ltd,Diapur Wind Farm,Wind,7.0,114.29,Diapur Wind Farm,-36.3425,141.43,2026-03-07T16:38:55.369881
2026/03/08 02:40:00,MLWF1,8.01,Mortons Lane Windfarm Pty Limited,Mortons Lane Wind Farm,Wind,20.0,40.05,Mortons Lane Wind Farm,-37.84,142.45,2026-03-07T16:38:55.369881
2026/03/08 02:40:00,WAUBRAWF,164.23,Pyrenees Wind Energy Developments Pty Ltd,Waubra Wind Farm,Wind,192.0,85.54,Waubra Wind Farm,-37.394498,143.638982,2026-03-07T16:38:55.369881
2026/03/08 02:40:00,WOOLNTH1,20.13,Hydro-Electric Corporation,Woolnorth Studland Bay / Bluff Point Wind Farm,Wind,140.0,14.38,Woolnorth Studland Bay / Bluff Point Wind Farm,-40.69,144.72,2026-03-07T16:38:55.369881
2026/03/08 02:40:00,YAMBUKWF,17.4,Energy Pacific (Vic) Pty Ltd,Yambuk Wind Farm,Wind,30.0,58.0,Yambuk Wind Farm,-38.299083,142.027577,2026-03-07T16:38:55.369881
2026/03/08 02:40:00,YSWF1,13.9,Pacific Hydro Yaloak South Pty Ltd,Yaloak South Wind Farm,Wind,28.0,49.64,Yaloak South Wind Farm,-37.7163,144.242853,2026-03-07T16:38:55.369881
2026/03/08 02:40:00,ARWF1,137.9,Ararat Wind Farm Pty Ltd,Ararat Wind Farm,Wind,241.0,57.22,Ararat Wind Farm,-37.232778,143.031389,2026-03-07T16:38:55.369881
2026/03/08 02:40:00,BALDHWF1,11.17,Alinta Energy Retail Sales Pty Ltd,Bald Hills Wind Farm,Wind,106.0,10.54,Bald Hills Wind Farm,-38.79,145.93,2026-03-07T16:38:55.369881
2026/03/08 02:40:00,BANGOWF1,110.5,BWF Nominees Pty Ltd as The Trustee for BWF Trust,Bango 973 Wind Farm,Wind,155.0,71.29,Bango 973 Wind Farm,-34.551582,148.732808,2026-03-07T16:38:55.369881
2026/03/08 02:40:00,BANGOWF2,69.2,BWF Nominees Pty Ltd as The Trustee for BWF Trust,Bango 999 Wind Farm,Wind,82.0,84.39,Bango 999 Wind Farm,-34.551582,148.732808,2026-03-07T16:38:55.369881
2026/03/08 02:40:00,BLUFF1,43.0,AGL SA Generation Pty Limited,The Bluff Wind Farm,Wind,53.0,81.13,The Bluff Wind Farm,-33.367778,138.728611,2026-03-07T16:38:55.369881
2026/03/08 02:40:00,BOCORWF1,6.89,Boco Rock Wind Farm Pty Ltd,Boco Rock Wind Farm,Wind,111.0,6.21,Boco Rock Wind Farm,-36.578611,149.103333,2026-03-07T16:38:55.369881
2026/03/08 02:40:00,BRYB1WF1,130.88,Berrybank Development Pty Ltd,Berrybank Wind Farm,Wind,175.9,74.41,Berrybank Wind Farm,-37.94,143.52,2026-03-07T16:38:55.369881
2026/03/08 02:40:00,BRYB2WF2,74.44,Berrybank 2 Asset Pty Ltd as trustee for Berrybank 2 Asset Trust,Berrybank 2 Wind Farm,Wind,105.0,70.9,Berrybank 2 Wind Farm,-37.94,143.52,2026-03-07T16:38:55.369881
2026/03/08 02:40:00,BULGANA1,141.02,Bulgana Wind Farm Pty Ltd,Bulgana Green Power Hub,Wind,204.0,69.13,Bulgana Green Power Hub,-37.0975,142.973611,2026-03-07T16:38:55.369881
2026/03/08 02:40:00,CATHROCK,21.3,Cathedral Rocks Wind Farm Pty Ltd,Cathedral Rocks,Wind,66.0,32.27,Cathedral Rocks,-34.51,135.35,2026-03-07T16:38:55.369881
2026/03/08 02:40:00,CHYTWF1,56.62,Cherry Tree Wind Farm Pty Ltd as trustee for The Cherry Tree Project trust ,Cherry Tree Wind Farm,Wind,57.0,99.33,Cherry Tree Wind Farm,-37.1,145.26,2026-03-07T16:38:55.369881
2026/03/08 02:40:00,CLEMGPWF,51.65,Pacific Hydro Clements Gap Pty Ltd,Clements Gap Wind Farm,Wind,57.0,90.61,Clements Gap Wind Farm,-33.48,138.1,2026-03-07T16:38:55.369881
2026/03/08 02:40:00,CLRKCWF1,223.14,Stanwell Corporation Limited ,Clarke Creek Wind Farm,Wind,338.0,66.02,Clarke Creek Wind Farm,-22.85,149.45,2026-03-07T16:38:55.369881
2026/03/08 02:40:00,CLRKCWF2,49.59,Stanwell Corporation Limited ,Clarke Creek Wind Farm,Wind,101.0,49.1,Clarke Creek Wind Farm,-22.85,149.45,2026-03-07T16:38:55.369881
2026/03/08 02:40:00,CNUNDAWF,0.0,Canunda Power Pty Ltd,Canunda Wind Farm,Wind,46.0,0.0,Canunda Wind Farm,-37.73,140.39,2026-03-07T16:38:55.369881
2026/03/08 02:40:00,COLWF01,131.87,Collector Wind Farm Pty Ltd,Collector Wind Farm 1,Wind,219.0,60.21,Collector Wind Farm 1,-34.8719,149.3967,2026-03-07T16:38:55.369881
2026/03/08 02:40:00,COOPGWF1,198.09,PARF Company 10 Pty Limited as The Trustee for Coopers Gap Project Trust,Coopers Gap Wind Farm,Wind,440.0,45.02,Coopers Gap Wind Farm,-26.74,151.45,2026-03-07T16:38:55.369881
2026/03/08 02:40:00,CROOKWF2,30.28,Crookwell Development Pty Ltd ,Crookwell 2 Wind Farm,Wind,91.0,33.27,Crookwell 2 Wind Farm,-34.52,149.54,2026-03-07T16:38:55.369881
2026/03/08 02:40:00,CROOKWF3,13.62,Crookwell 3 Development Pty Ltd,Crookwell 3 Wind Farm,Wind,56.0,24.32,Crookwell 3 Wind Farm,-34.52,149.54,2026-03-07T16:38:55.369881
2026/03/08 02:40:00,CROWLWF1,0.0,Pacific Hydro Crowlands Pty Ltd ,Crowlands Wind Farm,Wind,79.0,0.0,Crowlands Wind Farm,-37.13,143.16,2026-03-07T16:38:55.369881
2026/03/08 02:40:00,CRURWF1,28.2,CRWF Nominees Pty Ltd As Trustee For The CRWF Trust,Crudine Ridge Wind Farm,Wind,138.0,20.43,Crudine Ridge Wind Farm,-32.97,149.64,2026-03-07T16:38:55.369881
2026/03/08 02:40:00,CTHLWF1,0.0,Wild Cattle Hill Pty Ltd,Cattle Hill Wind Farm,Wind,144.0,0.0,Cattle Hill Wind Farm,-42.15,146.69,2026-03-07T16:38:55.369881
2026/03/08 02:40:00,DULAWF1,33.6,Dulacca Energy Project Co Pty Ltd,Dulacca Wind Farm,Wind,173.0,19.42,Dulacca Wind Farm,-26.63,149.87,2026-03-07T16:38:55.369881
2026/03/08 02:40:00,DUNDWF1,65.48,Dundonnell Wind Farm Pty Ltd,Dundonnell Wind Farm,Wind,168.0,38.98,Dundonnell Wind Farm,-37.52,142.58,2026-03-07T16:38:55.369881
2026/03/08 02:40:00,DUNDWF2,16.67,Dundonnell Wind Farm Pty Ltd,Dundonnell Wind Farm,Wind,46.0,36.24,Dundonnell Wind Farm,-37.52,142.58,2026-03-07T16:38:55.369881
2026/03/08 02:40:00,DUNDWF3,63.32,Dundonnell Wind Farm Pty Ltd,Dundonnell Wind Farm,Wind,122.0,51.9,Dundonnell Wind Farm,-37.52,142.58,2026-03-07T16:38:55.369881
2026/03/08 02:40:00,ELAINWF1,0.0,Lal Lal Wind Farms Nom Co Pty Ltd,Elaine Wind Farm,Wind,82.0,0.0,Elaine Wind Farm,-37.36,144.0,2026-03-07T16:38:55.369881
2026/03/08 02:40:00,FLYCRKWF,70.95,Iberdrola Australia Energy Markets Pty Limited,Flyers Creek Wind Farm,Wind,140.0,50.68,Flyers Creek Wind Farm,-33.365556,148.981944,2026-03-07T16:38:55.369881
2026/03/08 02:40:00,GPWFEST1,0.0,Golden Plains WF1 Pty Ltd as Trustee for the Golden Plains WF1 Unit Trust,Golden Plains Wind Farm East,Wind,240.0,0.0,Golden Plains Wind Farm East,-37.945091,143.752614,2026-03-07T16:38:55.369881
2026/03/08 02:40:00,GPWFEST2,0.0,Golden Plains WF1 Pty Ltd as Trustee for the Golden Plains WF1 Unit Trust,Golden Plains Wind Farm East,Wind,253.0,0.0,Golden Plains Wind Farm East,-37.945091,143.752614,2026-03-07T16:38:55.369881
2026/03/08 02:40:00,GPWFEST3,127.71,Golden Plains WF1 Pty Ltd as Trustee for the Golden Plains WF1 Unit Trust,Golden Plains Wind Farm East,Wind,240.0,53.21,Golden Plains Wind Farm East,-37.945091,143.752614,2026-03-07T16:38:55.369881
2026/03/08 02:40:00,GRANWF1,59.89,Granville Harbour Operations Pty Ltd as The Trustee for Granville Harbour Operations Trust,Granville Harbour Wind Farm,Wind,111.0,53.95,Granville Harbour Wind Farm,-41.8,145.06,2026-03-07T16:38:55.369881
2026/03/08 02:40:00,GSWF1A,174.8,Goyder Wind Farm 1 Pty Ltd as the Trustee for Goyder Wind Farm 1 Trust,Goyder South Wind Farm 1A,Wind,201.0,86.97,Goyder South Wind Farm 1A,-33.679758,138.937597,2026-03-07T16:38:55.369881
2026/03/08 02:40:00,GSWF1B1,0.29,Goyder Wind Farm 1B Pty Ltd as the Trustee for the Goyder Wind Farm 1B Trust,Goyder South Wind Farm 1B,Wind,196.0,0.15,Goyder South Wind Farm 1B,-33.679758,138.937597,2026-03-07T16:38:55.369881
2026/03/08 02:40:00,GULLRWF1,71.58,New Gullen Range Wind Farm Pty Ltd,Gullen Range Wind Farm,Wind,161.0,44.46,Gullen Range Wind Farm,-34.34,149.27,2026-03-07T16:38:55.369881
2026/03/08 02:40:00,GULLRWF2,105.39,New Gullen Range Wind Farm Pty Ltd,Gullen Range Wind Farm,Wind,107.0,98.5,Gullen Range Wind Farm,-34.34,149.27,2026-03-07T16:38:55.369881
2026/03/08 02:40:00,GUNNING1,39.79,Gunning Wind Energy Developments Pty Ltd,Gunning Wind Farm,Wind,47.0,84.66,Gunning Wind Farm,-34.813333,149.4,2026-03-07T16:38:55.369881
2026/03/08 02:40:00,HALLWF1,64.44,AGL SA Generation Pty Limited,Hallett 1 Wind Farm,Wind,95.0,67.83,Hallett 1 Wind Farm,-33.367778,138.728611,2026-03-07T16:38:55.369881
2026/03/08 02:40:00,HALLWF2,52.93,AGL SA Generation Pty Limited,Hallett 2 Wind Farm,Wind,71.0,74.55,Hallett 2 Wind Farm,-33.367778,138.728611,2026-03-07T16:38:55.369881
2026/03/08 02:40:00,HD1WF1,0.0,Hawkesdale Asset Pty Ltd as trustee for Hawkesdale Asset Trust,Hawkesdale Wind Farm,Wind,89.0,0.0,Hawkesdale Wind Farm,-38.147894,142.361381,2026-03-07T16:38:55.369881
2026/03/08 02:40:00,HDWF1,84.4,HWF1 Pty Ltd,Hornsdale Wind Farm,Wind,102.0,82.75,Hornsdale Wind Farm,-33.050556,138.543611,2026-03-07T16:38:55.369881
2026/03/08 02:40:00,HDWF2,99.6,HWF 2 Pty Ltd,Hornsdale Wind Farm 2,Wind,102.0,97.65,Hornsdale Wind Farm 2,-33.06,138.54,2026-03-07T16:38:55.369881
2026/03/08 02:40:00,HDWF3,92.2,HWF3 Pty Ltd,Hornsdale Wind Farm 3,Wind,109.0,84.59,Hornsdale Wind Farm 3,-33.06,138.54,2026-03-07T16:38:55.369881
2026/03/08 02:40:00,KABANWF1,58.65,Kaban Wind Farm Pty Ltd as trustee for Kaban Wind Farm Trust,Kaban Wind Farm,Wind,152.0,38.59,Kaban Wind Farm,-17.56,145.41,2026-03-07T16:38:55.369881
2026/03/08 02:40:00,KEPWF1,0.0,Kennedy Energy Park Pty Ltd,Kennedy Energy Park,Wind,43.0,0.0,Kennedy Energy Park,-20.88,144.42,2026-03-07T16:38:55.369881
2026/03/08 02:40:00,KIATAWF1,0.0,Kiata ProjectCo Pty Ltd Atf Kiata Project Trust,Kiata Wind Farm,Wind,31.0,0.0,Kiata Wind Farm,-36.4,141.75,2026-03-07T16:38:55.369881
2026/03/08 02:40:00,LGAPWF1,10.62,Lincoln Gap Wind Farm (Operations) Pty Ltd,Lincoln Gap Wind Farm,Wind,123.0,8.63,Lincoln Gap Wind Farm,-32.564279,137.557328,2026-03-07T16:38:55.369881
2026/03/08 02:40:00,LGAPWF1,10.62,Lincoln Gap Wind Farm (Operations) Pty Ltd,Lincoln Gap Wind Farm,Wind,123.0,8.63,Lincoln Gap Wind Farm,-32.564279,137.557328,2026-03-07T16:38:55.369881
2026/03/08 02:40:00,LGAPWF2,15.03,Lincoln Gap Wind Farm (Operations) Pty Ltd,Lincoln Gap Wind Farm,Wind,85.0,17.68,Lincoln Gap Wind Farm,-32.564279,137.557328,2026-03-07T16:38:55.369881
2026/03/08 02:40:00,LGAPWF2,15.03,Lincoln Gap Wind Farm (Operations) Pty Ltd,Lincoln Gap Wind Farm,Wind,85.0,17.68,Lincoln Gap Wind Farm,-32.564279,137.557328,2026-03-07T16:38:55.369881
2026/03/08 02:40:00,LKBONNY1,0.0,Lake Bonney Wind Power Pty Ltd,Lake Bonney Wind Farm Stage 1,Wind,81.0,0.0,Lake Bonney Wind Farm Stage 1,-37.76,140.4,2026-03-07T16:38:55.369881
2026/03/08 02:40:00,LKBONNY2,19.41,Lake Bonney Wind Power Pty Ltd,Lake Bonney Stage 2 Windfarm,Wind,159.0,12.21,Lake Bonney Stage 2 Windfarm,-37.76,140.4,2026-03-07T16:38:55.369881
2026/03/08 02:40:00,LKBONNY3,0.0,Lake Bonney Wind Power Pty Ltd,Lake Bonney Stage 3 Wind Farm,Wind,39.0,0.0,Lake Bonney Stage 3 Wind Farm,-37.737781,140.388137,2026-03-07T16:38:55.369881
2026/03/08 02:40:00,MACARTH1,142.2,AGL Hydro Partnership,Macarthur Wind Farm,Wind,420.0,33.86,Macarthur Wind Farm,-38.048957,142.192112,2026-03-07T16:38:55.369881
2026/03/08 02:40:00,MCINTYR1,169.23,MacIntyre UJV Operator Pty Ltd,MacIntyre Wind Farm,Wind,890.0,19.01,MacIntyre Wind Farm,-28.32,151.54,2026-03-07T16:38:55.369881
2026/03/08 02:40:00,MERCER01,0.0,Mt Mercer Windfarm Pty Ltd,Mt Mercer Wind Farm,Wind,131.0,0.0,Mt Mercer Wind Farm,-37.841111,143.871111,2026-03-07T16:38:55.369881
2026/03/08 02:40:00,MEWF1,4.71,Ergon Energy Queensland Pty Ltd ,Mount Emerald Wind Farm,Wind,178.0,2.65,Mount Emerald Wind Farm,-17.133007,145.380644,2026-03-07T16:38:55.369881
2026/03/08 02:40:00,MRTLSWF1,93.56,Mortlake South Wind Farm Pty Ltd,Mortlake South Wind Farm,Wind,153.0,61.15,Mortlake South Wind Farm,-38.127337,142.857801,2026-03-07T16:38:55.369881
2026/03/08 02:40:00,MTGELWF1,41.98,Mt. Gellibrand Wind Farm Pty Ltd,Mt Gellibrand Wind Farm,Wind,132.0,31.8,Mt Gellibrand Wind Farm,-38.23,143.77,2026-03-07T16:38:55.369881
2026/03/08 02:40:00,MTMILLAR,0.9,Mt Millar Wind Farm Pty Ltd,Mt Millar Wind Farm,Wind,70.0,1.29,Mt Millar Wind Farm,-33.624444,136.703611,2026-03-07T16:38:55.369881
2026/03/08 02:40:00,MUSSELR1,60.9,Hydro-Electric Corporation,Musselroe Wind Farm,Wind,168.0,36.25,Musselroe Wind Farm,-40.780225,148.010799,2026-03-07T16:38:55.369881
2026/03/08 02:40:00,MUWAWF1,0.0,Telstra Energy (Generation) Pty Ltd,Murra Warra Wind Farm,Wind,225.7,0.0,Murra Warra Wind Farm,-36.432404,142.317853,2026-03-07T16:38:55.369881
2026/03/08 02:40:00,MUWAWF2,185.3,Murra Warra II Project Co Pty Ltd ATF The Murra Warra II Project Trust,Murra Warra Wind Farm Stage 2,Wind,203.0,91.28,Murra Warra Wind Farm Stage 2,-36.43,142.32,2026-03-07T16:38:55.369881
2026/03/08 02:40:00,NBHWF1,100.9,AGL SA Generation Pty Limited,North Brown Hill Wind Farm,Wind,132.0,76.44,North Brown Hill Wind Farm,-33.367778,138.728611,2026-03-07T16:38:55.369881
2026/03/08 02:40:00,OAKLAND1,27.3,AGL Hydro Partnership,Oaklands Hill Wind Farm,Wind,63.0,43.33,Oaklands Hill Wind Farm,-37.683078,142.551678,2026-03-07T16:38:55.369881
2026/03/08 02:40:00,PAREPW1,40.23,Iberdrola Australia Energy Markets Pty Limited,Port Augusta Renewable Energy Park,Wind,201.0,20.01,Port Augusta Renewable Energy Park,-32.566944,137.856111,2026-03-07T16:38:55.369881
2026/03/08 02:40:00,RYANCWF1,99.27,Ryan Corner Development Pty Ltd,Ryan Corner Wind Farm,Wind,205.0,48.42,Ryan Corner Wind Farm,-38.271017,142.140647,2026-03-07T16:38:55.369881
2026/03/08 02:40:00,RYEPARK1,302.0,Rye Park Renewable Energy Pty Ltd as trustee for Rye Park Wind Farm Trust,Rye Park Renewable Energy,Wind,384.0,78.65,Rye Park Renewable Energy,-32.138333,148.972778,2026-03-07T16:38:55.369881
2026/03/08 02:40:00,SALTCRK1,0.0,Salt Creek Wind Farm Pty Ltd,Salt Creek Wind Farm,Wind,54.0,0.0,Salt Creek Wind Farm,-37.95,142.63,2026-03-07T16:38:55.369881
2026/03/08 02:40:00,SAPHWF1,92.97,The Trustee For The SWF1 Operations Trust,Sapphire Wind Farm,Wind,270.0,34.43,Sapphire Wind Farm,-29.7,151.41,2026-03-07T16:38:55.369881
2026/03/08 02:40:00,SNOWNTH1,113.8,Snowtown Wind Farm Stage 2 Pty Ltd,Snowtown Wind Farm Stage 2 North,Wind,144.0,79.03,Snowtown Wind Farm Stage 2 North,-33.83,138.118611,2026-03-07T16:38:55.369881
2026/03/08 02:40:00,SNOWSTH1,103.2,Snowtown Wind Farm Stage 2 Pty Ltd,Snowtown South Wind Farm,Wind,126.0,81.9,Snowtown South Wind Farm,-33.83,138.118611,2026-03-07T16:38:55.369881
2026/03/08 02:40:00,SNOWTWN1,0.0,Snowtown Wind Farm Pty Ltd,Snowtown Wind Farm Units 1 And 47,Wind,99.0,0.0,Snowtown Wind Farm Units 1 And 47,-33.83,138.118611,2026-03-07T16:38:55.369881
2026/03/08 02:40:00,STARHLWF,17.1,Starfish Hill Wind Farm Pty Ltd,Starfish Hill Wind Farm,Wind,35.0,48.86,Starfish Hill Wind Farm,-35.58,138.14,2026-03-07T16:38:55.369881
2026/03/08 02:40:00,STOCKYD1,434.85,Stockyard Hill Wind Farm Pty Ltd,Stockyard Hill Wind Farm,Wind,511.0,85.1,Stockyard Hill Wind Farm,-37.535833,143.251389,2026-03-07T16:38:55.369881
2026/03/08 02:40:00,STWF1,127.84,PARF Company 8 Pty Ltd as The Trustee for Silverton Project Trust,Silverton Wind Farm,Wind,198.0,64.57,Silverton Wind Farm,-37.683168,142.551678,2026-03-07T16:38:55.369881
2026/03/08 02:40:00,TARALGA1,46.41,Taralga Wind Farm Nominees No 2 Pty Ltd (ATF Taralga Wind Farm Operating Trust),Taralga Wind Farm,Wind,106.0,43.78,Taralga Wind Farm,-34.42352,149.826267,2026-03-07T16:38:55.369881
2026/03/08 02:40:00,WAMBOWF1,98.25,Stanwell Corporation Limited,Wambo Wind Farm 1,Wind,245.0,40.1,Wambo Wind Farm 1,-35.187301,149.524945,2026-03-07T16:38:55.369881
2026/03/08 02:40:00,WATERLWF,66.0,Waterloo Wind Farm Pty Ltd,Waterloo Wind Farm,Wind,130.0,50.77,Waterloo Wind Farm,-34.00094,138.911567,2026-03-07T16:38:55.369881
2026/03/08 02:40:00,WGWF1,117.7,Willogoleche Power Pty Ltd As The Trustee For The Willogoleche Operating Trust,Willogoleche Wind Farm,Wind,119.0,98.91,Willogoleche Wind Farm,-33.39,138.85,2026-03-07T16:38:55.369881
2026/03/08 02:40:00,WOODLWN1,27.31,Woodlawn Wind Pty Ltd,Woodlawn Wind Farm,Wind,48.0,56.9,Woodlawn Wind Farm,-35.08,149.62,2026-03-07T16:38:55.369881
2026/03/08 02:40:00,WPWF,66.54,AGL SA Generation Pty Limited,Wattle Point Wind Farm,Wind,91.0,73.12,Wattle Point Wind Farm,-35.111624,137.7219,2026-03-07T16:38:55.369881
2026/03/08 02:40:00,WRWF1,32.69,White Rock Wind Farm Pty Ltd,White Rock Wind Farm,Wind,172.0,19.01,White Rock Wind Farm,-29.79,151.54,2026-03-07T16:38:55.369881
2026/03/08 02:40:00,YENDWF1,0.0,Lal Lal Wind Farms Nom Co Pty Ltd,Yendon Wind Farm,Wind,142.0,0.0,Yendon Wind Farm,-37.629987,144.022717,2026-03-07T16:38:55.369881
