SETTLEMENTDATE,DUID,SCADAVALUE,Participant,Station Name,Fuel Source - Primary,MAX_CAP,utilisation_pct,Plant,Latitude,Longitude,timestamp_utc
2026/02/04 14:25:00,CAPTL_WF,76.87,Iberdrola Australia Holdings Pty Limited,Capital Wind Farm,Wind,140.0,54.91,Capital Wind Farm,-35.1,149.31,2026-02-04T04:23:51.585000
2026/02/04 14:25:00,CHALLHWF,1.1,Pacific Hydro Challicum Hills Pty Ltd,Challicum Hills Wind Farm,Wind,52.0,2.12,Challicum Hills Wind Farm,-37.38,143.11,2026-02-04T04:23:51.585000
2026/02/04 14:25:00,CULLRGWF,15.32,Cullerin Range Wind Farm Pty Ltd,Cullerin Range Wind Farm,Wind,30.0,51.07,Cullerin Range Wind Farm,-34.81,149.4,2026-02-04T04:23:51.585000
2026/02/04 14:25:00,DIAPURWF1,0.9,Y.E.S. Energy (SA) Pty Ltd,Diapur Wind Farm,Wind,7.0,12.86,Diapur Wind Farm,-36.3425,141.43,2026-02-04T04:23:51.585000
2026/02/04 14:25:00,MLWF1,3.32,Mortons Lane Windfarm Pty Limited,Mortons Lane Wind Farm,Wind,20.0,16.6,Mortons Lane Wind Farm,-37.84,142.45,2026-02-04T04:23:51.585000
2026/02/04 14:25:00,WAUBRAWF,31.05,Pyrenees Wind Energy Developments Pty Ltd,Waubra Wind Farm,Wind,192.0,16.17,Waubra Wind Farm,-37.394498,143.638982,2026-02-04T04:23:51.585000
2026/02/04 14:25:00,WOOLNTH1,20.65,Hydro-Electric Corporation,Woolnorth Studland Bay / Bluff Point Wind Farm,Wind,140.0,14.75,Woolnorth Studland Bay / Bluff Point Wind Farm,-40.69,144.72,2026-02-04T04:23:51.585000
2026/02/04 14:25:00,YAMBUKWF,0.7,Energy Pacific (Vic) Pty Ltd,Yambuk Wind Farm,Wind,30.0,2.33,Yambuk Wind Farm,-38.299083,142.027577,2026-02-04T04:23:51.585000
2026/02/04 14:25:00,YSWF1,4.0,Pacific Hydro Yaloak South Pty Ltd,Yaloak South Wind Farm,Wind,28.0,14.29,Yaloak South Wind Farm,-37.7163,144.242853,2026-02-04T04:23:51.585000
2026/02/04 14:25:00,ARWF1,2.4,Ararat Wind Farm Pty Ltd,Ararat Wind Farm,Wind,241.0,1.0,Ararat Wind Farm,-37.232778,143.031389,2026-02-04T04:23:51.585000
2026/02/04 14:25:00,BALDHWF1,23.59,Alinta Energy Retail Sales Pty Ltd,Bald Hills Wind Farm,Wind,106.0,22.25,Bald Hills Wind Farm,-38.79,145.93,2026-02-04T04:23:51.585000
2026/02/04 14:25:00,BANGOWF1,83.7,BWF Nominees Pty Ltd as The Trustee for BWF Trust,Bango 973 Wind Farm,Wind,155.0,54.0,Bango 973 Wind Farm,-34.551582,148.732808,2026-02-04T04:23:51.585000
2026/02/04 14:25:00,BANGOWF2,31.9,BWF Nominees Pty Ltd as The Trustee for BWF Trust,Bango 999 Wind Farm,Wind,82.0,38.9,Bango 999 Wind Farm,-34.551582,148.732808,2026-02-04T04:23:51.585000
2026/02/04 14:25:00,BLUFF1,2.3,AGL SA Generation Pty Limited,The Bluff Wind Farm,Wind,53.0,4.34,The Bluff Wind Farm,-33.367778,138.728611,2026-02-04T04:23:51.585000
2026/02/04 14:25:00,BOCORWF1,25.19,Boco Rock Wind Farm Pty Ltd,Boco Rock Wind Farm,Wind,111.0,22.69,Boco Rock Wind Farm,-36.578611,149.103333,2026-02-04T04:23:51.585000
2026/02/04 14:25:00,BRYB1WF1,18.59,Berrybank Development Pty Ltd,Berrybank Wind Farm,Wind,175.9,10.57,Berrybank Wind Farm,-37.94,143.52,2026-02-04T04:23:51.585000
2026/02/04 14:25:00,BRYB2WF2,8.62,Berrybank 2 Asset Pty Ltd as trustee for Berrybank 2 Asset Trust,Berrybank 2 Wind Farm,Wind,105.0,8.21,Berrybank 2 Wind Farm,-37.94,143.52,2026-02-04T04:23:51.585000
2026/02/04 14:25:00,BULGANA1,9.89,Bulgana Wind Farm Pty Ltd,Bulgana Green Power Hub,Wind,204.0,4.85,Bulgana Green Power Hub,-37.0975,142.973611,2026-02-04T04:23:51.585000
2026/02/04 14:25:00,CATHROCK,4.0,Cathedral Rocks Wind Farm Pty Ltd,Cathedral Rocks,Wind,66.0,6.06,Cathedral Rocks,-34.51,135.35,2026-02-04T04:23:51.585000
2026/02/04 14:25:00,CHYTWF1,6.64,Cherry Tree Wind Farm Pty Ltd as trustee for The Cherry Tree Project trust ,Cherry Tree Wind Farm,Wind,57.0,11.65,Cherry Tree Wind Farm,-37.1,145.26,2026-02-04T04:23:51.585000
2026/02/04 14:25:00,CLEMGPWF,10.01,Pacific Hydro Clements Gap Pty Ltd,Clements Gap Wind Farm,Wind,57.0,17.56,Clements Gap Wind Farm,-33.48,138.1,2026-02-04T04:23:51.585000
2026/02/04 14:25:00,CLRKCWF1,81.22,Stanwell Corporation Limited ,Clarke Creek Wind Farm,Wind,338.0,24.03,Clarke Creek Wind Farm,-22.85,149.45,2026-02-04T04:23:51.585000
2026/02/04 14:25:00,CLRKCWF2,40.12,Stanwell Corporation Limited ,Clarke Creek Wind Farm,Wind,101.0,39.72,Clarke Creek Wind Farm,-22.85,149.45,2026-02-04T04:23:51.585000
2026/02/04 14:25:00,CNUNDAWF,0.0,Canunda Power Pty Ltd,Canunda Wind Farm,Wind,46.0,0.0,Canunda Wind Farm,-37.73,140.39,2026-02-04T04:23:51.585000
2026/02/04 14:25:00,COLWF01,76.09,Collector Wind Farm Pty Ltd,Collector Wind Farm 1,Wind,219.0,34.74,Collector Wind Farm 1,-34.8719,149.3967,2026-02-04T04:23:51.585000
2026/02/04 14:25:00,COOPGWF1,38.31,PARF Company 10 Pty Limited as The Trustee for Coopers Gap Project Trust,Coopers Gap Wind Farm,Wind,440.0,8.71,Coopers Gap Wind Farm,-26.74,151.45,2026-02-04T04:23:51.585000
2026/02/04 14:25:00,CROOKWF2,53.38,Crookwell Development Pty Ltd ,Crookwell 2 Wind Farm,Wind,91.0,58.66,Crookwell 2 Wind Farm,-34.52,149.54,2026-02-04T04:23:51.585000
2026/02/04 14:25:00,CROOKWF3,31.87,Crookwell 3 Development Pty Ltd,Crookwell 3 Wind Farm,Wind,56.0,56.91,Crookwell 3 Wind Farm,-34.52,149.54,2026-02-04T04:23:51.585000
2026/02/04 14:25:00,CROWLWF1,14.11,Pacific Hydro Crowlands Pty Ltd ,Crowlands Wind Farm,Wind,79.0,17.86,Crowlands Wind Farm,-37.13,143.16,2026-02-04T04:23:51.585000
2026/02/04 14:25:00,CRURWF1,46.7,CRWF Nominees Pty Ltd As Trustee For The CRWF Trust,Crudine Ridge Wind Farm,Wind,138.0,33.84,Crudine Ridge Wind Farm,-32.97,149.64,2026-02-04T04:23:51.585000
2026/02/04 14:25:00,CTHLWF1,124.78,Wild Cattle Hill Pty Ltd,Cattle Hill Wind Farm,Wind,144.0,86.65,Cattle Hill Wind Farm,-42.15,146.69,2026-02-04T04:23:51.585000
2026/02/04 14:25:00,DULAWF1,3.1,Dulacca Energy Project Co Pty Ltd,Dulacca Wind Farm,Wind,173.0,1.79,Dulacca Wind Farm,-26.63,149.87,2026-02-04T04:23:51.585000
2026/02/04 14:25:00,DUNDWF1,16.5,Dundonnell Wind Farm Pty Ltd,Dundonnell Wind Farm,Wind,168.0,9.82,Dundonnell Wind Farm,-37.52,142.58,2026-02-04T04:23:51.585000
2026/02/04 14:25:00,DUNDWF2,4.54,Dundonnell Wind Farm Pty Ltd,Dundonnell Wind Farm,Wind,46.0,9.87,Dundonnell Wind Farm,-37.52,142.58,2026-02-04T04:23:51.585000
2026/02/04 14:25:00,DUNDWF3,3.62,Dundonnell Wind Farm Pty Ltd,Dundonnell Wind Farm,Wind,122.0,2.97,Dundonnell Wind Farm,-37.52,142.58,2026-02-04T04:23:51.585000
2026/02/04 14:25:00,ELAINWF1,6.97,Lal Lal Wind Farms Nom Co Pty Ltd,Elaine Wind Farm,Wind,82.0,8.5,Elaine Wind Farm,-37.36,144.0,2026-02-04T04:23:51.585000
2026/02/04 14:25:00,FLYCRKWF,21.24,Iberdrola Australia Energy Markets Pty Limited,Flyers Creek Wind Farm,Wind,140.0,15.17,Flyers Creek Wind Farm,-33.365556,148.981944,2026-02-04T04:23:51.585000
2026/02/04 14:25:00,GPWFEST1,28.66,Golden Plains WF1 Pty Ltd as Trustee for the Golden Plains WF1 Unit Trust,Golden Plains Wind Farm East,Wind,240.0,11.94,Golden Plains Wind Farm East,-37.945091,143.752614,2026-02-04T04:23:51.585000
2026/02/04 14:25:00,GPWFEST2,17.57,Golden Plains WF1 Pty Ltd as Trustee for the Golden Plains WF1 Unit Trust,Golden Plains Wind Farm East,Wind,253.0,6.94,Golden Plains Wind Farm East,-37.945091,143.752614,2026-02-04T04:23:51.585000
2026/02/04 14:25:00,GPWFEST3,16.5,Golden Plains WF1 Pty Ltd as Trustee for the Golden Plains WF1 Unit Trust,Golden Plains Wind Farm East,Wind,240.0,6.88,Golden Plains Wind Farm East,-37.945091,143.752614,2026-02-04T04:23:51.585000
2026/02/04 14:25:00,GRANWF1,43.28,Granville Harbour Operations Pty Ltd as The Trustee for Granville Harbour Operations Trust,Granville Harbour Wind Farm,Wind,111.0,38.99,Granville Harbour Wind Farm,-41.8,145.06,2026-02-04T04:23:51.585000
2026/02/04 14:25:00,GSWF1A,37.22,Goyder Wind Farm 1 Pty Ltd as the Trustee for Goyder Wind Farm 1 Trust,Goyder South Wind Farm 1A,Wind,201.0,18.52,Goyder South Wind Farm 1A,-33.679758,138.937597,2026-02-04T04:23:51.585000
2026/02/04 14:25:00,GSWF1B1,29.32,Goyder Wind Farm 1B Pty Ltd as the Trustee for the Goyder Wind Farm 1B Trust,Goyder South Wind Farm 1B,Wind,196.0,14.96,Goyder South Wind Farm 1B,-33.679758,138.937597,2026-02-04T04:23:51.585000
2026/02/04 14:25:00,GULLRWF1,68.13,New Gullen Range Wind Farm Pty Ltd,Gullen Range Wind Farm,Wind,161.0,42.32,Gullen Range Wind Farm,-34.34,149.27,2026-02-04T04:23:51.585000
2026/02/04 14:25:00,GULLRWF2,59.61,New Gullen Range Wind Farm Pty Ltd,Gullen Range Wind Farm,Wind,107.0,55.71,Gullen Range Wind Farm,-34.34,149.27,2026-02-04T04:23:51.585000
2026/02/04 14:25:00,GUNNING1,22.26,Gunning Wind Energy Developments Pty Ltd,Gunning Wind Farm,Wind,47.0,47.36,Gunning Wind Farm,-34.813333,149.4,2026-02-04T04:23:51.585000
2026/02/04 14:25:00,HALLWF1,3.52,AGL SA Generation Pty Limited,Hallett 1 Wind Farm,Wind,95.0,3.71,Hallett 1 Wind Farm,-33.367778,138.728611,2026-02-04T04:23:51.585000
2026/02/04 14:25:00,HALLWF2,15.79,AGL SA Generation Pty Limited,Hallett 2 Wind Farm,Wind,71.0,22.24,Hallett 2 Wind Farm,-33.367778,138.728611,2026-02-04T04:23:51.585000
2026/02/04 14:25:00,HD1WF1,14.63,Hawkesdale Asset Pty Ltd as trustee for Hawkesdale Asset Trust,Hawkesdale Wind Farm,Wind,89.0,16.44,Hawkesdale Wind Farm,-38.147894,142.361381,2026-02-04T04:23:51.585000
2026/02/04 14:25:00,HDWF1,0.4,HWF1 Pty Ltd,Hornsdale Wind Farm,Wind,102.0,0.39,Hornsdale Wind Farm,-33.050556,138.543611,2026-02-04T04:23:51.585000
2026/02/04 14:25:00,HDWF2,0.3,HWF 2 Pty Ltd,Hornsdale Wind Farm 2,Wind,102.0,0.29,Hornsdale Wind Farm 2,-33.06,138.54,2026-02-04T04:23:51.585000
2026/02/04 14:25:00,HDWF3,0.4,HWF3 Pty Ltd,Hornsdale Wind Farm 3,Wind,109.0,0.37,Hornsdale Wind Farm 3,-33.06,138.54,2026-02-04T04:23:51.585000
2026/02/04 14:25:00,KABANWF1,17.59,Kaban Wind Farm Pty Ltd as trustee for Kaban Wind Farm Trust,Kaban Wind Farm,Wind,152.0,11.57,Kaban Wind Farm,-17.56,145.41,2026-02-04T04:23:51.585000
2026/02/04 14:25:00,KEPWF1,12.0,Kennedy Energy Park Pty Ltd,Kennedy Energy Park,Wind,43.0,27.91,Kennedy Energy Park,-20.88,144.42,2026-02-04T04:23:51.585000
2026/02/04 14:25:00,KIATAWF1,3.1,Kiata ProjectCo Pty Ltd Atf Kiata Project Trust,Kiata Wind Farm,Wind,31.0,10.0,Kiata Wind Farm,-36.4,141.75,2026-02-04T04:23:51.585000
2026/02/04 14:25:00,LGAPWF1,3.0,Lincoln Gap Wind Farm (Operations) Pty Ltd,Lincoln Gap Wind Farm,Wind,123.0,2.44,Lincoln Gap Wind Farm,-32.564279,137.557328,2026-02-04T04:23:51.585000
2026/02/04 14:25:00,LGAPWF1,3.0,Lincoln Gap Wind Farm (Operations) Pty Ltd,Lincoln Gap Wind Farm,Wind,123.0,2.44,Lincoln Gap Wind Farm,-32.564279,137.557328,2026-02-04T04:23:51.585000
2026/02/04 14:25:00,LGAPWF2,2.02,Lincoln Gap Wind Farm (Operations) Pty Ltd,Lincoln Gap Wind Farm,Wind,85.0,2.38,Lincoln Gap Wind Farm,-32.564279,137.557328,2026-02-04T04:23:51.585000
2026/02/04 14:25:00,LGAPWF2,2.02,Lincoln Gap Wind Farm (Operations) Pty Ltd,Lincoln Gap Wind Farm,Wind,85.0,2.38,Lincoln Gap Wind Farm,-32.564279,137.557328,2026-02-04T04:23:51.585000
2026/02/04 14:25:00,LKBONNY1,0.98,Lake Bonney Wind Power Pty Ltd,Lake Bonney Wind Farm Stage 1,Wind,81.0,1.21,Lake Bonney Wind Farm Stage 1,-37.76,140.4,2026-02-04T04:23:51.585000
2026/02/04 14:25:00,LKBONNY2,1.62,Lake Bonney Wind Power Pty Ltd,Lake Bonney Stage 2 Windfarm,Wind,159.0,1.02,Lake Bonney Stage 2 Windfarm,-37.76,140.4,2026-02-04T04:23:51.585000
2026/02/04 14:25:00,LKBONNY3,1.0,Lake Bonney Wind Power Pty Ltd,Lake Bonney Stage 3 Wind Farm,Wind,39.0,2.56,Lake Bonney Stage 3 Wind Farm,-37.737781,140.388137,2026-02-04T04:23:51.585000
2026/02/04 14:25:00,MACARTH1,32.4,AGL Hydro Partnership,Macarthur Wind Farm,Wind,420.0,7.71,Macarthur Wind Farm,-38.048957,142.192112,2026-02-04T04:23:51.585000
2026/02/04 14:25:00,MCINTYR1,0.0,MacIntyre UJV Operator Pty Ltd,MacIntyre Wind Farm,Wind,890.0,0.0,MacIntyre Wind Farm,-28.32,151.54,2026-02-04T04:23:51.585000
2026/02/04 14:25:00,MERCER01,7.1,Mt Mercer Windfarm Pty Ltd,Mt Mercer Wind Farm,Wind,131.0,5.42,Mt Mercer Wind Farm,-37.841111,143.871111,2026-02-04T04:23:51.585000
2026/02/04 14:25:00,MEWF1,50.09,Ergon Energy Queensland Pty Ltd ,Mount Emerald Wind Farm,Wind,178.0,28.14,Mount Emerald Wind Farm,-17.133007,145.380644,2026-02-04T04:23:51.585000
2026/02/04 14:25:00,MRTLSWF1,32.3,Mortlake South Wind Farm Pty Ltd,Mortlake South Wind Farm,Wind,153.0,21.11,Mortlake South Wind Farm,-38.127337,142.857801,2026-02-04T04:23:51.585000
2026/02/04 14:25:00,MTGELWF1,14.7,Mt. Gellibrand Wind Farm Pty Ltd,Mt Gellibrand Wind Farm,Wind,132.0,11.14,Mt Gellibrand Wind Farm,-38.23,143.77,2026-02-04T04:23:51.585000
2026/02/04 14:25:00,MTMILLAR,20.1,Mt Millar Wind Farm Pty Ltd,Mt Millar Wind Farm,Wind,70.0,28.71,Mt Millar Wind Farm,-33.624444,136.703611,2026-02-04T04:23:51.585000
2026/02/04 14:25:00,MUSSELR1,48.8,Hydro-Electric Corporation,Musselroe Wind Farm,Wind,168.0,29.05,Musselroe Wind Farm,-40.780225,148.010799,2026-02-04T04:23:51.585000
2026/02/04 14:25:00,MUWAWF1,36.42,Telstra Energy (Generation) Pty Ltd,Murra Warra Wind Farm,Wind,225.7,16.14,Murra Warra Wind Farm,-36.432404,142.317853,2026-02-04T04:23:51.585000
2026/02/04 14:25:00,MUWAWF2,42.1,Murra Warra II Project Co Pty Ltd ATF The Murra Warra II Project Trust,Murra Warra Wind Farm Stage 2,Wind,203.0,20.74,Murra Warra Wind Farm Stage 2,-36.43,142.32,2026-02-04T04:23:51.585000
2026/02/04 14:25:00,NBHWF1,6.0,AGL SA Generation Pty Limited,North Brown Hill Wind Farm,Wind,132.0,4.55,North Brown Hill Wind Farm,-33.367778,138.728611,2026-02-04T04:23:51.585000
2026/02/04 14:25:00,OAKLAND1,1.7,AGL Hydro Partnership,Oaklands Hill Wind Farm,Wind,63.0,2.7,Oaklands Hill Wind Farm,-37.683078,142.551678,2026-02-04T04:23:51.585000
2026/02/04 14:25:00,PAREPW1,27.25,Iberdrola Australia Energy Markets Pty Limited,Port Augusta Renewable Energy Park,Wind,201.0,13.56,Port Augusta Renewable Energy Park,-32.566944,137.856111,2026-02-04T04:23:51.585000
2026/02/04 14:25:00,RYANCWF1,22.39,Ryan Corner Development Pty Ltd,Ryan Corner Wind Farm,Wind,205.0,10.92,Ryan Corner Wind Farm,-38.271017,142.140647,2026-02-04T04:23:51.585000
2026/02/04 14:25:00,RYEPARK1,162.42,Rye Park Renewable Energy Pty Ltd as trustee for Rye Park Wind Farm Trust,Rye Park Renewable Energy,Wind,384.0,42.3,Rye Park Renewable Energy,-32.138333,148.972778,2026-02-04T04:23:51.585000
2026/02/04 14:25:00,SALTCRK1,5.37,Salt Creek Wind Farm Pty Ltd,Salt Creek Wind Farm,Wind,54.0,9.94,Salt Creek Wind Farm,-37.95,142.63,2026-02-04T04:23:51.585000
2026/02/04 14:25:00,SAPHWF1,1.64,The Trustee For The SWF1 Operations Trust,Sapphire Wind Farm,Wind,270.0,0.61,Sapphire Wind Farm,-29.7,151.41,2026-02-04T04:23:51.585000
2026/02/04 14:25:00,SNOWNTH1,18.0,Snowtown Wind Farm Stage 2 Pty Ltd,Snowtown Wind Farm Stage 2 North,Wind,144.0,12.5,Snowtown Wind Farm Stage 2 North,-33.83,138.118611,2026-02-04T04:23:51.585000
2026/02/04 14:25:00,SNOWSTH1,17.5,Snowtown Wind Farm Stage 2 Pty Ltd,Snowtown South Wind Farm,Wind,126.0,13.89,Snowtown South Wind Farm,-33.83,138.118611,2026-02-04T04:23:51.585000
2026/02/04 14:25:00,SNOWTWN1,10.22,Snowtown Wind Farm Pty Ltd,Snowtown Wind Farm Units 1 And 47,Wind,99.0,10.32,Snowtown Wind Farm Units 1 And 47,-33.83,138.118611,2026-02-04T04:23:51.585000
2026/02/04 14:25:00,STARHLWF,0.01,Starfish Hill Wind Farm Pty Ltd,Starfish Hill Wind Farm,Wind,35.0,0.03,Starfish Hill Wind Farm,-35.58,138.14,2026-02-04T04:23:51.585000
2026/02/04 14:25:00,STOCKYD1,42.82,Stockyard Hill Wind Farm Pty Ltd,Stockyard Hill Wind Farm,Wind,511.0,8.38,Stockyard Hill Wind Farm,-37.535833,143.251389,2026-02-04T04:23:51.585000
2026/02/04 14:25:00,STWF1,0.0,PARF Company 8 Pty Ltd as The Trustee for Silverton Project Trust,Silverton Wind Farm,Wind,198.0,0.0,Silverton Wind Farm,-37.683168,142.551678,2026-02-04T04:23:51.585000
2026/02/04 14:25:00,TARALGA1,47.73,Taralga Wind Farm Nominees No 2 Pty Ltd (ATF Taralga Wind Farm Operating Trust),Taralga Wind Farm,Wind,106.0,45.03,Taralga Wind Farm,-34.42352,149.826267,2026-02-04T04:23:51.585000
2026/02/04 14:25:00,WAMBOWF1,5.72,Stanwell Corporation Limited,Wambo Wind Farm 1,Wind,245.0,2.33,Wambo Wind Farm 1,-35.187301,149.524945,2026-02-04T04:23:51.585000
2026/02/04 14:25:00,WATERLWF,23.2,Waterloo Wind Farm Pty Ltd,Waterloo Wind Farm,Wind,130.0,17.85,Waterloo Wind Farm,-34.00094,138.911567,2026-02-04T04:23:51.585000
2026/02/04 14:25:00,WGWF1,11.0,Willogoleche Power Pty Ltd As The Trustee For The Willogoleche Operating Trust,Willogoleche Wind Farm,Wind,119.0,9.24,Willogoleche Wind Farm,-33.39,138.85,2026-02-04T04:23:51.585000
2026/02/04 14:25:00,WOODLWN1,35.92,Woodlawn Wind Pty Ltd,Woodlawn Wind Farm,Wind,48.0,74.83,Woodlawn Wind Farm,-35.08,149.62,2026-02-04T04:23:51.585000
2026/02/04 14:25:00,WPWF,2.66,AGL SA Generation Pty Limited,Wattle Point Wind Farm,Wind,91.0,2.92,Wattle Point Wind Farm,-35.111624,137.7219,2026-02-04T04:23:51.585000
2026/02/04 14:25:00,WRWF1,5.67,White Rock Wind Farm Pty Ltd,White Rock Wind Farm,Wind,172.0,3.3,White Rock Wind Farm,-29.79,151.54,2026-02-04T04:23:51.585000
2026/02/04 14:25:00,YENDWF1,35.89,Lal Lal Wind Farms Nom Co Pty Ltd,Yendon Wind Farm,Wind,142.0,25.27,Yendon Wind Farm,-37.629987,144.022717,2026-02-04T04:23:51.585000
