SETTLEMENTDATE,DUID,SCADAVALUE,Participant,Station Name,Fuel Source - Primary,MAX_CAP,utilisation_pct,Plant,Latitude,Longitude,timestamp_utc
2026/02/01 21:55:00,CAPTL_WF,50.13,Iberdrola Australia Holdings Pty Limited,Capital Wind Farm,Wind,140.0,35.81,Capital Wind Farm,-35.1,149.31,2026-02-01T11:55:18.091658
2026/02/01 21:55:00,CHALLHWF,30.3,Pacific Hydro Challicum Hills Pty Ltd,Challicum Hills Wind Farm,Wind,52.0,58.27,Challicum Hills Wind Farm,-37.38,143.11,2026-02-01T11:55:18.091658
2026/02/01 21:55:00,CULLRGWF,9.4,Cullerin Range Wind Farm Pty Ltd,Cullerin Range Wind Farm,Wind,30.0,31.33,Cullerin Range Wind Farm,-34.81,149.4,2026-02-01T11:55:18.091658
2026/02/01 21:55:00,DIAPURWF1,5.8,Y.E.S. Energy (SA) Pty Ltd,Diapur Wind Farm,Wind,7.0,82.86,Diapur Wind Farm,-36.3425,141.43,2026-02-01T11:55:18.091658
2026/02/01 21:55:00,MLWF1,6.28,Mortons Lane Windfarm Pty Limited,Mortons Lane Wind Farm,Wind,20.0,31.4,Mortons Lane Wind Farm,-37.84,142.45,2026-02-01T11:55:18.091658
2026/02/01 21:55:00,WAUBRAWF,146.01,Pyrenees Wind Energy Developments Pty Ltd,Waubra Wind Farm,Wind,192.0,76.05,Waubra Wind Farm,-37.394498,143.638982,2026-02-01T11:55:18.091658
2026/02/01 21:55:00,WOOLNTH1,59.79,Hydro-Electric Corporation,Woolnorth Studland Bay / Bluff Point Wind Farm,Wind,140.0,42.71,Woolnorth Studland Bay / Bluff Point Wind Farm,-40.69,144.72,2026-02-01T11:55:18.091658
2026/02/01 21:55:00,YAMBUKWF,27.6,Energy Pacific (Vic) Pty Ltd,Yambuk Wind Farm,Wind,30.0,92.0,Yambuk Wind Farm,-38.299083,142.027577,2026-02-01T11:55:18.091658
2026/02/01 21:55:00,YSWF1,11.2,Pacific Hydro Yaloak South Pty Ltd,Yaloak South Wind Farm,Wind,28.0,40.0,Yaloak South Wind Farm,-37.7163,144.242853,2026-02-01T11:55:18.091658
2026/02/01 21:55:00,ARWF1,126.4,Ararat Wind Farm Pty Ltd,Ararat Wind Farm,Wind,241.0,52.45,Ararat Wind Farm,-37.232778,143.031389,2026-02-01T11:55:18.091658
2026/02/01 21:55:00,BALDHWF1,77.44,Alinta Energy Retail Sales Pty Ltd,Bald Hills Wind Farm,Wind,106.0,73.06,Bald Hills Wind Farm,-38.79,145.93,2026-02-01T11:55:18.091658
2026/02/01 21:55:00,BANGOWF1,127.8,BWF Nominees Pty Ltd as The Trustee for BWF Trust,Bango 973 Wind Farm,Wind,155.0,82.45,Bango 973 Wind Farm,-34.551582,148.732808,2026-02-01T11:55:18.091658
2026/02/01 21:55:00,BANGOWF2,71.5,BWF Nominees Pty Ltd as The Trustee for BWF Trust,Bango 999 Wind Farm,Wind,82.0,87.2,Bango 999 Wind Farm,-34.551582,148.732808,2026-02-01T11:55:18.091658
2026/02/01 21:55:00,BLUFF1,42.3,AGL SA Generation Pty Limited,The Bluff Wind Farm,Wind,53.0,79.81,The Bluff Wind Farm,-33.367778,138.728611,2026-02-01T11:55:18.091658
2026/02/01 21:55:00,BOCORWF1,100.27,Boco Rock Wind Farm Pty Ltd,Boco Rock Wind Farm,Wind,111.0,90.33,Boco Rock Wind Farm,-36.578611,149.103333,2026-02-01T11:55:18.091658
2026/02/01 21:55:00,BRYB1WF1,54.42,Berrybank Development Pty Ltd,Berrybank Wind Farm,Wind,175.9,30.94,Berrybank Wind Farm,-37.94,143.52,2026-02-01T11:55:18.091658
2026/02/01 21:55:00,BRYB2WF2,34.67,Berrybank 2 Asset Pty Ltd as trustee for Berrybank 2 Asset Trust,Berrybank 2 Wind Farm,Wind,105.0,33.02,Berrybank 2 Wind Farm,-37.94,143.52,2026-02-01T11:55:18.091658
2026/02/01 21:55:00,BULGANA1,0.0,Bulgana Wind Farm Pty Ltd,Bulgana Green Power Hub,Wind,204.0,0.0,Bulgana Green Power Hub,-37.0975,142.973611,2026-02-01T11:55:18.091658
2026/02/01 21:55:00,CATHROCK,18.3,Cathedral Rocks Wind Farm Pty Ltd,Cathedral Rocks,Wind,66.0,27.73,Cathedral Rocks,-34.51,135.35,2026-02-01T11:55:18.091658
2026/02/01 21:55:00,CHYTWF1,55.54,Cherry Tree Wind Farm Pty Ltd as trustee for The Cherry Tree Project trust ,Cherry Tree Wind Farm,Wind,57.0,97.44,Cherry Tree Wind Farm,-37.1,145.26,2026-02-01T11:55:18.091658
2026/02/01 21:55:00,CLEMGPWF,47.25,Pacific Hydro Clements Gap Pty Ltd,Clements Gap Wind Farm,Wind,57.0,82.89,Clements Gap Wind Farm,-33.48,138.1,2026-02-01T11:55:18.091658
2026/02/01 21:55:00,CLRKCWF1,276.89,Stanwell Corporation Limited ,Clarke Creek Wind Farm,Wind,338.0,81.92,Clarke Creek Wind Farm,-22.85,149.45,2026-02-01T11:55:18.091658
2026/02/01 21:55:00,CLRKCWF2,82.69,Stanwell Corporation Limited ,Clarke Creek Wind Farm,Wind,101.0,81.87,Clarke Creek Wind Farm,-22.85,149.45,2026-02-01T11:55:18.091658
2026/02/01 21:55:00,CNUNDAWF,8.01,Canunda Power Pty Ltd,Canunda Wind Farm,Wind,46.0,17.41,Canunda Wind Farm,-37.73,140.39,2026-02-01T11:55:18.091658
2026/02/01 21:55:00,COLWF01,43.32,Collector Wind Farm Pty Ltd,Collector Wind Farm 1,Wind,219.0,19.78,Collector Wind Farm 1,-34.8719,149.3967,2026-02-01T11:55:18.091658
2026/02/01 21:55:00,COOPGWF1,152.66,PARF Company 10 Pty Limited as The Trustee for Coopers Gap Project Trust,Coopers Gap Wind Farm,Wind,440.0,34.7,Coopers Gap Wind Farm,-26.74,151.45,2026-02-01T11:55:18.091658
2026/02/01 21:55:00,CROOKWF2,14.47,Crookwell Development Pty Ltd ,Crookwell 2 Wind Farm,Wind,91.0,15.9,Crookwell 2 Wind Farm,-34.52,149.54,2026-02-01T11:55:18.091658
2026/02/01 21:55:00,CROOKWF3,15.18,Crookwell 3 Development Pty Ltd,Crookwell 3 Wind Farm,Wind,56.0,27.11,Crookwell 3 Wind Farm,-34.52,149.54,2026-02-01T11:55:18.091658
2026/02/01 21:55:00,CROWLWF1,67.51,Pacific Hydro Crowlands Pty Ltd ,Crowlands Wind Farm,Wind,79.0,85.46,Crowlands Wind Farm,-37.13,143.16,2026-02-01T11:55:18.091658
2026/02/01 21:55:00,CRURWF1,1.6,CRWF Nominees Pty Ltd As Trustee For The CRWF Trust,Crudine Ridge Wind Farm,Wind,138.0,1.16,Crudine Ridge Wind Farm,-32.97,149.64,2026-02-01T11:55:18.091658
2026/02/01 21:55:00,CTHLWF1,69.83,Wild Cattle Hill Pty Ltd,Cattle Hill Wind Farm,Wind,144.0,48.49,Cattle Hill Wind Farm,-42.15,146.69,2026-02-01T11:55:18.091658
2026/02/01 21:55:00,DULAWF1,107.5,Dulacca Energy Project Co Pty Ltd,Dulacca Wind Farm,Wind,173.0,62.14,Dulacca Wind Farm,-26.63,149.87,2026-02-01T11:55:18.091658
2026/02/01 21:55:00,DUNDWF1,102.05,Dundonnell Wind Farm Pty Ltd,Dundonnell Wind Farm,Wind,168.0,60.74,Dundonnell Wind Farm,-37.52,142.58,2026-02-01T11:55:18.091658
2026/02/01 21:55:00,DUNDWF2,32.97,Dundonnell Wind Farm Pty Ltd,Dundonnell Wind Farm,Wind,46.0,71.67,Dundonnell Wind Farm,-37.52,142.58,2026-02-01T11:55:18.091658
2026/02/01 21:55:00,DUNDWF3,73.86,Dundonnell Wind Farm Pty Ltd,Dundonnell Wind Farm,Wind,122.0,60.54,Dundonnell Wind Farm,-37.52,142.58,2026-02-01T11:55:18.091658
2026/02/01 21:55:00,ELAINWF1,37.29,Lal Lal Wind Farms Nom Co Pty Ltd,Elaine Wind Farm,Wind,82.0,45.48,Elaine Wind Farm,-37.36,144.0,2026-02-01T11:55:18.091658
2026/02/01 21:55:00,FLYCRKWF,18.76,Iberdrola Australia Energy Markets Pty Limited,Flyers Creek Wind Farm,Wind,140.0,13.4,Flyers Creek Wind Farm,-33.365556,148.981944,2026-02-01T11:55:18.091658
2026/02/01 21:55:00,GPWFEST1,124.04,Golden Plains WF1 Pty Ltd as Trustee for the Golden Plains WF1 Unit Trust,Golden Plains Wind Farm East,Wind,240.0,51.68,Golden Plains Wind Farm East,-37.945091,143.752614,2026-02-01T11:55:18.091658
2026/02/01 21:55:00,GPWFEST2,84.79,Golden Plains WF1 Pty Ltd as Trustee for the Golden Plains WF1 Unit Trust,Golden Plains Wind Farm East,Wind,253.0,33.51,Golden Plains Wind Farm East,-37.945091,143.752614,2026-02-01T11:55:18.091658
2026/02/01 21:55:00,GPWFEST3,80.63,Golden Plains WF1 Pty Ltd as Trustee for the Golden Plains WF1 Unit Trust,Golden Plains Wind Farm East,Wind,240.0,33.6,Golden Plains Wind Farm East,-37.945091,143.752614,2026-02-01T11:55:18.091658
2026/02/01 21:55:00,GRANWF1,95.83,Granville Harbour Operations Pty Ltd as The Trustee for Granville Harbour Operations Trust,Granville Harbour Wind Farm,Wind,111.0,86.33,Granville Harbour Wind Farm,-41.8,145.06,2026-02-01T11:55:18.091658
2026/02/01 21:55:00,GSWF1A,131.47,Goyder Wind Farm 1 Pty Ltd as the Trustee for Goyder Wind Farm 1 Trust,Goyder South Wind Farm 1A,Wind,201.0,65.41,Goyder South Wind Farm 1A,-33.679758,138.937597,2026-02-01T11:55:18.091658
2026/02/01 21:55:00,GSWF1B1,146.2,Goyder Wind Farm 1B Pty Ltd as the Trustee for the Goyder Wind Farm 1B Trust,Goyder South Wind Farm 1B,Wind,196.0,74.59,Goyder South Wind Farm 1B,-33.679758,138.937597,2026-02-01T11:55:18.091658
2026/02/01 21:55:00,GULLRWF1,11.97,New Gullen Range Wind Farm Pty Ltd,Gullen Range Wind Farm,Wind,161.0,7.43,Gullen Range Wind Farm,-34.34,149.27,2026-02-01T11:55:18.091658
2026/02/01 21:55:00,GULLRWF2,1.54,New Gullen Range Wind Farm Pty Ltd,Gullen Range Wind Farm,Wind,107.0,1.44,Gullen Range Wind Farm,-34.34,149.27,2026-02-01T11:55:18.091658
2026/02/01 21:55:00,GUNNING1,8.91,Gunning Wind Energy Developments Pty Ltd,Gunning Wind Farm,Wind,47.0,18.96,Gunning Wind Farm,-34.813333,149.4,2026-02-01T11:55:18.091658
2026/02/01 21:55:00,HALLWF1,74.35,AGL SA Generation Pty Limited,Hallett 1 Wind Farm,Wind,95.0,78.26,Hallett 1 Wind Farm,-33.367778,138.728611,2026-02-01T11:55:18.091658
2026/02/01 21:55:00,HALLWF2,61.76,AGL SA Generation Pty Limited,Hallett 2 Wind Farm,Wind,71.0,86.99,Hallett 2 Wind Farm,-33.367778,138.728611,2026-02-01T11:55:18.091658
2026/02/01 21:55:00,HD1WF1,74.01,Hawkesdale Asset Pty Ltd as trustee for Hawkesdale Asset Trust,Hawkesdale Wind Farm,Wind,89.0,83.16,Hawkesdale Wind Farm,-38.147894,142.361381,2026-02-01T11:55:18.091658
2026/02/01 21:55:00,HDWF1,78.6,HWF1 Pty Ltd,Hornsdale Wind Farm,Wind,102.0,77.06,Hornsdale Wind Farm,-33.050556,138.543611,2026-02-01T11:55:18.091658
2026/02/01 21:55:00,HDWF2,91.3,HWF 2 Pty Ltd,Hornsdale Wind Farm 2,Wind,102.0,89.51,Hornsdale Wind Farm 2,-33.06,138.54,2026-02-01T11:55:18.091658
2026/02/01 21:55:00,HDWF3,96.6,HWF3 Pty Ltd,Hornsdale Wind Farm 3,Wind,109.0,88.62,Hornsdale Wind Farm 3,-33.06,138.54,2026-02-01T11:55:18.091658
2026/02/01 21:55:00,KABANWF1,0.0,Kaban Wind Farm Pty Ltd as trustee for Kaban Wind Farm Trust,Kaban Wind Farm,Wind,152.0,0.0,Kaban Wind Farm,-17.56,145.41,2026-02-01T11:55:18.091658
2026/02/01 21:55:00,KEPWF1,0.0,Kennedy Energy Park Pty Ltd,Kennedy Energy Park,Wind,43.0,0.0,Kennedy Energy Park,-20.88,144.42,2026-02-01T11:55:18.091658
2026/02/01 21:55:00,KIATAWF1,28.8,Kiata ProjectCo Pty Ltd Atf Kiata Project Trust,Kiata Wind Farm,Wind,31.0,92.9,Kiata Wind Farm,-36.4,141.75,2026-02-01T11:55:18.091658
2026/02/01 21:55:00,LGAPWF1,55.18,Lincoln Gap Wind Farm (Operations) Pty Ltd,Lincoln Gap Wind Farm,Wind,123.0,44.86,Lincoln Gap Wind Farm,-32.564279,137.557328,2026-02-01T11:55:18.091658
2026/02/01 21:55:00,LGAPWF1,55.18,Lincoln Gap Wind Farm (Operations) Pty Ltd,Lincoln Gap Wind Farm,Wind,123.0,44.86,Lincoln Gap Wind Farm,-32.564279,137.557328,2026-02-01T11:55:18.091658
2026/02/01 21:55:00,LGAPWF2,77.74,Lincoln Gap Wind Farm (Operations) Pty Ltd,Lincoln Gap Wind Farm,Wind,85.0,91.46,Lincoln Gap Wind Farm,-32.564279,137.557328,2026-02-01T11:55:18.091658
2026/02/01 21:55:00,LGAPWF2,77.74,Lincoln Gap Wind Farm (Operations) Pty Ltd,Lincoln Gap Wind Farm,Wind,85.0,91.46,Lincoln Gap Wind Farm,-32.564279,137.557328,2026-02-01T11:55:18.091658
2026/02/01 21:55:00,LKBONNY1,11.25,Lake Bonney Wind Power Pty Ltd,Lake Bonney Wind Farm Stage 1,Wind,81.0,13.89,Lake Bonney Wind Farm Stage 1,-37.76,140.4,2026-02-01T11:55:18.091658
2026/02/01 21:55:00,LKBONNY2,27.17,Lake Bonney Wind Power Pty Ltd,Lake Bonney Stage 2 Windfarm,Wind,159.0,17.09,Lake Bonney Stage 2 Windfarm,-37.76,140.4,2026-02-01T11:55:18.091658
2026/02/01 21:55:00,LKBONNY3,7.65,Lake Bonney Wind Power Pty Ltd,Lake Bonney Stage 3 Wind Farm,Wind,39.0,19.62,Lake Bonney Stage 3 Wind Farm,-37.737781,140.388137,2026-02-01T11:55:18.091658
2026/02/01 21:55:00,MACARTH1,146.7,AGL Hydro Partnership,Macarthur Wind Farm,Wind,420.0,34.93,Macarthur Wind Farm,-38.048957,142.192112,2026-02-01T11:55:18.091658
2026/02/01 21:55:00,MCINTYR1,111.66,MacIntyre UJV Operator Pty Ltd,MacIntyre Wind Farm,Wind,890.0,12.55,MacIntyre Wind Farm,-28.32,151.54,2026-02-01T11:55:18.091658
2026/02/01 21:55:00,MERCER01,46.9,Mt Mercer Windfarm Pty Ltd,Mt Mercer Wind Farm,Wind,131.0,35.8,Mt Mercer Wind Farm,-37.841111,143.871111,2026-02-01T11:55:18.091658
2026/02/01 21:55:00,MEWF1,0.0,Ergon Energy Queensland Pty Ltd ,Mount Emerald Wind Farm,Wind,178.0,0.0,Mount Emerald Wind Farm,-17.133007,145.380644,2026-02-01T11:55:18.091658
2026/02/01 21:55:00,MRTLSWF1,67.72,Mortlake South Wind Farm Pty Ltd,Mortlake South Wind Farm,Wind,153.0,44.26,Mortlake South Wind Farm,-38.127337,142.857801,2026-02-01T11:55:18.091658
2026/02/01 21:55:00,MTGELWF1,34.28,Mt. Gellibrand Wind Farm Pty Ltd,Mt Gellibrand Wind Farm,Wind,132.0,25.97,Mt Gellibrand Wind Farm,-38.23,143.77,2026-02-01T11:55:18.091658
2026/02/01 21:55:00,MTMILLAR,59.0,Mt Millar Wind Farm Pty Ltd,Mt Millar Wind Farm,Wind,70.0,84.29,Mt Millar Wind Farm,-33.624444,136.703611,2026-02-01T11:55:18.091658
2026/02/01 21:55:00,MUSSELR1,29.7,Hydro-Electric Corporation,Musselroe Wind Farm,Wind,168.0,17.68,Musselroe Wind Farm,-40.780225,148.010799,2026-02-01T11:55:18.091658
2026/02/01 21:55:00,MUWAWF1,52.25,Telstra Energy (Generation) Pty Ltd,Murra Warra Wind Farm,Wind,225.7,23.15,Murra Warra Wind Farm,-36.432404,142.317853,2026-02-01T11:55:18.091658
2026/02/01 21:55:00,MUWAWF2,45.9,Murra Warra II Project Co Pty Ltd ATF The Murra Warra II Project Trust,Murra Warra Wind Farm Stage 2,Wind,203.0,22.61,Murra Warra Wind Farm Stage 2,-36.43,142.32,2026-02-01T11:55:18.091658
2026/02/01 21:55:00,NBHWF1,109.5,AGL SA Generation Pty Limited,North Brown Hill Wind Farm,Wind,132.0,82.95,North Brown Hill Wind Farm,-33.367778,138.728611,2026-02-01T11:55:18.091658
2026/02/01 21:55:00,OAKLAND1,30.1,AGL Hydro Partnership,Oaklands Hill Wind Farm,Wind,63.0,47.78,Oaklands Hill Wind Farm,-37.683078,142.551678,2026-02-01T11:55:18.091658
2026/02/01 21:55:00,PAREPW1,134.11,Iberdrola Australia Energy Markets Pty Limited,Port Augusta Renewable Energy Park,Wind,201.0,66.72,Port Augusta Renewable Energy Park,-32.566944,137.856111,2026-02-01T11:55:18.091658
2026/02/01 21:55:00,RYANCWF1,155.58,Ryan Corner Development Pty Ltd,Ryan Corner Wind Farm,Wind,205.0,75.89,Ryan Corner Wind Farm,-38.271017,142.140647,2026-02-01T11:55:18.091658
2026/02/01 21:55:00,RYEPARK1,247.49,Rye Park Renewable Energy Pty Ltd as trustee for Rye Park Wind Farm Trust,Rye Park Renewable Energy,Wind,384.0,64.45,Rye Park Renewable Energy,-32.138333,148.972778,2026-02-01T11:55:18.091658
2026/02/01 21:55:00,SALTCRK1,19.25,Salt Creek Wind Farm Pty Ltd,Salt Creek Wind Farm,Wind,54.0,35.65,Salt Creek Wind Farm,-37.95,142.63,2026-02-01T11:55:18.091658
2026/02/01 21:55:00,SAPHWF1,26.97,The Trustee For The SWF1 Operations Trust,Sapphire Wind Farm,Wind,270.0,9.99,Sapphire Wind Farm,-29.7,151.41,2026-02-01T11:55:18.091658
2026/02/01 21:55:00,SNOWNTH1,140.8,Snowtown Wind Farm Stage 2 Pty Ltd,Snowtown Wind Farm Stage 2 North,Wind,144.0,97.78,Snowtown Wind Farm Stage 2 North,-33.83,138.118611,2026-02-01T11:55:18.091658
2026/02/01 21:55:00,SNOWSTH1,124.0,Snowtown Wind Farm Stage 2 Pty Ltd,Snowtown South Wind Farm,Wind,126.0,98.41,Snowtown South Wind Farm,-33.83,138.118611,2026-02-01T11:55:18.091658
2026/02/01 21:55:00,SNOWTWN1,90.49,Snowtown Wind Farm Pty Ltd,Snowtown Wind Farm Units 1 And 47,Wind,99.0,91.4,Snowtown Wind Farm Units 1 And 47,-33.83,138.118611,2026-02-01T11:55:18.091658
2026/02/01 21:55:00,STARHLWF,17.59,Starfish Hill Wind Farm Pty Ltd,Starfish Hill Wind Farm,Wind,35.0,50.26,Starfish Hill Wind Farm,-35.58,138.14,2026-02-01T11:55:18.091658
2026/02/01 21:55:00,STOCKYD1,440.14,Stockyard Hill Wind Farm Pty Ltd,Stockyard Hill Wind Farm,Wind,511.0,86.13,Stockyard Hill Wind Farm,-37.535833,143.251389,2026-02-01T11:55:18.091658
2026/02/01 21:55:00,STWF1,0.0,PARF Company 8 Pty Ltd as The Trustee for Silverton Project Trust,Silverton Wind Farm,Wind,198.0,0.0,Silverton Wind Farm,-37.683168,142.551678,2026-02-01T11:55:18.091658
2026/02/01 21:55:00,TARALGA1,8.18,Taralga Wind Farm Nominees No 2 Pty Ltd (ATF Taralga Wind Farm Operating Trust),Taralga Wind Farm,Wind,106.0,7.72,Taralga Wind Farm,-34.42352,149.826267,2026-02-01T11:55:18.091658
2026/02/01 21:55:00,WAMBOWF1,79.19,Stanwell Corporation Limited,Wambo Wind Farm 1,Wind,245.0,32.32,Wambo Wind Farm 1,-35.187301,149.524945,2026-02-01T11:55:18.091658
2026/02/01 21:55:00,WATERLWF,70.9,Waterloo Wind Farm Pty Ltd,Waterloo Wind Farm,Wind,130.0,54.54,Waterloo Wind Farm,-34.00094,138.911567,2026-02-01T11:55:18.091658
2026/02/01 21:55:00,WGWF1,110.1,Willogoleche Power Pty Ltd As The Trustee For The Willogoleche Operating Trust,Willogoleche Wind Farm,Wind,119.0,92.52,Willogoleche Wind Farm,-33.39,138.85,2026-02-01T11:55:18.091658
2026/02/01 21:55:00,WOODLWN1,27.04,Woodlawn Wind Pty Ltd,Woodlawn Wind Farm,Wind,48.0,56.33,Woodlawn Wind Farm,-35.08,149.62,2026-02-01T11:55:18.091658
2026/02/01 21:55:00,WPWF,71.83,AGL SA Generation Pty Limited,Wattle Point Wind Farm,Wind,91.0,78.93,Wattle Point Wind Farm,-35.111624,137.7219,2026-02-01T11:55:18.091658
2026/02/01 21:55:00,WRWF1,3.51,White Rock Wind Farm Pty Ltd,White Rock Wind Farm,Wind,172.0,2.04,White Rock Wind Farm,-29.79,151.54,2026-02-01T11:55:18.091658
2026/02/01 21:55:00,YENDWF1,56.28,Lal Lal Wind Farms Nom Co Pty Ltd,Yendon Wind Farm,Wind,142.0,39.63,Yendon Wind Farm,-37.629987,144.022717,2026-02-01T11:55:18.091658
