SETTLEMENTDATE,DUID,SCADAVALUE,Participant,Station Name,Fuel Source - Primary,MAX_CAP,utilisation_pct,Plant,Latitude,Longitude,timestamp_utc
2026/02/01 01:55:00,CAPTL_WF,25.03,Iberdrola Australia Holdings Pty Limited,Capital Wind Farm,Wind,140.0,17.88,Capital Wind Farm,-35.1,149.31,2026-01-31T15:55:48.944051
2026/02/01 01:55:00,CHALLHWF,22.9,Pacific Hydro Challicum Hills Pty Ltd,Challicum Hills Wind Farm,Wind,52.0,44.04,Challicum Hills Wind Farm,-37.38,143.11,2026-01-31T15:55:48.944051
2026/02/01 01:55:00,CULLRGWF,2.58,Cullerin Range Wind Farm Pty Ltd,Cullerin Range Wind Farm,Wind,30.0,8.6,Cullerin Range Wind Farm,-34.81,149.4,2026-01-31T15:55:48.944051
2026/02/01 01:55:00,DIAPURWF1,3.1,Y.E.S. Energy (SA) Pty Ltd,Diapur Wind Farm,Wind,7.0,44.29,Diapur Wind Farm,-36.3425,141.43,2026-01-31T15:55:48.944051
2026/02/01 01:55:00,MLWF1,1.88,Mortons Lane Windfarm Pty Limited,Mortons Lane Wind Farm,Wind,20.0,9.4,Mortons Lane Wind Farm,-37.84,142.45,2026-01-31T15:55:48.944051
2026/02/01 01:55:00,WAUBRAWF,111.67,Pyrenees Wind Energy Developments Pty Ltd,Waubra Wind Farm,Wind,192.0,58.16,Waubra Wind Farm,-37.394498,143.638982,2026-01-31T15:55:48.944051
2026/02/01 01:55:00,WOOLNTH1,67.04,Hydro-Electric Corporation,Woolnorth Studland Bay / Bluff Point Wind Farm,Wind,140.0,47.89,Woolnorth Studland Bay / Bluff Point Wind Farm,-40.69,144.72,2026-01-31T15:55:48.944051
2026/02/01 01:55:00,YAMBUKWF,20.1,Energy Pacific (Vic) Pty Ltd,Yambuk Wind Farm,Wind,30.0,67.0,Yambuk Wind Farm,-38.299083,142.027577,2026-01-31T15:55:48.944051
2026/02/01 01:55:00,YSWF1,7.9,Pacific Hydro Yaloak South Pty Ltd,Yaloak South Wind Farm,Wind,28.0,28.21,Yaloak South Wind Farm,-37.7163,144.242853,2026-01-31T15:55:48.944051
2026/02/01 01:55:00,ARWF1,141.4,Ararat Wind Farm Pty Ltd,Ararat Wind Farm,Wind,241.0,58.67,Ararat Wind Farm,-37.232778,143.031389,2026-01-31T15:55:48.944051
2026/02/01 01:55:00,BALDHWF1,27.48,Alinta Energy Retail Sales Pty Ltd,Bald Hills Wind Farm,Wind,106.0,25.92,Bald Hills Wind Farm,-38.79,145.93,2026-01-31T15:55:48.944051
2026/02/01 01:55:00,BANGOWF1,20.5,BWF Nominees Pty Ltd as The Trustee for BWF Trust,Bango 973 Wind Farm,Wind,155.0,13.23,Bango 973 Wind Farm,-34.551582,148.732808,2026-01-31T15:55:48.944051
2026/02/01 01:55:00,BANGOWF2,18.6,BWF Nominees Pty Ltd as The Trustee for BWF Trust,Bango 999 Wind Farm,Wind,82.0,22.68,Bango 999 Wind Farm,-34.551582,148.732808,2026-01-31T15:55:48.944051
2026/02/01 01:55:00,BLUFF1,17.0,AGL SA Generation Pty Limited,The Bluff Wind Farm,Wind,53.0,32.08,The Bluff Wind Farm,-33.367778,138.728611,2026-01-31T15:55:48.944051
2026/02/01 01:55:00,BOCORWF1,52.42,Boco Rock Wind Farm Pty Ltd,Boco Rock Wind Farm,Wind,111.0,47.23,Boco Rock Wind Farm,-36.578611,149.103333,2026-01-31T15:55:48.944051
2026/02/01 01:55:00,BRYB1WF1,22.04,Berrybank Development Pty Ltd,Berrybank Wind Farm,Wind,175.9,12.53,Berrybank Wind Farm,-37.94,143.52,2026-01-31T15:55:48.944051
2026/02/01 01:55:00,BRYB2WF2,17.48,Berrybank 2 Asset Pty Ltd as trustee for Berrybank 2 Asset Trust,Berrybank 2 Wind Farm,Wind,105.0,16.65,Berrybank 2 Wind Farm,-37.94,143.52,2026-01-31T15:55:48.944051
2026/02/01 01:55:00,BULGANA1,0.0,Bulgana Wind Farm Pty Ltd,Bulgana Green Power Hub,Wind,204.0,0.0,Bulgana Green Power Hub,-37.0975,142.973611,2026-01-31T15:55:48.944051
2026/02/01 01:55:00,CATHROCK,25.8,Cathedral Rocks Wind Farm Pty Ltd,Cathedral Rocks,Wind,66.0,39.09,Cathedral Rocks,-34.51,135.35,2026-01-31T15:55:48.944051
2026/02/01 01:55:00,CHYTWF1,55.63,Cherry Tree Wind Farm Pty Ltd as trustee for The Cherry Tree Project trust ,Cherry Tree Wind Farm,Wind,57.0,97.6,Cherry Tree Wind Farm,-37.1,145.26,2026-01-31T15:55:48.944051
2026/02/01 01:55:00,CLEMGPWF,50.28,Pacific Hydro Clements Gap Pty Ltd,Clements Gap Wind Farm,Wind,57.0,88.21,Clements Gap Wind Farm,-33.48,138.1,2026-01-31T15:55:48.944051
2026/02/01 01:55:00,CLRKCWF1,202.65,Stanwell Corporation Limited ,Clarke Creek Wind Farm,Wind,338.0,59.96,Clarke Creek Wind Farm,-22.85,149.45,2026-01-31T15:55:48.944051
2026/02/01 01:55:00,CLRKCWF2,42.75,Stanwell Corporation Limited ,Clarke Creek Wind Farm,Wind,101.0,42.33,Clarke Creek Wind Farm,-22.85,149.45,2026-01-31T15:55:48.944051
2026/02/01 01:55:00,CNUNDAWF,15.92,Canunda Power Pty Ltd,Canunda Wind Farm,Wind,46.0,34.61,Canunda Wind Farm,-37.73,140.39,2026-01-31T15:55:48.944051
2026/02/01 01:55:00,COLWF01,24.72,Collector Wind Farm Pty Ltd,Collector Wind Farm 1,Wind,219.0,11.29,Collector Wind Farm 1,-34.8719,149.3967,2026-01-31T15:55:48.944051
2026/02/01 01:55:00,COOPGWF1,337.37,PARF Company 10 Pty Limited as The Trustee for Coopers Gap Project Trust,Coopers Gap Wind Farm,Wind,440.0,76.68,Coopers Gap Wind Farm,-26.74,151.45,2026-01-31T15:55:48.944051
2026/02/01 01:55:00,CROOKWF2,25.79,Crookwell Development Pty Ltd ,Crookwell 2 Wind Farm,Wind,91.0,28.34,Crookwell 2 Wind Farm,-34.52,149.54,2026-01-31T15:55:48.944051
2026/02/01 01:55:00,CROOKWF3,16.73,Crookwell 3 Development Pty Ltd,Crookwell 3 Wind Farm,Wind,56.0,29.88,Crookwell 3 Wind Farm,-34.52,149.54,2026-01-31T15:55:48.944051
2026/02/01 01:55:00,CROWLWF1,73.45,Pacific Hydro Crowlands Pty Ltd ,Crowlands Wind Farm,Wind,79.0,92.97,Crowlands Wind Farm,-37.13,143.16,2026-01-31T15:55:48.944051
2026/02/01 01:55:00,CRURWF1,78.5,CRWF Nominees Pty Ltd As Trustee For The CRWF Trust,Crudine Ridge Wind Farm,Wind,138.0,56.88,Crudine Ridge Wind Farm,-32.97,149.64,2026-01-31T15:55:48.944051
2026/02/01 01:55:00,CTHLWF1,93.76,Wild Cattle Hill Pty Ltd,Cattle Hill Wind Farm,Wind,144.0,65.11,Cattle Hill Wind Farm,-42.15,146.69,2026-01-31T15:55:48.944051
2026/02/01 01:55:00,DULAWF1,156.6,Dulacca Energy Project Co Pty Ltd,Dulacca Wind Farm,Wind,173.0,90.52,Dulacca Wind Farm,-26.63,149.87,2026-01-31T15:55:48.944051
2026/02/01 01:55:00,DUNDWF1,22.34,Dundonnell Wind Farm Pty Ltd,Dundonnell Wind Farm,Wind,168.0,13.3,Dundonnell Wind Farm,-37.52,142.58,2026-01-31T15:55:48.944051
2026/02/01 01:55:00,DUNDWF2,6.94,Dundonnell Wind Farm Pty Ltd,Dundonnell Wind Farm,Wind,46.0,15.09,Dundonnell Wind Farm,-37.52,142.58,2026-01-31T15:55:48.944051
2026/02/01 01:55:00,DUNDWF3,23.02,Dundonnell Wind Farm Pty Ltd,Dundonnell Wind Farm,Wind,122.0,18.87,Dundonnell Wind Farm,-37.52,142.58,2026-01-31T15:55:48.944051
2026/02/01 01:55:00,ELAINWF1,12.97,Lal Lal Wind Farms Nom Co Pty Ltd,Elaine Wind Farm,Wind,82.0,15.82,Elaine Wind Farm,-37.36,144.0,2026-01-31T15:55:48.944051
2026/02/01 01:55:00,FLYCRKWF,4.03,Iberdrola Australia Energy Markets Pty Limited,Flyers Creek Wind Farm,Wind,140.0,2.88,Flyers Creek Wind Farm,-33.365556,148.981944,2026-01-31T15:55:48.944051
2026/02/01 01:55:00,GPWFEST1,39.52,Golden Plains WF1 Pty Ltd as Trustee for the Golden Plains WF1 Unit Trust,Golden Plains Wind Farm East,Wind,240.0,16.47,Golden Plains Wind Farm East,-37.945091,143.752614,2026-01-31T15:55:48.944051
2026/02/01 01:55:00,GPWFEST2,28.79,Golden Plains WF1 Pty Ltd as Trustee for the Golden Plains WF1 Unit Trust,Golden Plains Wind Farm East,Wind,253.0,11.38,Golden Plains Wind Farm East,-37.945091,143.752614,2026-01-31T15:55:48.944051
2026/02/01 01:55:00,GPWFEST3,38.34,Golden Plains WF1 Pty Ltd as Trustee for the Golden Plains WF1 Unit Trust,Golden Plains Wind Farm East,Wind,240.0,15.98,Golden Plains Wind Farm East,-37.945091,143.752614,2026-01-31T15:55:48.944051
2026/02/01 01:55:00,GRANWF1,36.17,Granville Harbour Operations Pty Ltd as The Trustee for Granville Harbour Operations Trust,Granville Harbour Wind Farm,Wind,111.0,32.59,Granville Harbour Wind Farm,-41.8,145.06,2026-01-31T15:55:48.944051
2026/02/01 01:55:00,GSWF1A,56.43,Goyder Wind Farm 1 Pty Ltd as the Trustee for Goyder Wind Farm 1 Trust,Goyder South Wind Farm 1A,Wind,201.0,28.07,Goyder South Wind Farm 1A,-33.679758,138.937597,2026-01-31T15:55:48.944051
2026/02/01 01:55:00,GSWF1B1,62.54,Goyder Wind Farm 1B Pty Ltd as the Trustee for the Goyder Wind Farm 1B Trust,Goyder South Wind Farm 1B,Wind,196.0,31.91,Goyder South Wind Farm 1B,-33.679758,138.937597,2026-01-31T15:55:48.944051
2026/02/01 01:55:00,GULLRWF1,42.29,New Gullen Range Wind Farm Pty Ltd,Gullen Range Wind Farm,Wind,161.0,26.27,Gullen Range Wind Farm,-34.34,149.27,2026-01-31T15:55:48.944051
2026/02/01 01:55:00,GULLRWF2,55.93,New Gullen Range Wind Farm Pty Ltd,Gullen Range Wind Farm,Wind,107.0,52.27,Gullen Range Wind Farm,-34.34,149.27,2026-01-31T15:55:48.944051
2026/02/01 01:55:00,GUNNING1,11.22,Gunning Wind Energy Developments Pty Ltd,Gunning Wind Farm,Wind,47.0,23.87,Gunning Wind Farm,-34.813333,149.4,2026-01-31T15:55:48.944051
2026/02/01 01:55:00,HALLWF1,45.76,AGL SA Generation Pty Limited,Hallett 1 Wind Farm,Wind,95.0,48.17,Hallett 1 Wind Farm,-33.367778,138.728611,2026-01-31T15:55:48.944051
2026/02/01 01:55:00,HALLWF2,33.73,AGL SA Generation Pty Limited,Hallett 2 Wind Farm,Wind,71.0,47.51,Hallett 2 Wind Farm,-33.367778,138.728611,2026-01-31T15:55:48.944051
2026/02/01 01:55:00,HD1WF1,21.23,Hawkesdale Asset Pty Ltd as trustee for Hawkesdale Asset Trust,Hawkesdale Wind Farm,Wind,89.0,23.85,Hawkesdale Wind Farm,-38.147894,142.361381,2026-01-31T15:55:48.944051
2026/02/01 01:55:00,HDWF1,54.1,HWF1 Pty Ltd,Hornsdale Wind Farm,Wind,102.0,53.04,Hornsdale Wind Farm,-33.050556,138.543611,2026-01-31T15:55:48.944051
2026/02/01 01:55:00,HDWF2,29.1,HWF 2 Pty Ltd,Hornsdale Wind Farm 2,Wind,102.0,28.53,Hornsdale Wind Farm 2,-33.06,138.54,2026-01-31T15:55:48.944051
2026/02/01 01:55:00,HDWF3,30.7,HWF3 Pty Ltd,Hornsdale Wind Farm 3,Wind,109.0,28.17,Hornsdale Wind Farm 3,-33.06,138.54,2026-01-31T15:55:48.944051
2026/02/01 01:55:00,KABANWF1,1.76,Kaban Wind Farm Pty Ltd as trustee for Kaban Wind Farm Trust,Kaban Wind Farm,Wind,152.0,1.16,Kaban Wind Farm,-17.56,145.41,2026-01-31T15:55:48.944051
2026/02/01 01:55:00,KEPWF1,0.0,Kennedy Energy Park Pty Ltd,Kennedy Energy Park,Wind,43.0,0.0,Kennedy Energy Park,-20.88,144.42,2026-01-31T15:55:48.944051
2026/02/01 01:55:00,KIATAWF1,22.8,Kiata ProjectCo Pty Ltd Atf Kiata Project Trust,Kiata Wind Farm,Wind,31.0,73.55,Kiata Wind Farm,-36.4,141.75,2026-01-31T15:55:48.944051
2026/02/01 01:55:00,LGAPWF1,70.68,Lincoln Gap Wind Farm (Operations) Pty Ltd,Lincoln Gap Wind Farm,Wind,123.0,57.46,Lincoln Gap Wind Farm,-32.564279,137.557328,2026-01-31T15:55:48.944051
2026/02/01 01:55:00,LGAPWF1,70.68,Lincoln Gap Wind Farm (Operations) Pty Ltd,Lincoln Gap Wind Farm,Wind,123.0,57.46,Lincoln Gap Wind Farm,-32.564279,137.557328,2026-01-31T15:55:48.944051
2026/02/01 01:55:00,LGAPWF2,78.23,Lincoln Gap Wind Farm (Operations) Pty Ltd,Lincoln Gap Wind Farm,Wind,85.0,92.04,Lincoln Gap Wind Farm,-32.564279,137.557328,2026-01-31T15:55:48.944051
2026/02/01 01:55:00,LGAPWF2,78.23,Lincoln Gap Wind Farm (Operations) Pty Ltd,Lincoln Gap Wind Farm,Wind,85.0,92.04,Lincoln Gap Wind Farm,-32.564279,137.557328,2026-01-31T15:55:48.944051
2026/02/01 01:55:00,LKBONNY1,29.74,Lake Bonney Wind Power Pty Ltd,Lake Bonney Wind Farm Stage 1,Wind,81.0,36.72,Lake Bonney Wind Farm Stage 1,-37.76,140.4,2026-01-31T15:55:48.944051
2026/02/01 01:55:00,LKBONNY2,50.87,Lake Bonney Wind Power Pty Ltd,Lake Bonney Stage 2 Windfarm,Wind,159.0,31.99,Lake Bonney Stage 2 Windfarm,-37.76,140.4,2026-01-31T15:55:48.944051
2026/02/01 01:55:00,LKBONNY3,11.61,Lake Bonney Wind Power Pty Ltd,Lake Bonney Stage 3 Wind Farm,Wind,39.0,29.77,Lake Bonney Stage 3 Wind Farm,-37.737781,140.388137,2026-01-31T15:55:48.944051
2026/02/01 01:55:00,MACARTH1,22.6,AGL Hydro Partnership,Macarthur Wind Farm,Wind,420.0,5.38,Macarthur Wind Farm,-38.048957,142.192112,2026-01-31T15:55:48.944051
2026/02/01 01:55:00,MCINTYR1,115.11,MacIntyre UJV Operator Pty Ltd,MacIntyre Wind Farm,Wind,890.0,12.93,MacIntyre Wind Farm,-28.32,151.54,2026-01-31T15:55:48.944051
2026/02/01 01:55:00,MERCER01,25.7,Mt Mercer Windfarm Pty Ltd,Mt Mercer Wind Farm,Wind,131.0,19.62,Mt Mercer Wind Farm,-37.841111,143.871111,2026-01-31T15:55:48.944051
2026/02/01 01:55:00,MEWF1,0.0,Ergon Energy Queensland Pty Ltd ,Mount Emerald Wind Farm,Wind,178.0,0.0,Mount Emerald Wind Farm,-17.133007,145.380644,2026-01-31T15:55:48.944051
2026/02/01 01:55:00,MRTLSWF1,8.76,Mortlake South Wind Farm Pty Ltd,Mortlake South Wind Farm,Wind,153.0,5.73,Mortlake South Wind Farm,-38.127337,142.857801,2026-01-31T15:55:48.944051
2026/02/01 01:55:00,MTGELWF1,8.32,Mt. Gellibrand Wind Farm Pty Ltd,Mt Gellibrand Wind Farm,Wind,132.0,6.3,Mt Gellibrand Wind Farm,-38.23,143.77,2026-01-31T15:55:48.944051
2026/02/01 01:55:00,MTMILLAR,36.0,Mt Millar Wind Farm Pty Ltd,Mt Millar Wind Farm,Wind,70.0,51.43,Mt Millar Wind Farm,-33.624444,136.703611,2026-01-31T15:55:48.944051
2026/02/01 01:55:00,MUSSELR1,133.9,Hydro-Electric Corporation,Musselroe Wind Farm,Wind,168.0,79.7,Musselroe Wind Farm,-40.780225,148.010799,2026-01-31T15:55:48.944051
2026/02/01 01:55:00,MUWAWF1,52.33,Telstra Energy (Generation) Pty Ltd,Murra Warra Wind Farm,Wind,225.7,23.19,Murra Warra Wind Farm,-36.432404,142.317853,2026-01-31T15:55:48.944051
2026/02/01 01:55:00,MUWAWF2,47.3,Murra Warra II Project Co Pty Ltd ATF The Murra Warra II Project Trust,Murra Warra Wind Farm Stage 2,Wind,203.0,23.3,Murra Warra Wind Farm Stage 2,-36.43,142.32,2026-01-31T15:55:48.944051
2026/02/01 01:55:00,NBHWF1,61.2,AGL SA Generation Pty Limited,North Brown Hill Wind Farm,Wind,132.0,46.36,North Brown Hill Wind Farm,-33.367778,138.728611,2026-01-31T15:55:48.944051
2026/02/01 01:55:00,OAKLAND1,22.8,AGL Hydro Partnership,Oaklands Hill Wind Farm,Wind,63.0,36.19,Oaklands Hill Wind Farm,-37.683078,142.551678,2026-01-31T15:55:48.944051
2026/02/01 01:55:00,PAREPW1,194.74,Iberdrola Australia Energy Markets Pty Limited,Port Augusta Renewable Energy Park,Wind,201.0,96.89,Port Augusta Renewable Energy Park,-32.566944,137.856111,2026-01-31T15:55:48.944051
2026/02/01 01:55:00,RYANCWF1,84.21,Ryan Corner Development Pty Ltd,Ryan Corner Wind Farm,Wind,205.0,41.08,Ryan Corner Wind Farm,-38.271017,142.140647,2026-01-31T15:55:48.944051
2026/02/01 01:55:00,RYEPARK1,217.31,Rye Park Renewable Energy Pty Ltd as trustee for Rye Park Wind Farm Trust,Rye Park Renewable Energy,Wind,384.0,56.59,Rye Park Renewable Energy,-32.138333,148.972778,2026-01-31T15:55:48.944051
2026/02/01 01:55:00,SALTCRK1,4.93,Salt Creek Wind Farm Pty Ltd,Salt Creek Wind Farm,Wind,54.0,9.13,Salt Creek Wind Farm,-37.95,142.63,2026-01-31T15:55:48.944051
2026/02/01 01:55:00,SAPHWF1,10.23,The Trustee For The SWF1 Operations Trust,Sapphire Wind Farm,Wind,270.0,3.79,Sapphire Wind Farm,-29.7,151.41,2026-01-31T15:55:48.944051
2026/02/01 01:55:00,SNOWNTH1,140.4,Snowtown Wind Farm Stage 2 Pty Ltd,Snowtown Wind Farm Stage 2 North,Wind,144.0,97.5,Snowtown Wind Farm Stage 2 North,-33.83,138.118611,2026-01-31T15:55:48.944051
2026/02/01 01:55:00,SNOWSTH1,121.2,Snowtown Wind Farm Stage 2 Pty Ltd,Snowtown South Wind Farm,Wind,126.0,96.19,Snowtown South Wind Farm,-33.83,138.118611,2026-01-31T15:55:48.944051
2026/02/01 01:55:00,SNOWTWN1,93.18,Snowtown Wind Farm Pty Ltd,Snowtown Wind Farm Units 1 And 47,Wind,99.0,94.12,Snowtown Wind Farm Units 1 And 47,-33.83,138.118611,2026-01-31T15:55:48.944051
2026/02/01 01:55:00,STARHLWF,13.5,Starfish Hill Wind Farm Pty Ltd,Starfish Hill Wind Farm,Wind,35.0,38.57,Starfish Hill Wind Farm,-35.58,138.14,2026-01-31T15:55:48.944051
2026/02/01 01:55:00,STOCKYD1,312.79,Stockyard Hill Wind Farm Pty Ltd,Stockyard Hill Wind Farm,Wind,511.0,61.21,Stockyard Hill Wind Farm,-37.535833,143.251389,2026-01-31T15:55:48.944051
2026/02/01 01:55:00,STWF1,0.0,PARF Company 8 Pty Ltd as The Trustee for Silverton Project Trust,Silverton Wind Farm,Wind,198.0,0.0,Silverton Wind Farm,-37.683168,142.551678,2026-01-31T15:55:48.944051
2026/02/01 01:55:00,TARALGA1,12.52,Taralga Wind Farm Nominees No 2 Pty Ltd (ATF Taralga Wind Farm Operating Trust),Taralga Wind Farm,Wind,106.0,11.81,Taralga Wind Farm,-34.42352,149.826267,2026-01-31T15:55:48.944051
2026/02/01 01:55:00,WAMBOWF1,55.55,Stanwell Corporation Limited,Wambo Wind Farm 1,Wind,245.0,22.67,Wambo Wind Farm 1,-35.187301,149.524945,2026-01-31T15:55:48.944051
2026/02/01 01:55:00,WATERLWF,31.9,Waterloo Wind Farm Pty Ltd,Waterloo Wind Farm,Wind,130.0,24.54,Waterloo Wind Farm,-34.00094,138.911567,2026-01-31T15:55:48.944051
2026/02/01 01:55:00,WGWF1,63.7,Willogoleche Power Pty Ltd As The Trustee For The Willogoleche Operating Trust,Willogoleche Wind Farm,Wind,119.0,53.53,Willogoleche Wind Farm,-33.39,138.85,2026-01-31T15:55:48.944051
2026/02/01 01:55:00,WOODLWN1,8.35,Woodlawn Wind Pty Ltd,Woodlawn Wind Farm,Wind,48.0,17.4,Woodlawn Wind Farm,-35.08,149.62,2026-01-31T15:55:48.944051
2026/02/01 01:55:00,WPWF,54.32,AGL SA Generation Pty Limited,Wattle Point Wind Farm,Wind,91.0,59.69,Wattle Point Wind Farm,-35.111624,137.7219,2026-01-31T15:55:48.944051
2026/02/01 01:55:00,WRWF1,4.83,White Rock Wind Farm Pty Ltd,White Rock Wind Farm,Wind,172.0,2.81,White Rock Wind Farm,-29.79,151.54,2026-01-31T15:55:48.944051
2026/02/01 01:55:00,YENDWF1,29.07,Lal Lal Wind Farms Nom Co Pty Ltd,Yendon Wind Farm,Wind,142.0,20.47,Yendon Wind Farm,-37.629987,144.022717,2026-01-31T15:55:48.944051
