SETTLEMENTDATE,DUID,SCADAVALUE,Participant,Station Name,Fuel Source - Primary,MAX_CAP,utilisation_pct,Plant,Latitude,Longitude,timestamp_utc
2026/02/07 23:30:00,CAPTL_WF,89.26,Iberdrola Australia Holdings Pty Limited,Capital Wind Farm,Wind,140.0,63.76,Capital Wind Farm,-35.1,149.31,2026-02-07T13:28:22.831989
2026/02/07 23:30:00,CHALLHWF,10.6,Pacific Hydro Challicum Hills Pty Ltd,Challicum Hills Wind Farm,Wind,52.0,20.38,Challicum Hills Wind Farm,-37.38,143.11,2026-02-07T13:28:22.831989
2026/02/07 23:30:00,CULLRGWF,2.76,Cullerin Range Wind Farm Pty Ltd,Cullerin Range Wind Farm,Wind,30.0,9.2,Cullerin Range Wind Farm,-34.81,149.4,2026-02-07T13:28:22.831989
2026/02/07 23:30:00,DIAPURWF1,8.1,Y.E.S. Energy (SA) Pty Ltd,Diapur Wind Farm,Wind,7.0,115.71,Diapur Wind Farm,-36.3425,141.43,2026-02-07T13:28:22.831989
2026/02/07 23:30:00,MLWF1,2.82,Mortons Lane Windfarm Pty Limited,Mortons Lane Wind Farm,Wind,20.0,14.1,Mortons Lane Wind Farm,-37.84,142.45,2026-02-07T13:28:22.831989
2026/02/07 23:30:00,WAUBRAWF,106.34,Pyrenees Wind Energy Developments Pty Ltd,Waubra Wind Farm,Wind,192.0,55.39,Waubra Wind Farm,-37.394498,143.638982,2026-02-07T13:28:22.831989
2026/02/07 23:30:00,WOOLNTH1,11.64,Hydro-Electric Corporation,Woolnorth Studland Bay / Bluff Point Wind Farm,Wind,140.0,8.31,Woolnorth Studland Bay / Bluff Point Wind Farm,-40.69,144.72,2026-02-07T13:28:22.831989
2026/02/07 23:30:00,YAMBUKWF,3.8,Energy Pacific (Vic) Pty Ltd,Yambuk Wind Farm,Wind,30.0,12.67,Yambuk Wind Farm,-38.299083,142.027577,2026-02-07T13:28:22.831989
2026/02/07 23:30:00,YSWF1,9.6,Pacific Hydro Yaloak South Pty Ltd,Yaloak South Wind Farm,Wind,28.0,34.29,Yaloak South Wind Farm,-37.7163,144.242853,2026-02-07T13:28:22.831989
2026/02/07 23:30:00,ARWF1,73.8,Ararat Wind Farm Pty Ltd,Ararat Wind Farm,Wind,241.0,30.62,Ararat Wind Farm,-37.232778,143.031389,2026-02-07T13:28:22.831989
2026/02/07 23:30:00,BALDHWF1,83.27,Alinta Energy Retail Sales Pty Ltd,Bald Hills Wind Farm,Wind,106.0,78.56,Bald Hills Wind Farm,-38.79,145.93,2026-02-07T13:28:22.831989
2026/02/07 23:30:00,BANGOWF1,43.3,BWF Nominees Pty Ltd as The Trustee for BWF Trust,Bango 973 Wind Farm,Wind,155.0,27.94,Bango 973 Wind Farm,-34.551582,148.732808,2026-02-07T13:28:22.831989
2026/02/07 23:30:00,BANGOWF2,17.3,BWF Nominees Pty Ltd as The Trustee for BWF Trust,Bango 999 Wind Farm,Wind,82.0,21.1,Bango 999 Wind Farm,-34.551582,148.732808,2026-02-07T13:28:22.831989
2026/02/07 23:30:00,BLUFF1,17.9,AGL SA Generation Pty Limited,The Bluff Wind Farm,Wind,53.0,33.77,The Bluff Wind Farm,-33.367778,138.728611,2026-02-07T13:28:22.831989
2026/02/07 23:30:00,BOCORWF1,60.38,Boco Rock Wind Farm Pty Ltd,Boco Rock Wind Farm,Wind,111.0,54.4,Boco Rock Wind Farm,-36.578611,149.103333,2026-02-07T13:28:22.831989
2026/02/07 23:30:00,BRYB1WF1,101.38,Berrybank Development Pty Ltd,Berrybank Wind Farm,Wind,175.9,57.64,Berrybank Wind Farm,-37.94,143.52,2026-02-07T13:28:22.831989
2026/02/07 23:30:00,BRYB2WF2,63.82,Berrybank 2 Asset Pty Ltd as trustee for Berrybank 2 Asset Trust,Berrybank 2 Wind Farm,Wind,105.0,60.78,Berrybank 2 Wind Farm,-37.94,143.52,2026-02-07T13:28:22.831989
2026/02/07 23:30:00,BULGANA1,92.53,Bulgana Wind Farm Pty Ltd,Bulgana Green Power Hub,Wind,204.0,45.36,Bulgana Green Power Hub,-37.0975,142.973611,2026-02-07T13:28:22.831989
2026/02/07 23:30:00,CATHROCK,4.2,Cathedral Rocks Wind Farm Pty Ltd,Cathedral Rocks,Wind,66.0,6.36,Cathedral Rocks,-34.51,135.35,2026-02-07T13:28:22.831989
2026/02/07 23:30:00,CHYTWF1,38.57,Cherry Tree Wind Farm Pty Ltd as trustee for The Cherry Tree Project trust ,Cherry Tree Wind Farm,Wind,57.0,67.67,Cherry Tree Wind Farm,-37.1,145.26,2026-02-07T13:28:22.831989
2026/02/07 23:30:00,CLEMGPWF,8.72,Pacific Hydro Clements Gap Pty Ltd,Clements Gap Wind Farm,Wind,57.0,15.3,Clements Gap Wind Farm,-33.48,138.1,2026-02-07T13:28:22.831989
2026/02/07 23:30:00,CLRKCWF1,319.57,Stanwell Corporation Limited ,Clarke Creek Wind Farm,Wind,338.0,94.55,Clarke Creek Wind Farm,-22.85,149.45,2026-02-07T13:28:22.831989
2026/02/07 23:30:00,CLRKCWF2,88.91,Stanwell Corporation Limited ,Clarke Creek Wind Farm,Wind,101.0,88.03,Clarke Creek Wind Farm,-22.85,149.45,2026-02-07T13:28:22.831989
2026/02/07 23:30:00,CNUNDAWF,12.41,Canunda Power Pty Ltd,Canunda Wind Farm,Wind,46.0,26.98,Canunda Wind Farm,-37.73,140.39,2026-02-07T13:28:22.831989
2026/02/07 23:30:00,COLWF01,15.86,Collector Wind Farm Pty Ltd,Collector Wind Farm 1,Wind,219.0,7.24,Collector Wind Farm 1,-34.8719,149.3967,2026-02-07T13:28:22.831989
2026/02/07 23:30:00,COOPGWF1,320.41,PARF Company 10 Pty Limited as The Trustee for Coopers Gap Project Trust,Coopers Gap Wind Farm,Wind,440.0,72.82,Coopers Gap Wind Farm,-26.74,151.45,2026-02-07T13:28:22.831989
2026/02/07 23:30:00,CROOKWF2,2.08,Crookwell Development Pty Ltd ,Crookwell 2 Wind Farm,Wind,91.0,2.29,Crookwell 2 Wind Farm,-34.52,149.54,2026-02-07T13:28:22.831989
2026/02/07 23:30:00,CROOKWF3,0.0,Crookwell 3 Development Pty Ltd,Crookwell 3 Wind Farm,Wind,56.0,0.0,Crookwell 3 Wind Farm,-34.52,149.54,2026-02-07T13:28:22.831989
2026/02/07 23:30:00,CROWLWF1,39.56,Pacific Hydro Crowlands Pty Ltd ,Crowlands Wind Farm,Wind,79.0,50.08,Crowlands Wind Farm,-37.13,143.16,2026-02-07T13:28:22.831989
2026/02/07 23:30:00,CRURWF1,42.9,CRWF Nominees Pty Ltd As Trustee For The CRWF Trust,Crudine Ridge Wind Farm,Wind,138.0,31.09,Crudine Ridge Wind Farm,-32.97,149.64,2026-02-07T13:28:22.831989
2026/02/07 23:30:00,CTHLWF1,0.0,Wild Cattle Hill Pty Ltd,Cattle Hill Wind Farm,Wind,144.0,0.0,Cattle Hill Wind Farm,-42.15,146.69,2026-02-07T13:28:22.831989
2026/02/07 23:30:00,DULAWF1,137.2,Dulacca Energy Project Co Pty Ltd,Dulacca Wind Farm,Wind,173.0,79.31,Dulacca Wind Farm,-26.63,149.87,2026-02-07T13:28:22.831989
2026/02/07 23:30:00,DUNDWF1,31.06,Dundonnell Wind Farm Pty Ltd,Dundonnell Wind Farm,Wind,168.0,18.49,Dundonnell Wind Farm,-37.52,142.58,2026-02-07T13:28:22.831989
2026/02/07 23:30:00,DUNDWF2,9.84,Dundonnell Wind Farm Pty Ltd,Dundonnell Wind Farm,Wind,46.0,21.39,Dundonnell Wind Farm,-37.52,142.58,2026-02-07T13:28:22.831989
2026/02/07 23:30:00,DUNDWF3,26.78,Dundonnell Wind Farm Pty Ltd,Dundonnell Wind Farm,Wind,122.0,21.95,Dundonnell Wind Farm,-37.52,142.58,2026-02-07T13:28:22.831989
2026/02/07 23:30:00,ELAINWF1,24.67,Lal Lal Wind Farms Nom Co Pty Ltd,Elaine Wind Farm,Wind,82.0,30.09,Elaine Wind Farm,-37.36,144.0,2026-02-07T13:28:22.831989
2026/02/07 23:30:00,FLYCRKWF,43.57,Iberdrola Australia Energy Markets Pty Limited,Flyers Creek Wind Farm,Wind,140.0,31.12,Flyers Creek Wind Farm,-33.365556,148.981944,2026-02-07T13:28:22.831989
2026/02/07 23:30:00,GPWFEST1,117.61,Golden Plains WF1 Pty Ltd as Trustee for the Golden Plains WF1 Unit Trust,Golden Plains Wind Farm East,Wind,240.0,49.0,Golden Plains Wind Farm East,-37.945091,143.752614,2026-02-07T13:28:22.831989
2026/02/07 23:30:00,GPWFEST2,128.21,Golden Plains WF1 Pty Ltd as Trustee for the Golden Plains WF1 Unit Trust,Golden Plains Wind Farm East,Wind,253.0,50.68,Golden Plains Wind Farm East,-37.945091,143.752614,2026-02-07T13:28:22.831989
2026/02/07 23:30:00,GPWFEST3,134.02,Golden Plains WF1 Pty Ltd as Trustee for the Golden Plains WF1 Unit Trust,Golden Plains Wind Farm East,Wind,240.0,55.84,Golden Plains Wind Farm East,-37.945091,143.752614,2026-02-07T13:28:22.831989
2026/02/07 23:30:00,GRANWF1,0.0,Granville Harbour Operations Pty Ltd as The Trustee for Granville Harbour Operations Trust,Granville Harbour Wind Farm,Wind,111.0,0.0,Granville Harbour Wind Farm,-41.8,145.06,2026-02-07T13:28:22.831989
2026/02/07 23:30:00,GSWF1A,87.01,Goyder Wind Farm 1 Pty Ltd as the Trustee for Goyder Wind Farm 1 Trust,Goyder South Wind Farm 1A,Wind,201.0,43.29,Goyder South Wind Farm 1A,-33.679758,138.937597,2026-02-07T13:28:22.831989
2026/02/07 23:30:00,GSWF1B1,67.31,Goyder Wind Farm 1B Pty Ltd as the Trustee for the Goyder Wind Farm 1B Trust,Goyder South Wind Farm 1B,Wind,196.0,34.34,Goyder South Wind Farm 1B,-33.679758,138.937597,2026-02-07T13:28:22.831989
2026/02/07 23:30:00,GULLRWF1,11.29,New Gullen Range Wind Farm Pty Ltd,Gullen Range Wind Farm,Wind,161.0,7.01,Gullen Range Wind Farm,-34.34,149.27,2026-02-07T13:28:22.831989
2026/02/07 23:30:00,GULLRWF2,10.68,New Gullen Range Wind Farm Pty Ltd,Gullen Range Wind Farm,Wind,107.0,9.98,Gullen Range Wind Farm,-34.34,149.27,2026-02-07T13:28:22.831989
2026/02/07 23:30:00,GUNNING1,0.0,Gunning Wind Energy Developments Pty Ltd,Gunning Wind Farm,Wind,47.0,0.0,Gunning Wind Farm,-34.813333,149.4,2026-02-07T13:28:22.831989
2026/02/07 23:30:00,HALLWF1,57.62,AGL SA Generation Pty Limited,Hallett 1 Wind Farm,Wind,95.0,60.65,Hallett 1 Wind Farm,-33.367778,138.728611,2026-02-07T13:28:22.831989
2026/02/07 23:30:00,HALLWF2,29.47,AGL SA Generation Pty Limited,Hallett 2 Wind Farm,Wind,71.0,41.51,Hallett 2 Wind Farm,-33.367778,138.728611,2026-02-07T13:28:22.831989
2026/02/07 23:30:00,HD1WF1,66.64,Hawkesdale Asset Pty Ltd as trustee for Hawkesdale Asset Trust,Hawkesdale Wind Farm,Wind,89.0,74.88,Hawkesdale Wind Farm,-38.147894,142.361381,2026-02-07T13:28:22.831989
2026/02/07 23:30:00,HDWF1,70.4,HWF1 Pty Ltd,Hornsdale Wind Farm,Wind,102.0,69.02,Hornsdale Wind Farm,-33.050556,138.543611,2026-02-07T13:28:22.831989
2026/02/07 23:30:00,HDWF2,20.9,HWF 2 Pty Ltd,Hornsdale Wind Farm 2,Wind,102.0,20.49,Hornsdale Wind Farm 2,-33.06,138.54,2026-02-07T13:28:22.831989
2026/02/07 23:30:00,HDWF3,47.6,HWF3 Pty Ltd,Hornsdale Wind Farm 3,Wind,109.0,43.67,Hornsdale Wind Farm 3,-33.06,138.54,2026-02-07T13:28:22.831989
2026/02/07 23:30:00,KABANWF1,2.03,Kaban Wind Farm Pty Ltd as trustee for Kaban Wind Farm Trust,Kaban Wind Farm,Wind,152.0,1.34,Kaban Wind Farm,-17.56,145.41,2026-02-07T13:28:22.831989
2026/02/07 23:30:00,KEPWF1,40.1,Kennedy Energy Park Pty Ltd,Kennedy Energy Park,Wind,43.0,93.26,Kennedy Energy Park,-20.88,144.42,2026-02-07T13:28:22.831989
2026/02/07 23:30:00,KIATAWF1,28.1,Kiata ProjectCo Pty Ltd Atf Kiata Project Trust,Kiata Wind Farm,Wind,31.0,90.65,Kiata Wind Farm,-36.4,141.75,2026-02-07T13:28:22.831989
2026/02/07 23:30:00,LGAPWF1,36.83,Lincoln Gap Wind Farm (Operations) Pty Ltd,Lincoln Gap Wind Farm,Wind,123.0,29.94,Lincoln Gap Wind Farm,-32.564279,137.557328,2026-02-07T13:28:22.831989
2026/02/07 23:30:00,LGAPWF1,36.83,Lincoln Gap Wind Farm (Operations) Pty Ltd,Lincoln Gap Wind Farm,Wind,123.0,29.94,Lincoln Gap Wind Farm,-32.564279,137.557328,2026-02-07T13:28:22.831989
2026/02/07 23:30:00,LGAPWF2,19.09,Lincoln Gap Wind Farm (Operations) Pty Ltd,Lincoln Gap Wind Farm,Wind,85.0,22.46,Lincoln Gap Wind Farm,-32.564279,137.557328,2026-02-07T13:28:22.831989
2026/02/07 23:30:00,LGAPWF2,19.09,Lincoln Gap Wind Farm (Operations) Pty Ltd,Lincoln Gap Wind Farm,Wind,85.0,22.46,Lincoln Gap Wind Farm,-32.564279,137.557328,2026-02-07T13:28:22.831989
2026/02/07 23:30:00,LKBONNY1,11.61,Lake Bonney Wind Power Pty Ltd,Lake Bonney Wind Farm Stage 1,Wind,81.0,14.33,Lake Bonney Wind Farm Stage 1,-37.76,140.4,2026-02-07T13:28:22.831989
2026/02/07 23:30:00,LKBONNY2,38.39,Lake Bonney Wind Power Pty Ltd,Lake Bonney Stage 2 Windfarm,Wind,159.0,24.14,Lake Bonney Stage 2 Windfarm,-37.76,140.4,2026-02-07T13:28:22.831989
2026/02/07 23:30:00,LKBONNY3,8.43,Lake Bonney Wind Power Pty Ltd,Lake Bonney Stage 3 Wind Farm,Wind,39.0,21.62,Lake Bonney Stage 3 Wind Farm,-37.737781,140.388137,2026-02-07T13:28:22.831989
2026/02/07 23:30:00,MACARTH1,94.7,AGL Hydro Partnership,Macarthur Wind Farm,Wind,420.0,22.55,Macarthur Wind Farm,-38.048957,142.192112,2026-02-07T13:28:22.831989
2026/02/07 23:30:00,MCINTYR1,127.82,MacIntyre UJV Operator Pty Ltd,MacIntyre Wind Farm,Wind,890.0,14.36,MacIntyre Wind Farm,-28.32,151.54,2026-02-07T13:28:22.831989
2026/02/07 23:30:00,MERCER01,26.8,Mt Mercer Windfarm Pty Ltd,Mt Mercer Wind Farm,Wind,131.0,20.46,Mt Mercer Wind Farm,-37.841111,143.871111,2026-02-07T13:28:22.831989
2026/02/07 23:30:00,MEWF1,25.65,Ergon Energy Queensland Pty Ltd ,Mount Emerald Wind Farm,Wind,178.0,14.41,Mount Emerald Wind Farm,-17.133007,145.380644,2026-02-07T13:28:22.831989
2026/02/07 23:30:00,MRTLSWF1,94.64,Mortlake South Wind Farm Pty Ltd,Mortlake South Wind Farm,Wind,153.0,61.86,Mortlake South Wind Farm,-38.127337,142.857801,2026-02-07T13:28:22.831989
2026/02/07 23:30:00,MTGELWF1,67.28,Mt. Gellibrand Wind Farm Pty Ltd,Mt Gellibrand Wind Farm,Wind,132.0,50.97,Mt Gellibrand Wind Farm,-38.23,143.77,2026-02-07T13:28:22.831989
2026/02/07 23:30:00,MTMILLAR,3.8,Mt Millar Wind Farm Pty Ltd,Mt Millar Wind Farm,Wind,70.0,5.43,Mt Millar Wind Farm,-33.624444,136.703611,2026-02-07T13:28:22.831989
2026/02/07 23:30:00,MUSSELR1,24.6,Hydro-Electric Corporation,Musselroe Wind Farm,Wind,168.0,14.64,Musselroe Wind Farm,-40.780225,148.010799,2026-02-07T13:28:22.831989
2026/02/07 23:30:00,MUWAWF1,108.71,Telstra Energy (Generation) Pty Ltd,Murra Warra Wind Farm,Wind,225.7,48.17,Murra Warra Wind Farm,-36.432404,142.317853,2026-02-07T13:28:22.831989
2026/02/07 23:30:00,MUWAWF2,141.4,Murra Warra II Project Co Pty Ltd ATF The Murra Warra II Project Trust,Murra Warra Wind Farm Stage 2,Wind,203.0,69.66,Murra Warra Wind Farm Stage 2,-36.43,142.32,2026-02-07T13:28:22.831989
2026/02/07 23:30:00,NBHWF1,61.1,AGL SA Generation Pty Limited,North Brown Hill Wind Farm,Wind,132.0,46.29,North Brown Hill Wind Farm,-33.367778,138.728611,2026-02-07T13:28:22.831989
2026/02/07 23:30:00,OAKLAND1,13.6,AGL Hydro Partnership,Oaklands Hill Wind Farm,Wind,63.0,21.59,Oaklands Hill Wind Farm,-37.683078,142.551678,2026-02-07T13:28:22.831989
2026/02/07 23:30:00,PAREPW1,8.17,Iberdrola Australia Energy Markets Pty Limited,Port Augusta Renewable Energy Park,Wind,201.0,4.06,Port Augusta Renewable Energy Park,-32.566944,137.856111,2026-02-07T13:28:22.831989
2026/02/07 23:30:00,RYANCWF1,61.24,Ryan Corner Development Pty Ltd,Ryan Corner Wind Farm,Wind,205.0,29.87,Ryan Corner Wind Farm,-38.271017,142.140647,2026-02-07T13:28:22.831989
2026/02/07 23:30:00,RYEPARK1,128.48,Rye Park Renewable Energy Pty Ltd as trustee for Rye Park Wind Farm Trust,Rye Park Renewable Energy,Wind,384.0,33.46,Rye Park Renewable Energy,-32.138333,148.972778,2026-02-07T13:28:22.831989
2026/02/07 23:30:00,SALTCRK1,32.8,Salt Creek Wind Farm Pty Ltd,Salt Creek Wind Farm,Wind,54.0,60.74,Salt Creek Wind Farm,-37.95,142.63,2026-02-07T13:28:22.831989
2026/02/07 23:30:00,SAPHWF1,155.21,The Trustee For The SWF1 Operations Trust,Sapphire Wind Farm,Wind,270.0,57.49,Sapphire Wind Farm,-29.7,151.41,2026-02-07T13:28:22.831989
2026/02/07 23:30:00,SNOWNTH1,15.5,Snowtown Wind Farm Stage 2 Pty Ltd,Snowtown Wind Farm Stage 2 North,Wind,144.0,10.76,Snowtown Wind Farm Stage 2 North,-33.83,138.118611,2026-02-07T13:28:22.831989
2026/02/07 23:30:00,SNOWSTH1,16.3,Snowtown Wind Farm Stage 2 Pty Ltd,Snowtown South Wind Farm,Wind,126.0,12.94,Snowtown South Wind Farm,-33.83,138.118611,2026-02-07T13:28:22.831989
2026/02/07 23:30:00,SNOWTWN1,19.31,Snowtown Wind Farm Pty Ltd,Snowtown Wind Farm Units 1 And 47,Wind,99.0,19.51,Snowtown Wind Farm Units 1 And 47,-33.83,138.118611,2026-02-07T13:28:22.831989
2026/02/07 23:30:00,STARHLWF,4.2,Starfish Hill Wind Farm Pty Ltd,Starfish Hill Wind Farm,Wind,35.0,12.0,Starfish Hill Wind Farm,-35.58,138.14,2026-02-07T13:28:22.831989
2026/02/07 23:30:00,STOCKYD1,358.98,Stockyard Hill Wind Farm Pty Ltd,Stockyard Hill Wind Farm,Wind,511.0,70.25,Stockyard Hill Wind Farm,-37.535833,143.251389,2026-02-07T13:28:22.831989
2026/02/07 23:30:00,STWF1,62.11,PARF Company 8 Pty Ltd as The Trustee for Silverton Project Trust,Silverton Wind Farm,Wind,198.0,31.37,Silverton Wind Farm,-37.683168,142.551678,2026-02-07T13:28:22.831989
2026/02/07 23:30:00,TARALGA1,9.83,Taralga Wind Farm Nominees No 2 Pty Ltd (ATF Taralga Wind Farm Operating Trust),Taralga Wind Farm,Wind,106.0,9.27,Taralga Wind Farm,-34.42352,149.826267,2026-02-07T13:28:22.831989
2026/02/07 23:30:00,WAMBOWF1,119.21,Stanwell Corporation Limited,Wambo Wind Farm 1,Wind,245.0,48.66,Wambo Wind Farm 1,-35.187301,149.524945,2026-02-07T13:28:22.831989
2026/02/07 23:30:00,WATERLWF,10.5,Waterloo Wind Farm Pty Ltd,Waterloo Wind Farm,Wind,130.0,8.08,Waterloo Wind Farm,-34.00094,138.911567,2026-02-07T13:28:22.831989
2026/02/07 23:30:00,WGWF1,22.1,Willogoleche Power Pty Ltd As The Trustee For The Willogoleche Operating Trust,Willogoleche Wind Farm,Wind,119.0,18.57,Willogoleche Wind Farm,-33.39,138.85,2026-02-07T13:28:22.831989
2026/02/07 23:30:00,WOODLWN1,9.54,Woodlawn Wind Pty Ltd,Woodlawn Wind Farm,Wind,48.0,19.88,Woodlawn Wind Farm,-35.08,149.62,2026-02-07T13:28:22.831989
2026/02/07 23:30:00,WPWF,45.96,AGL SA Generation Pty Limited,Wattle Point Wind Farm,Wind,91.0,50.51,Wattle Point Wind Farm,-35.111624,137.7219,2026-02-07T13:28:22.831989
2026/02/07 23:30:00,WRWF1,141.78,White Rock Wind Farm Pty Ltd,White Rock Wind Farm,Wind,172.0,82.43,White Rock Wind Farm,-29.79,151.54,2026-02-07T13:28:22.831989
2026/02/07 23:30:00,YENDWF1,95.86,Lal Lal Wind Farms Nom Co Pty Ltd,Yendon Wind Farm,Wind,142.0,67.51,Yendon Wind Farm,-37.629987,144.022717,2026-02-07T13:28:22.831989
