SETTLEMENTDATE,DUID,SCADAVALUE,Participant,Station Name,Fuel Source - Primary,MAX_CAP,utilisation_pct,Plant,Latitude,Longitude,timestamp_utc
2026/04/11 20:50:00,CAPTL_WF,111.35,Iberdrola Australia Holdings Pty Limited,Capital Wind Farm,Wind,140.0,79.54,Capital Wind Farm,-35.1,149.31,2026-04-11T10:48:17.167071
2026/04/11 20:50:00,CHALLHWF,15.6,Pacific Hydro Challicum Hills Pty Ltd,Challicum Hills Wind Farm,Wind,52.0,30.0,Challicum Hills Wind Farm,-37.38,143.11,2026-04-11T10:48:17.167071
2026/04/11 20:50:00,CULLRGWF,29.18,Cullerin Range Wind Farm Pty Ltd,Cullerin Range Wind Farm,Wind,30.0,97.27,Cullerin Range Wind Farm,-34.81,149.4,2026-04-11T10:48:17.167071
2026/04/11 20:50:00,DIAPURWF1,7.3,Y.E.S. Energy (SA) Pty Ltd,Diapur Wind Farm,Wind,7.0,104.29,Diapur Wind Farm,-36.3425,141.43,2026-04-11T10:48:17.167071
2026/04/11 20:50:00,MLWF1,10.3,Mortons Lane Windfarm Pty Limited,Mortons Lane Wind Farm,Wind,20.0,51.5,Mortons Lane Wind Farm,-37.84,142.45,2026-04-11T10:48:17.167071
2026/04/11 20:50:00,WAUBRAWF,119.25,Pyrenees Wind Energy Developments Pty Ltd,Waubra Wind Farm,Wind,192.0,62.11,Waubra Wind Farm,-37.394498,143.638982,2026-04-11T10:48:17.167071
2026/04/11 20:50:00,WOOLNTH1,115.14,Hydro-Electric Corporation,Woolnorth Studland Bay / Bluff Point Wind Farm,Wind,140.0,82.24,Woolnorth Studland Bay / Bluff Point Wind Farm,-40.69,144.72,2026-04-11T10:48:17.167071
2026/04/11 20:50:00,YAMBUKWF,29.7,Energy Pacific (Vic) Pty Ltd,Yambuk Wind Farm,Wind,30.0,99.0,Yambuk Wind Farm,-38.299083,142.027577,2026-04-11T10:48:17.167071
2026/04/11 20:50:00,YSWF1,20.6,Pacific Hydro Yaloak South Pty Ltd,Yaloak South Wind Farm,Wind,28.0,73.57,Yaloak South Wind Farm,-37.7163,144.242853,2026-04-11T10:48:17.167071
2026/04/11 20:50:00,ARWF1,56.1,Ararat Wind Farm Pty Ltd,Ararat Wind Farm,Wind,241.0,23.28,Ararat Wind Farm,-37.232778,143.031389,2026-04-11T10:48:17.167071
2026/04/11 20:50:00,BALDHWF1,101.21,Alinta Energy Retail Sales Pty Ltd,Bald Hills Wind Farm,Wind,106.0,95.48,Bald Hills Wind Farm,-38.79,145.93,2026-04-11T10:48:17.167071
2026/04/11 20:50:00,BANGOWF1,113.5,BWF Nominees Pty Ltd as The Trustee for BWF Trust,Bango 973 Wind Farm,Wind,155.0,73.23,Bango 973 Wind Farm,-34.551582,148.732808,2026-04-11T10:48:17.167071
2026/04/11 20:50:00,BANGOWF2,63.0,BWF Nominees Pty Ltd as The Trustee for BWF Trust,Bango 999 Wind Farm,Wind,82.0,76.83,Bango 999 Wind Farm,-34.551582,148.732808,2026-04-11T10:48:17.167071
2026/04/11 20:50:00,BLUFF1,40.8,AGL SA Generation Pty Limited,The Bluff Wind Farm,Wind,53.0,76.98,The Bluff Wind Farm,-33.367778,138.728611,2026-04-11T10:48:17.167071
2026/04/11 20:50:00,BOCORWF1,62.43,Boco Rock Wind Farm Pty Ltd,Boco Rock Wind Farm,Wind,111.0,56.24,Boco Rock Wind Farm,-36.578611,149.103333,2026-04-11T10:48:17.167071
2026/04/11 20:50:00,BRYB1WF1,131.32,Berrybank Development Pty Ltd,Berrybank Wind Farm,Wind,175.9,74.66,Berrybank Wind Farm,-37.94,143.52,2026-04-11T10:48:17.167071
2026/04/11 20:50:00,BRYB2WF2,87.52,Berrybank 2 Asset Pty Ltd as trustee for Berrybank 2 Asset Trust,Berrybank 2 Wind Farm,Wind,105.0,83.35,Berrybank 2 Wind Farm,-37.94,143.52,2026-04-11T10:48:17.167071
2026/04/11 20:50:00,BULGANA1,18.63,Bulgana Wind Farm Pty Ltd,Bulgana Green Power Hub,Wind,204.0,9.13,Bulgana Green Power Hub,-37.0975,142.973611,2026-04-11T10:48:17.167071
2026/04/11 20:50:00,CATHROCK,47.4,Cathedral Rocks Wind Farm Pty Ltd,Cathedral Rocks,Wind,66.0,71.82,Cathedral Rocks,-34.51,135.35,2026-04-11T10:48:17.167071
2026/04/11 20:50:00,CHYTWF1,15.16,Cherry Tree Wind Farm Pty Ltd as trustee for The Cherry Tree Project trust ,Cherry Tree Wind Farm,Wind,57.0,26.6,Cherry Tree Wind Farm,-37.1,145.26,2026-04-11T10:48:17.167071
2026/04/11 20:50:00,CLEMGPWF,32.7,Pacific Hydro Clements Gap Pty Ltd,Clements Gap Wind Farm,Wind,57.0,57.37,Clements Gap Wind Farm,-33.48,138.1,2026-04-11T10:48:17.167071
2026/04/11 20:50:00,CLRKCWF1,199.41,Stanwell Corporation Limited ,Clarke Creek Wind Farm,Wind,338.0,59.0,Clarke Creek Wind Farm,-22.85,149.45,2026-04-11T10:48:17.167071
2026/04/11 20:50:00,CLRKCWF2,32.97,Stanwell Corporation Limited ,Clarke Creek Wind Farm,Wind,101.0,32.64,Clarke Creek Wind Farm,-22.85,149.45,2026-04-11T10:48:17.167071
2026/04/11 20:50:00,CNUNDAWF,37.54,Canunda Power Pty Ltd,Canunda Wind Farm,Wind,46.0,81.61,Canunda Wind Farm,-37.73,140.39,2026-04-11T10:48:17.167071
2026/04/11 20:50:00,COLWF01,132.29,Collector Wind Farm Pty Ltd,Collector Wind Farm 1,Wind,219.0,60.41,Collector Wind Farm 1,-34.8719,149.3967,2026-04-11T10:48:17.167071
2026/04/11 20:50:00,COOPGWF1,2.1,PARF Company 10 Pty Limited as The Trustee for Coopers Gap Project Trust,Coopers Gap Wind Farm,Wind,440.0,0.48,Coopers Gap Wind Farm,-26.74,151.45,2026-04-11T10:48:17.167071
2026/04/11 20:50:00,CROOKWF2,74.09,Crookwell Development Pty Ltd ,Crookwell 2 Wind Farm,Wind,91.0,81.42,Crookwell 2 Wind Farm,-34.52,149.54,2026-04-11T10:48:17.167071
2026/04/11 20:50:00,CROOKWF3,48.99,Crookwell 3 Development Pty Ltd,Crookwell 3 Wind Farm,Wind,56.0,87.48,Crookwell 3 Wind Farm,-34.52,149.54,2026-04-11T10:48:17.167071
2026/04/11 20:50:00,CROWLWF1,18.34,Pacific Hydro Crowlands Pty Ltd ,Crowlands Wind Farm,Wind,79.0,23.22,Crowlands Wind Farm,-37.13,143.16,2026-04-11T10:48:17.167071
2026/04/11 20:50:00,CRURWF1,66.2,CRWF Nominees Pty Ltd As Trustee For The CRWF Trust,Crudine Ridge Wind Farm,Wind,138.0,47.97,Crudine Ridge Wind Farm,-32.97,149.64,2026-04-11T10:48:17.167071
2026/04/11 20:50:00,CTHLWF1,135.72,Wild Cattle Hill Pty Ltd,Cattle Hill Wind Farm,Wind,144.0,94.25,Cattle Hill Wind Farm,-42.15,146.69,2026-04-11T10:48:17.167071
2026/04/11 20:50:00,DULAWF1,150.7,Dulacca Energy Project Co Pty Ltd,Dulacca Wind Farm,Wind,173.0,87.11,Dulacca Wind Farm,-26.63,149.87,2026-04-11T10:48:17.167071
2026/04/11 20:50:00,DUNDWF1,84.07,Dundonnell Wind Farm Pty Ltd,Dundonnell Wind Farm,Wind,168.0,50.04,Dundonnell Wind Farm,-37.52,142.58,2026-04-11T10:48:17.167071
2026/04/11 20:50:00,DUNDWF2,23.14,Dundonnell Wind Farm Pty Ltd,Dundonnell Wind Farm,Wind,46.0,50.3,Dundonnell Wind Farm,-37.52,142.58,2026-04-11T10:48:17.167071
2026/04/11 20:50:00,DUNDWF3,60.94,Dundonnell Wind Farm Pty Ltd,Dundonnell Wind Farm,Wind,122.0,49.95,Dundonnell Wind Farm,-37.52,142.58,2026-04-11T10:48:17.167071
2026/04/11 20:50:00,ELAINWF1,71.68,Lal Lal Wind Farms Nom Co Pty Ltd,Elaine Wind Farm,Wind,82.0,87.41,Elaine Wind Farm,-37.36,144.0,2026-04-11T10:48:17.167071
2026/04/11 20:50:00,FLYCRKWF,71.75,Iberdrola Australia Energy Markets Pty Limited,Flyers Creek Wind Farm,Wind,140.0,51.25,Flyers Creek Wind Farm,-33.365556,148.981944,2026-04-11T10:48:17.167071
2026/04/11 20:50:00,GPWFEST1,232.47,Golden Plains WF1 Pty Ltd as Trustee for the Golden Plains WF1 Unit Trust,Golden Plains Wind Farm East,Wind,240.0,96.86,Golden Plains Wind Farm East,-37.945091,143.752614,2026-04-11T10:48:17.167071
2026/04/11 20:50:00,GPWFEST2,202.17,Golden Plains WF1 Pty Ltd as Trustee for the Golden Plains WF1 Unit Trust,Golden Plains Wind Farm East,Wind,253.0,79.91,Golden Plains Wind Farm East,-37.945091,143.752614,2026-04-11T10:48:17.167071
2026/04/11 20:50:00,GPWFEST3,224.09,Golden Plains WF1 Pty Ltd as Trustee for the Golden Plains WF1 Unit Trust,Golden Plains Wind Farm East,Wind,240.0,93.37,Golden Plains Wind Farm East,-37.945091,143.752614,2026-04-11T10:48:17.167071
2026/04/11 20:50:00,GRANWF1,105.21,Granville Harbour Operations Pty Ltd as The Trustee for Granville Harbour Operations Trust,Granville Harbour Wind Farm,Wind,111.0,94.78,Granville Harbour Wind Farm,-41.8,145.06,2026-04-11T10:48:17.167071
2026/04/11 20:50:00,GSWF1A,187.82,Goyder Wind Farm 1 Pty Ltd as the Trustee for Goyder Wind Farm 1 Trust,Goyder South Wind Farm 1A,Wind,201.0,93.44,Goyder South Wind Farm 1A,-33.679758,138.937597,2026-04-11T10:48:17.167071
2026/04/11 20:50:00,GSWF1B1,181.69,Goyder Wind Farm 1B Pty Ltd as the Trustee for the Goyder Wind Farm 1B Trust,Goyder South Wind Farm 1B,Wind,196.0,92.7,Goyder South Wind Farm 1B,-33.679758,138.937597,2026-04-11T10:48:17.167071
2026/04/11 20:50:00,GULLRWF1,115.15,New Gullen Range Wind Farm Pty Ltd,Gullen Range Wind Farm,Wind,161.0,71.52,Gullen Range Wind Farm,-34.34,149.27,2026-04-11T10:48:17.167071
2026/04/11 20:50:00,GULLRWF2,101.17,New Gullen Range Wind Farm Pty Ltd,Gullen Range Wind Farm,Wind,107.0,94.55,Gullen Range Wind Farm,-34.34,149.27,2026-04-11T10:48:17.167071
2026/04/11 20:50:00,GUNNING1,39.66,Gunning Wind Energy Developments Pty Ltd,Gunning Wind Farm,Wind,47.0,84.38,Gunning Wind Farm,-34.813333,149.4,2026-04-11T10:48:17.167071
2026/04/11 20:50:00,HALLWF1,74.59,AGL SA Generation Pty Limited,Hallett 1 Wind Farm,Wind,95.0,78.52,Hallett 1 Wind Farm,-33.367778,138.728611,2026-04-11T10:48:17.167071
2026/04/11 20:50:00,HALLWF2,45.7,AGL SA Generation Pty Limited,Hallett 2 Wind Farm,Wind,71.0,64.37,Hallett 2 Wind Farm,-33.367778,138.728611,2026-04-11T10:48:17.167071
2026/04/11 20:50:00,HD1WF1,79.91,Hawkesdale Asset Pty Ltd as trustee for Hawkesdale Asset Trust,Hawkesdale Wind Farm,Wind,89.0,89.79,Hawkesdale Wind Farm,-38.147894,142.361381,2026-04-11T10:48:17.167071
2026/04/11 20:50:00,HDWF1,32.3,HWF1 Pty Ltd,Hornsdale Wind Farm,Wind,102.0,31.67,Hornsdale Wind Farm,-33.050556,138.543611,2026-04-11T10:48:17.167071
2026/04/11 20:50:00,HDWF2,30.6,HWF 2 Pty Ltd,Hornsdale Wind Farm 2,Wind,102.0,30.0,Hornsdale Wind Farm 2,-33.06,138.54,2026-04-11T10:48:17.167071
2026/04/11 20:50:00,HDWF3,31.5,HWF3 Pty Ltd,Hornsdale Wind Farm 3,Wind,109.0,28.9,Hornsdale Wind Farm 3,-33.06,138.54,2026-04-11T10:48:17.167071
2026/04/11 20:50:00,KABANWF1,26.31,Kaban Wind Farm Pty Ltd as trustee for Kaban Wind Farm Trust,Kaban Wind Farm,Wind,152.0,17.31,Kaban Wind Farm,-17.56,145.41,2026-04-11T10:48:17.167071
2026/04/11 20:50:00,KEPWF1,0.5,Kennedy Energy Park Pty Ltd,Kennedy Energy Park,Wind,43.0,1.16,Kennedy Energy Park,-20.88,144.42,2026-04-11T10:48:17.167071
2026/04/11 20:50:00,KIATAWF1,28.0,Kiata ProjectCo Pty Ltd Atf Kiata Project Trust,Kiata Wind Farm,Wind,31.0,90.32,Kiata Wind Farm,-36.4,141.75,2026-04-11T10:48:17.167071
2026/04/11 20:50:00,LGAPWF1,48.41,Lincoln Gap Wind Farm (Operations) Pty Ltd,Lincoln Gap Wind Farm,Wind,123.0,39.36,Lincoln Gap Wind Farm,-32.564279,137.557328,2026-04-11T10:48:17.167071
2026/04/11 20:50:00,LGAPWF1,48.41,Lincoln Gap Wind Farm (Operations) Pty Ltd,Lincoln Gap Wind Farm,Wind,123.0,39.36,Lincoln Gap Wind Farm,-32.564279,137.557328,2026-04-11T10:48:17.167071
2026/04/11 20:50:00,LGAPWF2,40.56,Lincoln Gap Wind Farm (Operations) Pty Ltd,Lincoln Gap Wind Farm,Wind,85.0,47.72,Lincoln Gap Wind Farm,-32.564279,137.557328,2026-04-11T10:48:17.167071
2026/04/11 20:50:00,LGAPWF2,40.56,Lincoln Gap Wind Farm (Operations) Pty Ltd,Lincoln Gap Wind Farm,Wind,85.0,47.72,Lincoln Gap Wind Farm,-32.564279,137.557328,2026-04-11T10:48:17.167071
2026/04/11 20:50:00,LKBONNY1,60.46,Lake Bonney Wind Power Pty Ltd,Lake Bonney Wind Farm Stage 1,Wind,81.0,74.64,Lake Bonney Wind Farm Stage 1,-37.76,140.4,2026-04-11T10:48:17.167071
2026/04/11 20:50:00,LKBONNY2,130.44,Lake Bonney Wind Power Pty Ltd,Lake Bonney Stage 2 Windfarm,Wind,159.0,82.04,Lake Bonney Stage 2 Windfarm,-37.76,140.4,2026-04-11T10:48:17.167071
2026/04/11 20:50:00,LKBONNY3,32.21,Lake Bonney Wind Power Pty Ltd,Lake Bonney Stage 3 Wind Farm,Wind,39.0,82.59,Lake Bonney Stage 3 Wind Farm,-37.737781,140.388137,2026-04-11T10:48:17.167071
2026/04/11 20:50:00,MACARTH1,91.9,AGL Hydro Partnership,Macarthur Wind Farm,Wind,420.0,21.88,Macarthur Wind Farm,-38.048957,142.192112,2026-04-11T10:48:17.167071
2026/04/11 20:50:00,MCINTYR1,190.99,MacIntyre UJV Operator Pty Ltd,MacIntyre Wind Farm,Wind,890.0,21.46,MacIntyre Wind Farm,-28.32,151.54,2026-04-11T10:48:17.167071
2026/04/11 20:50:00,MERCER01,107.8,Mt Mercer Windfarm Pty Ltd,Mt Mercer Wind Farm,Wind,131.0,82.29,Mt Mercer Wind Farm,-37.841111,143.871111,2026-04-11T10:48:17.167071
2026/04/11 20:50:00,MEWF1,29.52,Ergon Energy Queensland Pty Ltd ,Mount Emerald Wind Farm,Wind,178.0,16.58,Mount Emerald Wind Farm,-17.133007,145.380644,2026-04-11T10:48:17.167071
2026/04/11 20:50:00,MRTLSWF1,101.5,Mortlake South Wind Farm Pty Ltd,Mortlake South Wind Farm,Wind,153.0,66.34,Mortlake South Wind Farm,-38.127337,142.857801,2026-04-11T10:48:17.167071
2026/04/11 20:50:00,MTGELWF1,99.29,Mt. Gellibrand Wind Farm Pty Ltd,Mt Gellibrand Wind Farm,Wind,132.0,75.22,Mt Gellibrand Wind Farm,-38.23,143.77,2026-04-11T10:48:17.167071
2026/04/11 20:50:00,MTMILLAR,15.8,Mt Millar Wind Farm Pty Ltd,Mt Millar Wind Farm,Wind,70.0,22.57,Mt Millar Wind Farm,-33.624444,136.703611,2026-04-11T10:48:17.167071
2026/04/11 20:50:00,MUSSELR1,151.8,Hydro-Electric Corporation,Musselroe Wind Farm,Wind,168.0,90.36,Musselroe Wind Farm,-40.780225,148.010799,2026-04-11T10:48:17.167071
2026/04/11 20:50:00,MUWAWF1,0.0,Telstra Energy (Generation) Pty Ltd,Murra Warra Wind Farm,Wind,225.7,0.0,Murra Warra Wind Farm,-36.432404,142.317853,2026-04-11T10:48:17.167071
2026/04/11 20:50:00,MUWAWF2,165.4,Murra Warra II Project Co Pty Ltd ATF The Murra Warra II Project Trust,Murra Warra Wind Farm Stage 2,Wind,203.0,81.48,Murra Warra Wind Farm Stage 2,-36.43,142.32,2026-04-11T10:48:17.167071
2026/04/11 20:50:00,NBHWF1,89.6,AGL SA Generation Pty Limited,North Brown Hill Wind Farm,Wind,132.0,67.88,North Brown Hill Wind Farm,-33.367778,138.728611,2026-04-11T10:48:17.167071
2026/04/11 20:50:00,OAKLAND1,35.9,AGL Hydro Partnership,Oaklands Hill Wind Farm,Wind,63.0,56.98,Oaklands Hill Wind Farm,-37.683078,142.551678,2026-04-11T10:48:17.167071
2026/04/11 20:50:00,PAREPW1,132.12,Iberdrola Australia Energy Markets Pty Limited,Port Augusta Renewable Energy Park,Wind,201.0,65.73,Port Augusta Renewable Energy Park,-32.566944,137.856111,2026-04-11T10:48:17.167071
2026/04/11 20:50:00,RYANCWF1,149.73,Ryan Corner Development Pty Ltd,Ryan Corner Wind Farm,Wind,205.0,73.04,Ryan Corner Wind Farm,-38.271017,142.140647,2026-04-11T10:48:17.167071
2026/04/11 20:50:00,RYEPARK1,224.76,Rye Park Renewable Energy Pty Ltd as trustee for Rye Park Wind Farm Trust,Rye Park Renewable Energy,Wind,384.0,58.53,Rye Park Renewable Energy,-32.138333,148.972778,2026-04-11T10:48:17.167071
2026/04/11 20:50:00,SALTCRK1,0.0,Salt Creek Wind Farm Pty Ltd,Salt Creek Wind Farm,Wind,54.0,0.0,Salt Creek Wind Farm,-37.95,142.63,2026-04-11T10:48:17.167071
2026/04/11 20:50:00,SAPHWF1,106.45,The Trustee For The SWF1 Operations Trust,Sapphire Wind Farm,Wind,270.0,39.43,Sapphire Wind Farm,-29.7,151.41,2026-04-11T10:48:17.167071
2026/04/11 20:50:00,SNOWNTH1,31.3,Snowtown Wind Farm Stage 2 Pty Ltd,Snowtown Wind Farm Stage 2 North,Wind,144.0,21.74,Snowtown Wind Farm Stage 2 North,-33.83,138.118611,2026-04-11T10:48:17.167071
2026/04/11 20:50:00,SNOWSTH1,44.6,Snowtown Wind Farm Stage 2 Pty Ltd,Snowtown South Wind Farm,Wind,126.0,35.4,Snowtown South Wind Farm,-33.83,138.118611,2026-04-11T10:48:17.167071
2026/04/11 20:50:00,SNOWTWN1,27.01,Snowtown Wind Farm Pty Ltd,Snowtown Wind Farm Units 1 And 47,Wind,99.0,27.28,Snowtown Wind Farm Units 1 And 47,-33.83,138.118611,2026-04-11T10:48:17.167071
2026/04/11 20:50:00,STARHLWF,17.1,Starfish Hill Wind Farm Pty Ltd,Starfish Hill Wind Farm,Wind,35.0,48.86,Starfish Hill Wind Farm,-35.58,138.14,2026-04-11T10:48:17.167071
2026/04/11 20:50:00,STOCKYD1,402.19,Stockyard Hill Wind Farm Pty Ltd,Stockyard Hill Wind Farm,Wind,511.0,78.71,Stockyard Hill Wind Farm,-37.535833,143.251389,2026-04-11T10:48:17.167071
2026/04/11 20:50:00,STWF1,97.06,PARF Company 8 Pty Ltd as The Trustee for Silverton Project Trust,Silverton Wind Farm,Wind,198.0,49.02,Silverton Wind Farm,-37.683168,142.551678,2026-04-11T10:48:17.167071
2026/04/11 20:50:00,TARALGA1,63.65,Taralga Wind Farm Nominees No 2 Pty Ltd (ATF Taralga Wind Farm Operating Trust),Taralga Wind Farm,Wind,106.0,60.05,Taralga Wind Farm,-34.42352,149.826267,2026-04-11T10:48:17.167071
2026/04/11 20:50:00,WAMBOWF1,7.7,Stanwell Corporation Limited,Wambo Wind Farm 1,Wind,245.0,3.14,Wambo Wind Farm 1,-35.187301,149.524945,2026-04-11T10:48:17.167071
2026/04/11 20:50:00,WATERLWF,86.8,Waterloo Wind Farm Pty Ltd,Waterloo Wind Farm,Wind,130.0,66.77,Waterloo Wind Farm,-34.00094,138.911567,2026-04-11T10:48:17.167071
2026/04/11 20:50:00,WGWF1,69.9,Willogoleche Power Pty Ltd As The Trustee For The Willogoleche Operating Trust,Willogoleche Wind Farm,Wind,119.0,58.74,Willogoleche Wind Farm,-33.39,138.85,2026-04-11T10:48:17.167071
2026/04/11 20:50:00,WOODLWN1,39.52,Woodlawn Wind Pty Ltd,Woodlawn Wind Farm,Wind,48.0,82.33,Woodlawn Wind Farm,-35.08,149.62,2026-04-11T10:48:17.167071
2026/04/11 20:50:00,WPWF,75.46,AGL SA Generation Pty Limited,Wattle Point Wind Farm,Wind,91.0,82.92,Wattle Point Wind Farm,-35.111624,137.7219,2026-04-11T10:48:17.167071
2026/04/11 20:50:00,WRWF1,62.58,White Rock Wind Farm Pty Ltd,White Rock Wind Farm,Wind,172.0,36.38,White Rock Wind Farm,-29.79,151.54,2026-04-11T10:48:17.167071
2026/04/11 20:50:00,YENDWF1,67.62,Lal Lal Wind Farms Nom Co Pty Ltd,Yendon Wind Farm,Wind,142.0,47.62,Yendon Wind Farm,-37.629987,144.022717,2026-04-11T10:48:17.167071
