SETTLEMENTDATE,DUID,SCADAVALUE,Participant,Station Name,Fuel Source - Primary,MAX_CAP,utilisation_pct,Plant,Latitude,Longitude,timestamp_utc
2026/02/28 17:55:00,CAPTL_WF,64.36,Iberdrola Australia Holdings Pty Limited,Capital Wind Farm,Wind,140.0,45.97,Capital Wind Farm,-35.1,149.31,2026-02-28T07:54:57.663737
2026/02/28 17:55:00,CHALLHWF,4.7,Pacific Hydro Challicum Hills Pty Ltd,Challicum Hills Wind Farm,Wind,52.0,9.04,Challicum Hills Wind Farm,-37.38,143.11,2026-02-28T07:54:57.663737
2026/02/28 17:55:00,CULLRGWF,23.84,Cullerin Range Wind Farm Pty Ltd,Cullerin Range Wind Farm,Wind,30.0,79.47,Cullerin Range Wind Farm,-34.81,149.4,2026-02-28T07:54:57.663737
2026/02/28 17:55:00,DIAPURWF1,0.5,Y.E.S. Energy (SA) Pty Ltd,Diapur Wind Farm,Wind,7.0,7.14,Diapur Wind Farm,-36.3425,141.43,2026-02-28T07:54:57.663737
2026/02/28 17:55:00,MLWF1,2.02,Mortons Lane Windfarm Pty Limited,Mortons Lane Wind Farm,Wind,20.0,10.1,Mortons Lane Wind Farm,-37.84,142.45,2026-02-28T07:54:57.663737
2026/02/28 17:55:00,WAUBRAWF,17.13,Pyrenees Wind Energy Developments Pty Ltd,Waubra Wind Farm,Wind,192.0,8.92,Waubra Wind Farm,-37.394498,143.638982,2026-02-28T07:54:57.663737
2026/02/28 17:55:00,WOOLNTH1,111.39,Hydro-Electric Corporation,Woolnorth Studland Bay / Bluff Point Wind Farm,Wind,140.0,79.56,Woolnorth Studland Bay / Bluff Point Wind Farm,-40.69,144.72,2026-02-28T07:54:57.663737
2026/02/28 17:55:00,YAMBUKWF,2.7,Energy Pacific (Vic) Pty Ltd,Yambuk Wind Farm,Wind,30.0,9.0,Yambuk Wind Farm,-38.299083,142.027577,2026-02-28T07:54:57.663737
2026/02/28 17:55:00,YSWF1,1.7,Pacific Hydro Yaloak South Pty Ltd,Yaloak South Wind Farm,Wind,28.0,6.07,Yaloak South Wind Farm,-37.7163,144.242853,2026-02-28T07:54:57.663737
2026/02/28 17:55:00,ARWF1,15.4,Ararat Wind Farm Pty Ltd,Ararat Wind Farm,Wind,241.0,6.39,Ararat Wind Farm,-37.232778,143.031389,2026-02-28T07:54:57.663737
2026/02/28 17:55:00,BALDHWF1,101.3,Alinta Energy Retail Sales Pty Ltd,Bald Hills Wind Farm,Wind,106.0,95.57,Bald Hills Wind Farm,-38.79,145.93,2026-02-28T07:54:57.663737
2026/02/28 17:55:00,BANGOWF1,88.2,BWF Nominees Pty Ltd as The Trustee for BWF Trust,Bango 973 Wind Farm,Wind,155.0,56.9,Bango 973 Wind Farm,-34.551582,148.732808,2026-02-28T07:54:57.663737
2026/02/28 17:55:00,BANGOWF2,81.6,BWF Nominees Pty Ltd as The Trustee for BWF Trust,Bango 999 Wind Farm,Wind,82.0,99.51,Bango 999 Wind Farm,-34.551582,148.732808,2026-02-28T07:54:57.663737
2026/02/28 17:55:00,BLUFF1,41.2,AGL SA Generation Pty Limited,The Bluff Wind Farm,Wind,53.0,77.74,The Bluff Wind Farm,-33.367778,138.728611,2026-02-28T07:54:57.663737
2026/02/28 17:55:00,BOCORWF1,46.42,Boco Rock Wind Farm Pty Ltd,Boco Rock Wind Farm,Wind,111.0,41.82,Boco Rock Wind Farm,-36.578611,149.103333,2026-02-28T07:54:57.663737
2026/02/28 17:55:00,BRYB1WF1,25.03,Berrybank Development Pty Ltd,Berrybank Wind Farm,Wind,175.9,14.23,Berrybank Wind Farm,-37.94,143.52,2026-02-28T07:54:57.663737
2026/02/28 17:55:00,BRYB2WF2,18.4,Berrybank 2 Asset Pty Ltd as trustee for Berrybank 2 Asset Trust,Berrybank 2 Wind Farm,Wind,105.0,17.52,Berrybank 2 Wind Farm,-37.94,143.52,2026-02-28T07:54:57.663737
2026/02/28 17:55:00,BULGANA1,1.58,Bulgana Wind Farm Pty Ltd,Bulgana Green Power Hub,Wind,204.0,0.77,Bulgana Green Power Hub,-37.0975,142.973611,2026-02-28T07:54:57.663737
2026/02/28 17:55:00,CATHROCK,20.5,Cathedral Rocks Wind Farm Pty Ltd,Cathedral Rocks,Wind,66.0,31.06,Cathedral Rocks,-34.51,135.35,2026-02-28T07:54:57.663737
2026/02/28 17:55:00,CHYTWF1,3.92,Cherry Tree Wind Farm Pty Ltd as trustee for The Cherry Tree Project trust ,Cherry Tree Wind Farm,Wind,57.0,6.88,Cherry Tree Wind Farm,-37.1,145.26,2026-02-28T07:54:57.663737
2026/02/28 17:55:00,CLEMGPWF,47.54,Pacific Hydro Clements Gap Pty Ltd,Clements Gap Wind Farm,Wind,57.0,83.4,Clements Gap Wind Farm,-33.48,138.1,2026-02-28T07:54:57.663737
2026/02/28 17:55:00,CLRKCWF1,318.7,Stanwell Corporation Limited ,Clarke Creek Wind Farm,Wind,338.0,94.29,Clarke Creek Wind Farm,-22.85,149.45,2026-02-28T07:54:57.663737
2026/02/28 17:55:00,CLRKCWF2,93.69,Stanwell Corporation Limited ,Clarke Creek Wind Farm,Wind,101.0,92.76,Clarke Creek Wind Farm,-22.85,149.45,2026-02-28T07:54:57.663737
2026/02/28 17:55:00,CNUNDAWF,2.0,Canunda Power Pty Ltd,Canunda Wind Farm,Wind,46.0,4.35,Canunda Wind Farm,-37.73,140.39,2026-02-28T07:54:57.663737
2026/02/28 17:55:00,COLWF01,94.22,Collector Wind Farm Pty Ltd,Collector Wind Farm 1,Wind,219.0,43.02,Collector Wind Farm 1,-34.8719,149.3967,2026-02-28T07:54:57.663737
2026/02/28 17:55:00,COOPGWF1,247.05,PARF Company 10 Pty Limited as The Trustee for Coopers Gap Project Trust,Coopers Gap Wind Farm,Wind,440.0,56.15,Coopers Gap Wind Farm,-26.74,151.45,2026-02-28T07:54:57.663737
2026/02/28 17:55:00,CROOKWF2,33.61,Crookwell Development Pty Ltd ,Crookwell 2 Wind Farm,Wind,91.0,36.93,Crookwell 2 Wind Farm,-34.52,149.54,2026-02-28T07:54:57.663737
2026/02/28 17:55:00,CROOKWF3,23.66,Crookwell 3 Development Pty Ltd,Crookwell 3 Wind Farm,Wind,56.0,42.25,Crookwell 3 Wind Farm,-34.52,149.54,2026-02-28T07:54:57.663737
2026/02/28 17:55:00,CROWLWF1,29.88,Pacific Hydro Crowlands Pty Ltd ,Crowlands Wind Farm,Wind,79.0,37.82,Crowlands Wind Farm,-37.13,143.16,2026-02-28T07:54:57.663737
2026/02/28 17:55:00,CRURWF1,100.3,CRWF Nominees Pty Ltd As Trustee For The CRWF Trust,Crudine Ridge Wind Farm,Wind,138.0,72.68,Crudine Ridge Wind Farm,-32.97,149.64,2026-02-28T07:54:57.663737
2026/02/28 17:55:00,CTHLWF1,32.43,Wild Cattle Hill Pty Ltd,Cattle Hill Wind Farm,Wind,144.0,22.52,Cattle Hill Wind Farm,-42.15,146.69,2026-02-28T07:54:57.663737
2026/02/28 17:55:00,DULAWF1,113.4,Dulacca Energy Project Co Pty Ltd,Dulacca Wind Farm,Wind,173.0,65.55,Dulacca Wind Farm,-26.63,149.87,2026-02-28T07:54:57.663737
2026/02/28 17:55:00,DUNDWF1,47.54,Dundonnell Wind Farm Pty Ltd,Dundonnell Wind Farm,Wind,168.0,28.3,Dundonnell Wind Farm,-37.52,142.58,2026-02-28T07:54:57.663737
2026/02/28 17:55:00,DUNDWF2,11.34,Dundonnell Wind Farm Pty Ltd,Dundonnell Wind Farm,Wind,46.0,24.65,Dundonnell Wind Farm,-37.52,142.58,2026-02-28T07:54:57.663737
2026/02/28 17:55:00,DUNDWF3,30.1,Dundonnell Wind Farm Pty Ltd,Dundonnell Wind Farm,Wind,122.0,24.67,Dundonnell Wind Farm,-37.52,142.58,2026-02-28T07:54:57.663737
2026/02/28 17:55:00,ELAINWF1,13.01,Lal Lal Wind Farms Nom Co Pty Ltd,Elaine Wind Farm,Wind,82.0,15.87,Elaine Wind Farm,-37.36,144.0,2026-02-28T07:54:57.663737
2026/02/28 17:55:00,FLYCRKWF,77.03,Iberdrola Australia Energy Markets Pty Limited,Flyers Creek Wind Farm,Wind,140.0,55.02,Flyers Creek Wind Farm,-33.365556,148.981944,2026-02-28T07:54:57.663737
2026/02/28 17:55:00,GPWFEST1,24.5,Golden Plains WF1 Pty Ltd as Trustee for the Golden Plains WF1 Unit Trust,Golden Plains Wind Farm East,Wind,240.0,10.21,Golden Plains Wind Farm East,-37.945091,143.752614,2026-02-28T07:54:57.663737
2026/02/28 17:55:00,GPWFEST2,37.54,Golden Plains WF1 Pty Ltd as Trustee for the Golden Plains WF1 Unit Trust,Golden Plains Wind Farm East,Wind,253.0,14.84,Golden Plains Wind Farm East,-37.945091,143.752614,2026-02-28T07:54:57.663737
2026/02/28 17:55:00,GPWFEST3,20.74,Golden Plains WF1 Pty Ltd as Trustee for the Golden Plains WF1 Unit Trust,Golden Plains Wind Farm East,Wind,240.0,8.64,Golden Plains Wind Farm East,-37.945091,143.752614,2026-02-28T07:54:57.663737
2026/02/28 17:55:00,GRANWF1,32.94,Granville Harbour Operations Pty Ltd as The Trustee for Granville Harbour Operations Trust,Granville Harbour Wind Farm,Wind,111.0,29.68,Granville Harbour Wind Farm,-41.8,145.06,2026-02-28T07:54:57.663737
2026/02/28 17:55:00,GSWF1A,127.21,Goyder Wind Farm 1 Pty Ltd as the Trustee for Goyder Wind Farm 1 Trust,Goyder South Wind Farm 1A,Wind,201.0,63.29,Goyder South Wind Farm 1A,-33.679758,138.937597,2026-02-28T07:54:57.663737
2026/02/28 17:55:00,GSWF1B1,107.46,Goyder Wind Farm 1B Pty Ltd as the Trustee for the Goyder Wind Farm 1B Trust,Goyder South Wind Farm 1B,Wind,196.0,54.83,Goyder South Wind Farm 1B,-33.679758,138.937597,2026-02-28T07:54:57.663737
2026/02/28 17:55:00,GULLRWF1,87.48,New Gullen Range Wind Farm Pty Ltd,Gullen Range Wind Farm,Wind,161.0,54.34,Gullen Range Wind Farm,-34.34,149.27,2026-02-28T07:54:57.663737
2026/02/28 17:55:00,GULLRWF2,67.99,New Gullen Range Wind Farm Pty Ltd,Gullen Range Wind Farm,Wind,107.0,63.54,Gullen Range Wind Farm,-34.34,149.27,2026-02-28T07:54:57.663737
2026/02/28 17:55:00,GUNNING1,38.98,Gunning Wind Energy Developments Pty Ltd,Gunning Wind Farm,Wind,47.0,82.94,Gunning Wind Farm,-34.813333,149.4,2026-02-28T07:54:57.663737
2026/02/28 17:55:00,HALLWF1,56.99,AGL SA Generation Pty Limited,Hallett 1 Wind Farm,Wind,95.0,59.99,Hallett 1 Wind Farm,-33.367778,138.728611,2026-02-28T07:54:57.663737
2026/02/28 17:55:00,HALLWF2,38.2,AGL SA Generation Pty Limited,Hallett 2 Wind Farm,Wind,71.0,53.8,Hallett 2 Wind Farm,-33.367778,138.728611,2026-02-28T07:54:57.663737
2026/02/28 17:55:00,HD1WF1,30.59,Hawkesdale Asset Pty Ltd as trustee for Hawkesdale Asset Trust,Hawkesdale Wind Farm,Wind,89.0,34.37,Hawkesdale Wind Farm,-38.147894,142.361381,2026-02-28T07:54:57.663737
2026/02/28 17:55:00,HDWF1,70.6,HWF1 Pty Ltd,Hornsdale Wind Farm,Wind,102.0,69.22,Hornsdale Wind Farm,-33.050556,138.543611,2026-02-28T07:54:57.663737
2026/02/28 17:55:00,HDWF2,73.4,HWF 2 Pty Ltd,Hornsdale Wind Farm 2,Wind,102.0,71.96,Hornsdale Wind Farm 2,-33.06,138.54,2026-02-28T07:54:57.663737
2026/02/28 17:55:00,HDWF3,75.9,HWF3 Pty Ltd,Hornsdale Wind Farm 3,Wind,109.0,69.63,Hornsdale Wind Farm 3,-33.06,138.54,2026-02-28T07:54:57.663737
2026/02/28 17:55:00,KABANWF1,31.33,Kaban Wind Farm Pty Ltd as trustee for Kaban Wind Farm Trust,Kaban Wind Farm,Wind,152.0,20.61,Kaban Wind Farm,-17.56,145.41,2026-02-28T07:54:57.663737
2026/02/28 17:55:00,KEPWF1,2.0,Kennedy Energy Park Pty Ltd,Kennedy Energy Park,Wind,43.0,4.65,Kennedy Energy Park,-20.88,144.42,2026-02-28T07:54:57.663737
2026/02/28 17:55:00,KIATAWF1,3.6,Kiata ProjectCo Pty Ltd Atf Kiata Project Trust,Kiata Wind Farm,Wind,31.0,11.61,Kiata Wind Farm,-36.4,141.75,2026-02-28T07:54:57.663737
2026/02/28 17:55:00,LGAPWF1,5.3,Lincoln Gap Wind Farm (Operations) Pty Ltd,Lincoln Gap Wind Farm,Wind,123.0,4.31,Lincoln Gap Wind Farm,-32.564279,137.557328,2026-02-28T07:54:57.663737
2026/02/28 17:55:00,LGAPWF1,5.3,Lincoln Gap Wind Farm (Operations) Pty Ltd,Lincoln Gap Wind Farm,Wind,123.0,4.31,Lincoln Gap Wind Farm,-32.564279,137.557328,2026-02-28T07:54:57.663737
2026/02/28 17:55:00,LGAPWF2,11.33,Lincoln Gap Wind Farm (Operations) Pty Ltd,Lincoln Gap Wind Farm,Wind,85.0,13.33,Lincoln Gap Wind Farm,-32.564279,137.557328,2026-02-28T07:54:57.663737
2026/02/28 17:55:00,LGAPWF2,11.33,Lincoln Gap Wind Farm (Operations) Pty Ltd,Lincoln Gap Wind Farm,Wind,85.0,13.33,Lincoln Gap Wind Farm,-32.564279,137.557328,2026-02-28T07:54:57.663737
2026/02/28 17:55:00,LKBONNY1,4.73,Lake Bonney Wind Power Pty Ltd,Lake Bonney Wind Farm Stage 1,Wind,81.0,5.84,Lake Bonney Wind Farm Stage 1,-37.76,140.4,2026-02-28T07:54:57.663737
2026/02/28 17:55:00,LKBONNY2,5.36,Lake Bonney Wind Power Pty Ltd,Lake Bonney Stage 2 Windfarm,Wind,159.0,3.37,Lake Bonney Stage 2 Windfarm,-37.76,140.4,2026-02-28T07:54:57.663737
2026/02/28 17:55:00,LKBONNY3,1.73,Lake Bonney Wind Power Pty Ltd,Lake Bonney Stage 3 Wind Farm,Wind,39.0,4.44,Lake Bonney Stage 3 Wind Farm,-37.737781,140.388137,2026-02-28T07:54:57.663737
2026/02/28 17:55:00,MACARTH1,0.6,AGL Hydro Partnership,Macarthur Wind Farm,Wind,420.0,0.14,Macarthur Wind Farm,-38.048957,142.192112,2026-02-28T07:54:57.663737
2026/02/28 17:55:00,MCINTYR1,298.58,MacIntyre UJV Operator Pty Ltd,MacIntyre Wind Farm,Wind,890.0,33.55,MacIntyre Wind Farm,-28.32,151.54,2026-02-28T07:54:57.663737
2026/02/28 17:55:00,MERCER01,15.7,Mt Mercer Windfarm Pty Ltd,Mt Mercer Wind Farm,Wind,131.0,11.98,Mt Mercer Wind Farm,-37.841111,143.871111,2026-02-28T07:54:57.663737
2026/02/28 17:55:00,MEWF1,11.0,Ergon Energy Queensland Pty Ltd ,Mount Emerald Wind Farm,Wind,178.0,6.18,Mount Emerald Wind Farm,-17.133007,145.380644,2026-02-28T07:54:57.663737
2026/02/28 17:55:00,MRTLSWF1,58.88,Mortlake South Wind Farm Pty Ltd,Mortlake South Wind Farm,Wind,153.0,38.48,Mortlake South Wind Farm,-38.127337,142.857801,2026-02-28T07:54:57.663737
2026/02/28 17:55:00,MTGELWF1,38.35,Mt. Gellibrand Wind Farm Pty Ltd,Mt Gellibrand Wind Farm,Wind,132.0,29.05,Mt Gellibrand Wind Farm,-38.23,143.77,2026-02-28T07:54:57.663737
2026/02/28 17:55:00,MTMILLAR,23.0,Mt Millar Wind Farm Pty Ltd,Mt Millar Wind Farm,Wind,70.0,32.86,Mt Millar Wind Farm,-33.624444,136.703611,2026-02-28T07:54:57.663737
2026/02/28 17:55:00,MUSSELR1,67.4,Hydro-Electric Corporation,Musselroe Wind Farm,Wind,168.0,40.12,Musselroe Wind Farm,-40.780225,148.010799,2026-02-28T07:54:57.663737
2026/02/28 17:55:00,MUWAWF1,110.24,Telstra Energy (Generation) Pty Ltd,Murra Warra Wind Farm,Wind,225.7,48.84,Murra Warra Wind Farm,-36.432404,142.317853,2026-02-28T07:54:57.663737
2026/02/28 17:55:00,MUWAWF2,106.6,Murra Warra II Project Co Pty Ltd ATF The Murra Warra II Project Trust,Murra Warra Wind Farm Stage 2,Wind,203.0,52.51,Murra Warra Wind Farm Stage 2,-36.43,142.32,2026-02-28T07:54:57.663737
2026/02/28 17:55:00,NBHWF1,71.1,AGL SA Generation Pty Limited,North Brown Hill Wind Farm,Wind,132.0,53.86,North Brown Hill Wind Farm,-33.367778,138.728611,2026-02-28T07:54:57.663737
2026/02/28 17:55:00,OAKLAND1,10.8,AGL Hydro Partnership,Oaklands Hill Wind Farm,Wind,63.0,17.14,Oaklands Hill Wind Farm,-37.683078,142.551678,2026-02-28T07:54:57.663737
2026/02/28 17:55:00,PAREPW1,20.21,Iberdrola Australia Energy Markets Pty Limited,Port Augusta Renewable Energy Park,Wind,201.0,10.05,Port Augusta Renewable Energy Park,-32.566944,137.856111,2026-02-28T07:54:57.663737
2026/02/28 17:55:00,RYANCWF1,40.58,Ryan Corner Development Pty Ltd,Ryan Corner Wind Farm,Wind,205.0,19.8,Ryan Corner Wind Farm,-38.271017,142.140647,2026-02-28T07:54:57.663737
2026/02/28 17:55:00,RYEPARK1,333.52,Rye Park Renewable Energy Pty Ltd as trustee for Rye Park Wind Farm Trust,Rye Park Renewable Energy,Wind,384.0,86.85,Rye Park Renewable Energy,-32.138333,148.972778,2026-02-28T07:54:57.663737
2026/02/28 17:55:00,SALTCRK1,21.68,Salt Creek Wind Farm Pty Ltd,Salt Creek Wind Farm,Wind,54.0,40.15,Salt Creek Wind Farm,-37.95,142.63,2026-02-28T07:54:57.663737
2026/02/28 17:55:00,SAPHWF1,154.3,The Trustee For The SWF1 Operations Trust,Sapphire Wind Farm,Wind,270.0,57.15,Sapphire Wind Farm,-29.7,151.41,2026-02-28T07:54:57.663737
2026/02/28 17:55:00,SNOWNTH1,63.0,Snowtown Wind Farm Stage 2 Pty Ltd,Snowtown Wind Farm Stage 2 North,Wind,144.0,43.75,Snowtown Wind Farm Stage 2 North,-33.83,138.118611,2026-02-28T07:54:57.663737
2026/02/28 17:55:00,SNOWSTH1,100.4,Snowtown Wind Farm Stage 2 Pty Ltd,Snowtown South Wind Farm,Wind,126.0,79.68,Snowtown South Wind Farm,-33.83,138.118611,2026-02-28T07:54:57.663737
2026/02/28 17:55:00,SNOWTWN1,78.62,Snowtown Wind Farm Pty Ltd,Snowtown Wind Farm Units 1 And 47,Wind,99.0,79.41,Snowtown Wind Farm Units 1 And 47,-33.83,138.118611,2026-02-28T07:54:57.663737
2026/02/28 17:55:00,STARHLWF,13.2,Starfish Hill Wind Farm Pty Ltd,Starfish Hill Wind Farm,Wind,35.0,37.71,Starfish Hill Wind Farm,-35.58,138.14,2026-02-28T07:54:57.663737
2026/02/28 17:55:00,STOCKYD1,130.25,Stockyard Hill Wind Farm Pty Ltd,Stockyard Hill Wind Farm,Wind,511.0,25.49,Stockyard Hill Wind Farm,-37.535833,143.251389,2026-02-28T07:54:57.663737
2026/02/28 17:55:00,STWF1,100.59,PARF Company 8 Pty Ltd as The Trustee for Silverton Project Trust,Silverton Wind Farm,Wind,198.0,50.8,Silverton Wind Farm,-37.683168,142.551678,2026-02-28T07:54:57.663737
2026/02/28 17:55:00,TARALGA1,19.62,Taralga Wind Farm Nominees No 2 Pty Ltd (ATF Taralga Wind Farm Operating Trust),Taralga Wind Farm,Wind,106.0,18.51,Taralga Wind Farm,-34.42352,149.826267,2026-02-28T07:54:57.663737
2026/02/28 17:55:00,WAMBOWF1,160.06,Stanwell Corporation Limited,Wambo Wind Farm 1,Wind,245.0,65.33,Wambo Wind Farm 1,-35.187301,149.524945,2026-02-28T07:54:57.663737
2026/02/28 17:55:00,WATERLWF,68.6,Waterloo Wind Farm Pty Ltd,Waterloo Wind Farm,Wind,130.0,52.77,Waterloo Wind Farm,-34.00094,138.911567,2026-02-28T07:54:57.663737
2026/02/28 17:55:00,WGWF1,110.8,Willogoleche Power Pty Ltd As The Trustee For The Willogoleche Operating Trust,Willogoleche Wind Farm,Wind,119.0,93.11,Willogoleche Wind Farm,-33.39,138.85,2026-02-28T07:54:57.663737
2026/02/28 17:55:00,WOODLWN1,26.27,Woodlawn Wind Pty Ltd,Woodlawn Wind Farm,Wind,48.0,54.73,Woodlawn Wind Farm,-35.08,149.62,2026-02-28T07:54:57.663737
2026/02/28 17:55:00,WPWF,17.0,AGL SA Generation Pty Limited,Wattle Point Wind Farm,Wind,91.0,18.68,Wattle Point Wind Farm,-35.111624,137.7219,2026-02-28T07:54:57.663737
2026/02/28 17:55:00,WRWF1,97.52,White Rock Wind Farm Pty Ltd,White Rock Wind Farm,Wind,172.0,56.7,White Rock Wind Farm,-29.79,151.54,2026-02-28T07:54:57.663737
2026/02/28 17:55:00,YENDWF1,14.38,Lal Lal Wind Farms Nom Co Pty Ltd,Yendon Wind Farm,Wind,142.0,10.13,Yendon Wind Farm,-37.629987,144.022717,2026-02-28T07:54:57.663737
