SETTLEMENTDATE,DUID,SCADAVALUE,Participant,Station Name,Fuel Source - Primary,MAX_CAP,utilisation_pct,Plant,Latitude,Longitude,timestamp_utc
2026/02/12 02:50:00,CAPTL_WF,27.0,Iberdrola Australia Holdings Pty Limited,Capital Wind Farm,Wind,140.0,19.29,Capital Wind Farm,-35.1,149.31,2026-02-11T16:48:13.138976
2026/02/12 02:50:00,CHALLHWF,16.7,Pacific Hydro Challicum Hills Pty Ltd,Challicum Hills Wind Farm,Wind,52.0,32.12,Challicum Hills Wind Farm,-37.38,143.11,2026-02-11T16:48:13.138976
2026/02/12 02:50:00,CULLRGWF,10.95,Cullerin Range Wind Farm Pty Ltd,Cullerin Range Wind Farm,Wind,30.0,36.5,Cullerin Range Wind Farm,-34.81,149.4,2026-02-11T16:48:13.138976
2026/02/12 02:50:00,DIAPURWF1,8.3,Y.E.S. Energy (SA) Pty Ltd,Diapur Wind Farm,Wind,7.0,118.57,Diapur Wind Farm,-36.3425,141.43,2026-02-11T16:48:13.138976
2026/02/12 02:50:00,MLWF1,5.01,Mortons Lane Windfarm Pty Limited,Mortons Lane Wind Farm,Wind,20.0,25.05,Mortons Lane Wind Farm,-37.84,142.45,2026-02-11T16:48:13.138976
2026/02/12 02:50:00,WAUBRAWF,101.95,Pyrenees Wind Energy Developments Pty Ltd,Waubra Wind Farm,Wind,192.0,53.1,Waubra Wind Farm,-37.394498,143.638982,2026-02-11T16:48:13.138976
2026/02/12 02:50:00,WOOLNTH1,90.72,Hydro-Electric Corporation,Woolnorth Studland Bay / Bluff Point Wind Farm,Wind,140.0,64.8,Woolnorth Studland Bay / Bluff Point Wind Farm,-40.69,144.72,2026-02-11T16:48:13.138976
2026/02/12 02:50:00,YAMBUKWF,28.2,Energy Pacific (Vic) Pty Ltd,Yambuk Wind Farm,Wind,30.0,94.0,Yambuk Wind Farm,-38.299083,142.027577,2026-02-11T16:48:13.138976
2026/02/12 02:50:00,YSWF1,12.8,Pacific Hydro Yaloak South Pty Ltd,Yaloak South Wind Farm,Wind,28.0,45.71,Yaloak South Wind Farm,-37.7163,144.242853,2026-02-11T16:48:13.138976
2026/02/12 02:50:00,ARWF1,99.7,Ararat Wind Farm Pty Ltd,Ararat Wind Farm,Wind,241.0,41.37,Ararat Wind Farm,-37.232778,143.031389,2026-02-11T16:48:13.138976
2026/02/12 02:50:00,BALDHWF1,91.92,Alinta Energy Retail Sales Pty Ltd,Bald Hills Wind Farm,Wind,106.0,86.72,Bald Hills Wind Farm,-38.79,145.93,2026-02-11T16:48:13.138976
2026/02/12 02:50:00,BANGOWF1,64.9,BWF Nominees Pty Ltd as The Trustee for BWF Trust,Bango 973 Wind Farm,Wind,155.0,41.87,Bango 973 Wind Farm,-34.551582,148.732808,2026-02-11T16:48:13.138976
2026/02/12 02:50:00,BANGOWF2,47.5,BWF Nominees Pty Ltd as The Trustee for BWF Trust,Bango 999 Wind Farm,Wind,82.0,57.93,Bango 999 Wind Farm,-34.551582,148.732808,2026-02-11T16:48:13.138976
2026/02/12 02:50:00,BLUFF1,39.0,AGL SA Generation Pty Limited,The Bluff Wind Farm,Wind,53.0,73.58,The Bluff Wind Farm,-33.367778,138.728611,2026-02-11T16:48:13.138976
2026/02/12 02:50:00,BOCORWF1,26.32,Boco Rock Wind Farm Pty Ltd,Boco Rock Wind Farm,Wind,111.0,23.71,Boco Rock Wind Farm,-36.578611,149.103333,2026-02-11T16:48:13.138976
2026/02/12 02:50:00,BRYB1WF1,24.32,Berrybank Development Pty Ltd,Berrybank Wind Farm,Wind,175.9,13.83,Berrybank Wind Farm,-37.94,143.52,2026-02-11T16:48:13.138976
2026/02/12 02:50:00,BRYB2WF2,18.92,Berrybank 2 Asset Pty Ltd as trustee for Berrybank 2 Asset Trust,Berrybank 2 Wind Farm,Wind,105.0,18.02,Berrybank 2 Wind Farm,-37.94,143.52,2026-02-11T16:48:13.138976
2026/02/12 02:50:00,BULGANA1,90.24,Bulgana Wind Farm Pty Ltd,Bulgana Green Power Hub,Wind,204.0,44.24,Bulgana Green Power Hub,-37.0975,142.973611,2026-02-11T16:48:13.138976
2026/02/12 02:50:00,CATHROCK,31.9,Cathedral Rocks Wind Farm Pty Ltd,Cathedral Rocks,Wind,66.0,48.33,Cathedral Rocks,-34.51,135.35,2026-02-11T16:48:13.138976
2026/02/12 02:50:00,CHYTWF1,49.46,Cherry Tree Wind Farm Pty Ltd as trustee for The Cherry Tree Project trust ,Cherry Tree Wind Farm,Wind,57.0,86.77,Cherry Tree Wind Farm,-37.1,145.26,2026-02-11T16:48:13.138976
2026/02/12 02:50:00,CLEMGPWF,43.44,Pacific Hydro Clements Gap Pty Ltd,Clements Gap Wind Farm,Wind,57.0,76.21,Clements Gap Wind Farm,-33.48,138.1,2026-02-11T16:48:13.138976
2026/02/12 02:50:00,CLRKCWF1,298.11,Stanwell Corporation Limited ,Clarke Creek Wind Farm,Wind,338.0,88.2,Clarke Creek Wind Farm,-22.85,149.45,2026-02-11T16:48:13.138976
2026/02/12 02:50:00,CLRKCWF2,63.14,Stanwell Corporation Limited ,Clarke Creek Wind Farm,Wind,101.0,62.51,Clarke Creek Wind Farm,-22.85,149.45,2026-02-11T16:48:13.138976
2026/02/12 02:50:00,CNUNDAWF,27.83,Canunda Power Pty Ltd,Canunda Wind Farm,Wind,46.0,60.5,Canunda Wind Farm,-37.73,140.39,2026-02-11T16:48:13.138976
2026/02/12 02:50:00,COLWF01,31.36,Collector Wind Farm Pty Ltd,Collector Wind Farm 1,Wind,219.0,14.32,Collector Wind Farm 1,-34.8719,149.3967,2026-02-11T16:48:13.138976
2026/02/12 02:50:00,COOPGWF1,181.29,PARF Company 10 Pty Limited as The Trustee for Coopers Gap Project Trust,Coopers Gap Wind Farm,Wind,440.0,41.2,Coopers Gap Wind Farm,-26.74,151.45,2026-02-11T16:48:13.138976
2026/02/12 02:50:00,CROOKWF2,45.68,Crookwell Development Pty Ltd ,Crookwell 2 Wind Farm,Wind,91.0,50.2,Crookwell 2 Wind Farm,-34.52,149.54,2026-02-11T16:48:13.138976
2026/02/12 02:50:00,CROOKWF3,26.59,Crookwell 3 Development Pty Ltd,Crookwell 3 Wind Farm,Wind,56.0,47.48,Crookwell 3 Wind Farm,-34.52,149.54,2026-02-11T16:48:13.138976
2026/02/12 02:50:00,CROWLWF1,64.7,Pacific Hydro Crowlands Pty Ltd ,Crowlands Wind Farm,Wind,79.0,81.9,Crowlands Wind Farm,-37.13,143.16,2026-02-11T16:48:13.138976
2026/02/12 02:50:00,CRURWF1,63.6,CRWF Nominees Pty Ltd As Trustee For The CRWF Trust,Crudine Ridge Wind Farm,Wind,138.0,46.09,Crudine Ridge Wind Farm,-32.97,149.64,2026-02-11T16:48:13.138976
2026/02/12 02:50:00,CTHLWF1,123.0,Wild Cattle Hill Pty Ltd,Cattle Hill Wind Farm,Wind,144.0,85.42,Cattle Hill Wind Farm,-42.15,146.69,2026-02-11T16:48:13.138976
2026/02/12 02:50:00,DULAWF1,134.9,Dulacca Energy Project Co Pty Ltd,Dulacca Wind Farm,Wind,173.0,77.98,Dulacca Wind Farm,-26.63,149.87,2026-02-11T16:48:13.138976
2026/02/12 02:50:00,DUNDWF1,40.12,Dundonnell Wind Farm Pty Ltd,Dundonnell Wind Farm,Wind,168.0,23.88,Dundonnell Wind Farm,-37.52,142.58,2026-02-11T16:48:13.138976
2026/02/12 02:50:00,DUNDWF2,11.14,Dundonnell Wind Farm Pty Ltd,Dundonnell Wind Farm,Wind,46.0,24.22,Dundonnell Wind Farm,-37.52,142.58,2026-02-11T16:48:13.138976
2026/02/12 02:50:00,DUNDWF3,44.13,Dundonnell Wind Farm Pty Ltd,Dundonnell Wind Farm,Wind,122.0,36.17,Dundonnell Wind Farm,-37.52,142.58,2026-02-11T16:48:13.138976
2026/02/12 02:50:00,ELAINWF1,9.26,Lal Lal Wind Farms Nom Co Pty Ltd,Elaine Wind Farm,Wind,82.0,11.29,Elaine Wind Farm,-37.36,144.0,2026-02-11T16:48:13.138976
2026/02/12 02:50:00,FLYCRKWF,47.19,Iberdrola Australia Energy Markets Pty Limited,Flyers Creek Wind Farm,Wind,140.0,33.71,Flyers Creek Wind Farm,-33.365556,148.981944,2026-02-11T16:48:13.138976
2026/02/12 02:50:00,GPWFEST1,51.94,Golden Plains WF1 Pty Ltd as Trustee for the Golden Plains WF1 Unit Trust,Golden Plains Wind Farm East,Wind,240.0,21.64,Golden Plains Wind Farm East,-37.945091,143.752614,2026-02-11T16:48:13.138976
2026/02/12 02:50:00,GPWFEST2,38.63,Golden Plains WF1 Pty Ltd as Trustee for the Golden Plains WF1 Unit Trust,Golden Plains Wind Farm East,Wind,253.0,15.27,Golden Plains Wind Farm East,-37.945091,143.752614,2026-02-11T16:48:13.138976
2026/02/12 02:50:00,GPWFEST3,39.21,Golden Plains WF1 Pty Ltd as Trustee for the Golden Plains WF1 Unit Trust,Golden Plains Wind Farm East,Wind,240.0,16.34,Golden Plains Wind Farm East,-37.945091,143.752614,2026-02-11T16:48:13.138976
2026/02/12 02:50:00,GRANWF1,89.41,Granville Harbour Operations Pty Ltd as The Trustee for Granville Harbour Operations Trust,Granville Harbour Wind Farm,Wind,111.0,80.55,Granville Harbour Wind Farm,-41.8,145.06,2026-02-11T16:48:13.138976
2026/02/12 02:50:00,GSWF1A,95.1,Goyder Wind Farm 1 Pty Ltd as the Trustee for Goyder Wind Farm 1 Trust,Goyder South Wind Farm 1A,Wind,201.0,47.31,Goyder South Wind Farm 1A,-33.679758,138.937597,2026-02-11T16:48:13.138976
2026/02/12 02:50:00,GSWF1B1,95.39,Goyder Wind Farm 1B Pty Ltd as the Trustee for the Goyder Wind Farm 1B Trust,Goyder South Wind Farm 1B,Wind,196.0,48.67,Goyder South Wind Farm 1B,-33.679758,138.937597,2026-02-11T16:48:13.138976
2026/02/12 02:50:00,GULLRWF1,67.06,New Gullen Range Wind Farm Pty Ltd,Gullen Range Wind Farm,Wind,161.0,41.65,Gullen Range Wind Farm,-34.34,149.27,2026-02-11T16:48:13.138976
2026/02/12 02:50:00,GULLRWF2,38.18,New Gullen Range Wind Farm Pty Ltd,Gullen Range Wind Farm,Wind,107.0,35.68,Gullen Range Wind Farm,-34.34,149.27,2026-02-11T16:48:13.138976
2026/02/12 02:50:00,GUNNING1,18.01,Gunning Wind Energy Developments Pty Ltd,Gunning Wind Farm,Wind,47.0,38.32,Gunning Wind Farm,-34.813333,149.4,2026-02-11T16:48:13.138976
2026/02/12 02:50:00,HALLWF1,75.65,AGL SA Generation Pty Limited,Hallett 1 Wind Farm,Wind,95.0,79.63,Hallett 1 Wind Farm,-33.367778,138.728611,2026-02-11T16:48:13.138976
2026/02/12 02:50:00,HALLWF2,55.97,AGL SA Generation Pty Limited,Hallett 2 Wind Farm,Wind,71.0,78.83,Hallett 2 Wind Farm,-33.367778,138.728611,2026-02-11T16:48:13.138976
2026/02/12 02:50:00,HD1WF1,30.83,Hawkesdale Asset Pty Ltd as trustee for Hawkesdale Asset Trust,Hawkesdale Wind Farm,Wind,89.0,34.64,Hawkesdale Wind Farm,-38.147894,142.361381,2026-02-11T16:48:13.138976
2026/02/12 02:50:00,HDWF1,56.4,HWF1 Pty Ltd,Hornsdale Wind Farm,Wind,102.0,55.29,Hornsdale Wind Farm,-33.050556,138.543611,2026-02-11T16:48:13.138976
2026/02/12 02:50:00,HDWF2,63.6,HWF 2 Pty Ltd,Hornsdale Wind Farm 2,Wind,102.0,62.35,Hornsdale Wind Farm 2,-33.06,138.54,2026-02-11T16:48:13.138976
2026/02/12 02:50:00,HDWF3,53.4,HWF3 Pty Ltd,Hornsdale Wind Farm 3,Wind,109.0,48.99,Hornsdale Wind Farm 3,-33.06,138.54,2026-02-11T16:48:13.138976
2026/02/12 02:50:00,KABANWF1,7.12,Kaban Wind Farm Pty Ltd as trustee for Kaban Wind Farm Trust,Kaban Wind Farm,Wind,152.0,4.68,Kaban Wind Farm,-17.56,145.41,2026-02-11T16:48:13.138976
2026/02/12 02:50:00,KEPWF1,5.3,Kennedy Energy Park Pty Ltd,Kennedy Energy Park,Wind,43.0,12.33,Kennedy Energy Park,-20.88,144.42,2026-02-11T16:48:13.138976
2026/02/12 02:50:00,KIATAWF1,22.7,Kiata ProjectCo Pty Ltd Atf Kiata Project Trust,Kiata Wind Farm,Wind,31.0,73.23,Kiata Wind Farm,-36.4,141.75,2026-02-11T16:48:13.138976
2026/02/12 02:50:00,LGAPWF1,86.79,Lincoln Gap Wind Farm (Operations) Pty Ltd,Lincoln Gap Wind Farm,Wind,123.0,70.56,Lincoln Gap Wind Farm,-32.564279,137.557328,2026-02-11T16:48:13.138976
2026/02/12 02:50:00,LGAPWF1,86.79,Lincoln Gap Wind Farm (Operations) Pty Ltd,Lincoln Gap Wind Farm,Wind,123.0,70.56,Lincoln Gap Wind Farm,-32.564279,137.557328,2026-02-11T16:48:13.138976
2026/02/12 02:50:00,LGAPWF2,85.27,Lincoln Gap Wind Farm (Operations) Pty Ltd,Lincoln Gap Wind Farm,Wind,85.0,100.32,Lincoln Gap Wind Farm,-32.564279,137.557328,2026-02-11T16:48:13.138976
2026/02/12 02:50:00,LGAPWF2,85.27,Lincoln Gap Wind Farm (Operations) Pty Ltd,Lincoln Gap Wind Farm,Wind,85.0,100.32,Lincoln Gap Wind Farm,-32.564279,137.557328,2026-02-11T16:48:13.138976
2026/02/12 02:50:00,LKBONNY1,40.46,Lake Bonney Wind Power Pty Ltd,Lake Bonney Wind Farm Stage 1,Wind,81.0,49.95,Lake Bonney Wind Farm Stage 1,-37.76,140.4,2026-02-11T16:48:13.138976
2026/02/12 02:50:00,LKBONNY2,103.07,Lake Bonney Wind Power Pty Ltd,Lake Bonney Stage 2 Windfarm,Wind,159.0,64.82,Lake Bonney Stage 2 Windfarm,-37.76,140.4,2026-02-11T16:48:13.138976
2026/02/12 02:50:00,LKBONNY3,30.31,Lake Bonney Wind Power Pty Ltd,Lake Bonney Stage 3 Wind Farm,Wind,39.0,77.72,Lake Bonney Stage 3 Wind Farm,-37.737781,140.388137,2026-02-11T16:48:13.138976
2026/02/12 02:50:00,MACARTH1,125.3,AGL Hydro Partnership,Macarthur Wind Farm,Wind,420.0,29.83,Macarthur Wind Farm,-38.048957,142.192112,2026-02-11T16:48:13.138976
2026/02/12 02:50:00,MCINTYR1,137.11,MacIntyre UJV Operator Pty Ltd,MacIntyre Wind Farm,Wind,890.0,15.41,MacIntyre Wind Farm,-28.32,151.54,2026-02-11T16:48:13.138976
2026/02/12 02:50:00,MERCER01,12.2,Mt Mercer Windfarm Pty Ltd,Mt Mercer Wind Farm,Wind,131.0,9.31,Mt Mercer Wind Farm,-37.841111,143.871111,2026-02-11T16:48:13.138976
2026/02/12 02:50:00,MEWF1,0.0,Ergon Energy Queensland Pty Ltd ,Mount Emerald Wind Farm,Wind,178.0,0.0,Mount Emerald Wind Farm,-17.133007,145.380644,2026-02-11T16:48:13.138976
2026/02/12 02:50:00,MRTLSWF1,59.71,Mortlake South Wind Farm Pty Ltd,Mortlake South Wind Farm,Wind,153.0,39.03,Mortlake South Wind Farm,-38.127337,142.857801,2026-02-11T16:48:13.138976
2026/02/12 02:50:00,MTGELWF1,15.26,Mt. Gellibrand Wind Farm Pty Ltd,Mt Gellibrand Wind Farm,Wind,132.0,11.56,Mt Gellibrand Wind Farm,-38.23,143.77,2026-02-11T16:48:13.138976
2026/02/12 02:50:00,MTMILLAR,61.4,Mt Millar Wind Farm Pty Ltd,Mt Millar Wind Farm,Wind,70.0,87.71,Mt Millar Wind Farm,-33.624444,136.703611,2026-02-11T16:48:13.138976
2026/02/12 02:50:00,MUSSELR1,115.3,Hydro-Electric Corporation,Musselroe Wind Farm,Wind,168.0,68.63,Musselroe Wind Farm,-40.780225,148.010799,2026-02-11T16:48:13.138976
2026/02/12 02:50:00,MUWAWF1,159.81,Telstra Energy (Generation) Pty Ltd,Murra Warra Wind Farm,Wind,225.7,70.81,Murra Warra Wind Farm,-36.432404,142.317853,2026-02-11T16:48:13.138976
2026/02/12 02:50:00,MUWAWF2,134.9,Murra Warra II Project Co Pty Ltd ATF The Murra Warra II Project Trust,Murra Warra Wind Farm Stage 2,Wind,203.0,66.45,Murra Warra Wind Farm Stage 2,-36.43,142.32,2026-02-11T16:48:13.138976
2026/02/12 02:50:00,NBHWF1,108.7,AGL SA Generation Pty Limited,North Brown Hill Wind Farm,Wind,132.0,82.35,North Brown Hill Wind Farm,-33.367778,138.728611,2026-02-11T16:48:13.138976
2026/02/12 02:50:00,OAKLAND1,32.0,AGL Hydro Partnership,Oaklands Hill Wind Farm,Wind,63.0,50.79,Oaklands Hill Wind Farm,-37.683078,142.551678,2026-02-11T16:48:13.138976
2026/02/12 02:50:00,PAREPW1,185.75,Iberdrola Australia Energy Markets Pty Limited,Port Augusta Renewable Energy Park,Wind,201.0,92.41,Port Augusta Renewable Energy Park,-32.566944,137.856111,2026-02-11T16:48:13.138976
2026/02/12 02:50:00,RYANCWF1,191.9,Ryan Corner Development Pty Ltd,Ryan Corner Wind Farm,Wind,205.0,93.61,Ryan Corner Wind Farm,-38.271017,142.140647,2026-02-11T16:48:13.138976
2026/02/12 02:50:00,RYEPARK1,85.81,Rye Park Renewable Energy Pty Ltd as trustee for Rye Park Wind Farm Trust,Rye Park Renewable Energy,Wind,384.0,22.35,Rye Park Renewable Energy,-32.138333,148.972778,2026-02-11T16:48:13.138976
2026/02/12 02:50:00,SALTCRK1,20.0,Salt Creek Wind Farm Pty Ltd,Salt Creek Wind Farm,Wind,54.0,37.04,Salt Creek Wind Farm,-37.95,142.63,2026-02-11T16:48:13.138976
2026/02/12 02:50:00,SAPHWF1,66.1,The Trustee For The SWF1 Operations Trust,Sapphire Wind Farm,Wind,270.0,24.48,Sapphire Wind Farm,-29.7,151.41,2026-02-11T16:48:13.138976
2026/02/12 02:50:00,SNOWNTH1,138.9,Snowtown Wind Farm Stage 2 Pty Ltd,Snowtown Wind Farm Stage 2 North,Wind,144.0,96.46,Snowtown Wind Farm Stage 2 North,-33.83,138.118611,2026-02-11T16:48:13.138976
2026/02/12 02:50:00,SNOWSTH1,120.8,Snowtown Wind Farm Stage 2 Pty Ltd,Snowtown South Wind Farm,Wind,126.0,95.87,Snowtown South Wind Farm,-33.83,138.118611,2026-02-11T16:48:13.138976
2026/02/12 02:50:00,SNOWTWN1,91.01,Snowtown Wind Farm Pty Ltd,Snowtown Wind Farm Units 1 And 47,Wind,99.0,91.93,Snowtown Wind Farm Units 1 And 47,-33.83,138.118611,2026-02-11T16:48:13.138976
2026/02/12 02:50:00,STARHLWF,14.5,Starfish Hill Wind Farm Pty Ltd,Starfish Hill Wind Farm,Wind,35.0,41.43,Starfish Hill Wind Farm,-35.58,138.14,2026-02-11T16:48:13.138976
2026/02/12 02:50:00,STOCKYD1,200.18,Stockyard Hill Wind Farm Pty Ltd,Stockyard Hill Wind Farm,Wind,511.0,39.17,Stockyard Hill Wind Farm,-37.535833,143.251389,2026-02-11T16:48:13.138976
2026/02/12 02:50:00,STWF1,105.28,PARF Company 8 Pty Ltd as The Trustee for Silverton Project Trust,Silverton Wind Farm,Wind,198.0,53.17,Silverton Wind Farm,-37.683168,142.551678,2026-02-11T16:48:13.138976
2026/02/12 02:50:00,TARALGA1,75.34,Taralga Wind Farm Nominees No 2 Pty Ltd (ATF Taralga Wind Farm Operating Trust),Taralga Wind Farm,Wind,106.0,71.08,Taralga Wind Farm,-34.42352,149.826267,2026-02-11T16:48:13.138976
2026/02/12 02:50:00,WAMBOWF1,120.0,Stanwell Corporation Limited,Wambo Wind Farm 1,Wind,245.0,48.98,Wambo Wind Farm 1,-35.187301,149.524945,2026-02-11T16:48:13.138976
2026/02/12 02:50:00,WATERLWF,67.2,Waterloo Wind Farm Pty Ltd,Waterloo Wind Farm,Wind,130.0,51.69,Waterloo Wind Farm,-34.00094,138.911567,2026-02-11T16:48:13.138976
2026/02/12 02:50:00,WGWF1,111.9,Willogoleche Power Pty Ltd As The Trustee For The Willogoleche Operating Trust,Willogoleche Wind Farm,Wind,119.0,94.03,Willogoleche Wind Farm,-33.39,138.85,2026-02-11T16:48:13.138976
2026/02/12 02:50:00,WOODLWN1,18.93,Woodlawn Wind Pty Ltd,Woodlawn Wind Farm,Wind,48.0,39.44,Woodlawn Wind Farm,-35.08,149.62,2026-02-11T16:48:13.138976
2026/02/12 02:50:00,WPWF,71.58,AGL SA Generation Pty Limited,Wattle Point Wind Farm,Wind,91.0,78.66,Wattle Point Wind Farm,-35.111624,137.7219,2026-02-11T16:48:13.138976
2026/02/12 02:50:00,WRWF1,17.73,White Rock Wind Farm Pty Ltd,White Rock Wind Farm,Wind,172.0,10.31,White Rock Wind Farm,-29.79,151.54,2026-02-11T16:48:13.138976
2026/02/12 02:50:00,YENDWF1,34.01,Lal Lal Wind Farms Nom Co Pty Ltd,Yendon Wind Farm,Wind,142.0,23.95,Yendon Wind Farm,-37.629987,144.022717,2026-02-11T16:48:13.138976
