SETTLEMENTDATE,DUID,SCADAVALUE,Participant,Station Name,Fuel Source - Primary,MAX_CAP,utilisation_pct,Plant,Latitude,Longitude,timestamp_utc
2026/02/17 21:50:00,CAPTL_WF,74.97,Iberdrola Australia Holdings Pty Limited,Capital Wind Farm,Wind,140.0,53.55,Capital Wind Farm,-35.1,149.31,2026-02-17T11:50:42.859686
2026/02/17 21:50:00,CHALLHWF,7.8,Pacific Hydro Challicum Hills Pty Ltd,Challicum Hills Wind Farm,Wind,52.0,15.0,Challicum Hills Wind Farm,-37.38,143.11,2026-02-17T11:50:42.859686
2026/02/17 21:50:00,CULLRGWF,7.76,Cullerin Range Wind Farm Pty Ltd,Cullerin Range Wind Farm,Wind,30.0,25.87,Cullerin Range Wind Farm,-34.81,149.4,2026-02-17T11:50:42.859686
2026/02/17 21:50:00,DIAPURWF1,8.3,Y.E.S. Energy (SA) Pty Ltd,Diapur Wind Farm,Wind,7.0,118.57,Diapur Wind Farm,-36.3425,141.43,2026-02-17T11:50:42.859686
2026/02/17 21:50:00,MLWF1,6.48,Mortons Lane Windfarm Pty Limited,Mortons Lane Wind Farm,Wind,20.0,32.4,Mortons Lane Wind Farm,-37.84,142.45,2026-02-17T11:50:42.859686
2026/02/17 21:50:00,WAUBRAWF,120.78,Pyrenees Wind Energy Developments Pty Ltd,Waubra Wind Farm,Wind,192.0,62.91,Waubra Wind Farm,-37.394498,143.638982,2026-02-17T11:50:42.859686
2026/02/17 21:50:00,WOOLNTH1,79.77,Hydro-Electric Corporation,Woolnorth Studland Bay / Bluff Point Wind Farm,Wind,140.0,56.98,Woolnorth Studland Bay / Bluff Point Wind Farm,-40.69,144.72,2026-02-17T11:50:42.859686
2026/02/17 21:50:00,YAMBUKWF,11.2,Energy Pacific (Vic) Pty Ltd,Yambuk Wind Farm,Wind,30.0,37.33,Yambuk Wind Farm,-38.299083,142.027577,2026-02-17T11:50:42.859686
2026/02/17 21:50:00,YSWF1,15.7,Pacific Hydro Yaloak South Pty Ltd,Yaloak South Wind Farm,Wind,28.0,56.07,Yaloak South Wind Farm,-37.7163,144.242853,2026-02-17T11:50:42.859686
2026/02/17 21:50:00,ARWF1,117.8,Ararat Wind Farm Pty Ltd,Ararat Wind Farm,Wind,241.0,48.88,Ararat Wind Farm,-37.232778,143.031389,2026-02-17T11:50:42.859686
2026/02/17 21:50:00,BALDHWF1,35.32,Alinta Energy Retail Sales Pty Ltd,Bald Hills Wind Farm,Wind,106.0,33.32,Bald Hills Wind Farm,-38.79,145.93,2026-02-17T11:50:42.859686
2026/02/17 21:50:00,BANGOWF1,71.4,BWF Nominees Pty Ltd as The Trustee for BWF Trust,Bango 973 Wind Farm,Wind,155.0,46.06,Bango 973 Wind Farm,-34.551582,148.732808,2026-02-17T11:50:42.859686
2026/02/17 21:50:00,BANGOWF2,31.1,BWF Nominees Pty Ltd as The Trustee for BWF Trust,Bango 999 Wind Farm,Wind,82.0,37.93,Bango 999 Wind Farm,-34.551582,148.732808,2026-02-17T11:50:42.859686
2026/02/17 21:50:00,BLUFF1,13.4,AGL SA Generation Pty Limited,The Bluff Wind Farm,Wind,53.0,25.28,The Bluff Wind Farm,-33.367778,138.728611,2026-02-17T11:50:42.859686
2026/02/17 21:50:00,BOCORWF1,87.28,Boco Rock Wind Farm Pty Ltd,Boco Rock Wind Farm,Wind,111.0,78.63,Boco Rock Wind Farm,-36.578611,149.103333,2026-02-17T11:50:42.859686
2026/02/17 21:50:00,BRYB1WF1,64.44,Berrybank Development Pty Ltd,Berrybank Wind Farm,Wind,175.9,36.63,Berrybank Wind Farm,-37.94,143.52,2026-02-17T11:50:42.859686
2026/02/17 21:50:00,BRYB2WF2,33.57,Berrybank 2 Asset Pty Ltd as trustee for Berrybank 2 Asset Trust,Berrybank 2 Wind Farm,Wind,105.0,31.97,Berrybank 2 Wind Farm,-37.94,143.52,2026-02-17T11:50:42.859686
2026/02/17 21:50:00,BULGANA1,102.55,Bulgana Wind Farm Pty Ltd,Bulgana Green Power Hub,Wind,204.0,50.27,Bulgana Green Power Hub,-37.0975,142.973611,2026-02-17T11:50:42.859686
2026/02/17 21:50:00,CATHROCK,12.3,Cathedral Rocks Wind Farm Pty Ltd,Cathedral Rocks,Wind,66.0,18.64,Cathedral Rocks,-34.51,135.35,2026-02-17T11:50:42.859686
2026/02/17 21:50:00,CHYTWF1,5.34,Cherry Tree Wind Farm Pty Ltd as trustee for The Cherry Tree Project trust ,Cherry Tree Wind Farm,Wind,57.0,9.37,Cherry Tree Wind Farm,-37.1,145.26,2026-02-17T11:50:42.859686
2026/02/17 21:50:00,CLEMGPWF,32.34,Pacific Hydro Clements Gap Pty Ltd,Clements Gap Wind Farm,Wind,57.0,56.74,Clements Gap Wind Farm,-33.48,138.1,2026-02-17T11:50:42.859686
2026/02/17 21:50:00,CLRKCWF1,255.87,Stanwell Corporation Limited ,Clarke Creek Wind Farm,Wind,338.0,75.7,Clarke Creek Wind Farm,-22.85,149.45,2026-02-17T11:50:42.859686
2026/02/17 21:50:00,CLRKCWF2,86.86,Stanwell Corporation Limited ,Clarke Creek Wind Farm,Wind,101.0,86.0,Clarke Creek Wind Farm,-22.85,149.45,2026-02-17T11:50:42.859686
2026/02/17 21:50:00,CNUNDAWF,11.21,Canunda Power Pty Ltd,Canunda Wind Farm,Wind,46.0,24.37,Canunda Wind Farm,-37.73,140.39,2026-02-17T11:50:42.859686
2026/02/17 21:50:00,COLWF01,18.22,Collector Wind Farm Pty Ltd,Collector Wind Farm 1,Wind,219.0,8.32,Collector Wind Farm 1,-34.8719,149.3967,2026-02-17T11:50:42.859686
2026/02/17 21:50:00,COOPGWF1,288.05,PARF Company 10 Pty Limited as The Trustee for Coopers Gap Project Trust,Coopers Gap Wind Farm,Wind,440.0,65.47,Coopers Gap Wind Farm,-26.74,151.45,2026-02-17T11:50:42.859686
2026/02/17 21:50:00,CROOKWF2,33.4,Crookwell Development Pty Ltd ,Crookwell 2 Wind Farm,Wind,91.0,36.7,Crookwell 2 Wind Farm,-34.52,149.54,2026-02-17T11:50:42.859686
2026/02/17 21:50:00,CROOKWF3,25.69,Crookwell 3 Development Pty Ltd,Crookwell 3 Wind Farm,Wind,56.0,45.88,Crookwell 3 Wind Farm,-34.52,149.54,2026-02-17T11:50:42.859686
2026/02/17 21:50:00,CROWLWF1,55.98,Pacific Hydro Crowlands Pty Ltd ,Crowlands Wind Farm,Wind,79.0,70.86,Crowlands Wind Farm,-37.13,143.16,2026-02-17T11:50:42.859686
2026/02/17 21:50:00,CRURWF1,61.4,CRWF Nominees Pty Ltd As Trustee For The CRWF Trust,Crudine Ridge Wind Farm,Wind,138.0,44.49,Crudine Ridge Wind Farm,-32.97,149.64,2026-02-17T11:50:42.859686
2026/02/17 21:50:00,CTHLWF1,111.15,Wild Cattle Hill Pty Ltd,Cattle Hill Wind Farm,Wind,144.0,77.19,Cattle Hill Wind Farm,-42.15,146.69,2026-02-17T11:50:42.859686
2026/02/17 21:50:00,DULAWF1,93.2,Dulacca Energy Project Co Pty Ltd,Dulacca Wind Farm,Wind,173.0,53.87,Dulacca Wind Farm,-26.63,149.87,2026-02-17T11:50:42.859686
2026/02/17 21:50:00,DUNDWF1,51.26,Dundonnell Wind Farm Pty Ltd,Dundonnell Wind Farm,Wind,168.0,30.51,Dundonnell Wind Farm,-37.52,142.58,2026-02-17T11:50:42.859686
2026/02/17 21:50:00,DUNDWF2,13.9,Dundonnell Wind Farm Pty Ltd,Dundonnell Wind Farm,Wind,46.0,30.22,Dundonnell Wind Farm,-37.52,142.58,2026-02-17T11:50:42.859686
2026/02/17 21:50:00,DUNDWF3,38.38,Dundonnell Wind Farm Pty Ltd,Dundonnell Wind Farm,Wind,122.0,31.46,Dundonnell Wind Farm,-37.52,142.58,2026-02-17T11:50:42.859686
2026/02/17 21:50:00,ELAINWF1,13.06,Lal Lal Wind Farms Nom Co Pty Ltd,Elaine Wind Farm,Wind,82.0,15.93,Elaine Wind Farm,-37.36,144.0,2026-02-17T11:50:42.859686
2026/02/17 21:50:00,FLYCRKWF,16.89,Iberdrola Australia Energy Markets Pty Limited,Flyers Creek Wind Farm,Wind,140.0,12.06,Flyers Creek Wind Farm,-33.365556,148.981944,2026-02-17T11:50:42.859686
2026/02/17 21:50:00,GPWFEST1,94.36,Golden Plains WF1 Pty Ltd as Trustee for the Golden Plains WF1 Unit Trust,Golden Plains Wind Farm East,Wind,240.0,39.32,Golden Plains Wind Farm East,-37.945091,143.752614,2026-02-17T11:50:42.859686
2026/02/17 21:50:00,GPWFEST2,70.08,Golden Plains WF1 Pty Ltd as Trustee for the Golden Plains WF1 Unit Trust,Golden Plains Wind Farm East,Wind,253.0,27.7,Golden Plains Wind Farm East,-37.945091,143.752614,2026-02-17T11:50:42.859686
2026/02/17 21:50:00,GPWFEST3,60.49,Golden Plains WF1 Pty Ltd as Trustee for the Golden Plains WF1 Unit Trust,Golden Plains Wind Farm East,Wind,240.0,25.2,Golden Plains Wind Farm East,-37.945091,143.752614,2026-02-17T11:50:42.859686
2026/02/17 21:50:00,GRANWF1,0.0,Granville Harbour Operations Pty Ltd as The Trustee for Granville Harbour Operations Trust,Granville Harbour Wind Farm,Wind,111.0,0.0,Granville Harbour Wind Farm,-41.8,145.06,2026-02-17T11:50:42.859686
2026/02/17 21:50:00,GSWF1A,42.94,Goyder Wind Farm 1 Pty Ltd as the Trustee for Goyder Wind Farm 1 Trust,Goyder South Wind Farm 1A,Wind,201.0,21.36,Goyder South Wind Farm 1A,-33.679758,138.937597,2026-02-17T11:50:42.859686
2026/02/17 21:50:00,GSWF1B1,13.87,Goyder Wind Farm 1B Pty Ltd as the Trustee for the Goyder Wind Farm 1B Trust,Goyder South Wind Farm 1B,Wind,196.0,7.08,Goyder South Wind Farm 1B,-33.679758,138.937597,2026-02-17T11:50:42.859686
2026/02/17 21:50:00,GULLRWF1,42.69,New Gullen Range Wind Farm Pty Ltd,Gullen Range Wind Farm,Wind,161.0,26.52,Gullen Range Wind Farm,-34.34,149.27,2026-02-17T11:50:42.859686
2026/02/17 21:50:00,GULLRWF2,25.71,New Gullen Range Wind Farm Pty Ltd,Gullen Range Wind Farm,Wind,107.0,24.03,Gullen Range Wind Farm,-34.34,149.27,2026-02-17T11:50:42.859686
2026/02/17 21:50:00,GUNNING1,15.77,Gunning Wind Energy Developments Pty Ltd,Gunning Wind Farm,Wind,47.0,33.55,Gunning Wind Farm,-34.813333,149.4,2026-02-17T11:50:42.859686
2026/02/17 21:50:00,HALLWF1,11.02,AGL SA Generation Pty Limited,Hallett 1 Wind Farm,Wind,95.0,11.6,Hallett 1 Wind Farm,-33.367778,138.728611,2026-02-17T11:50:42.859686
2026/02/17 21:50:00,HALLWF2,6.39,AGL SA Generation Pty Limited,Hallett 2 Wind Farm,Wind,71.0,9.0,Hallett 2 Wind Farm,-33.367778,138.728611,2026-02-17T11:50:42.859686
2026/02/17 21:50:00,HD1WF1,50.29,Hawkesdale Asset Pty Ltd as trustee for Hawkesdale Asset Trust,Hawkesdale Wind Farm,Wind,89.0,56.51,Hawkesdale Wind Farm,-38.147894,142.361381,2026-02-17T11:50:42.859686
2026/02/17 21:50:00,HDWF1,47.3,HWF1 Pty Ltd,Hornsdale Wind Farm,Wind,102.0,46.37,Hornsdale Wind Farm,-33.050556,138.543611,2026-02-17T11:50:42.859686
2026/02/17 21:50:00,HDWF2,48.0,HWF 2 Pty Ltd,Hornsdale Wind Farm 2,Wind,102.0,47.06,Hornsdale Wind Farm 2,-33.06,138.54,2026-02-17T11:50:42.859686
2026/02/17 21:50:00,HDWF3,45.1,HWF3 Pty Ltd,Hornsdale Wind Farm 3,Wind,109.0,41.38,Hornsdale Wind Farm 3,-33.06,138.54,2026-02-17T11:50:42.859686
2026/02/17 21:50:00,KABANWF1,25.5,Kaban Wind Farm Pty Ltd as trustee for Kaban Wind Farm Trust,Kaban Wind Farm,Wind,152.0,16.78,Kaban Wind Farm,-17.56,145.41,2026-02-17T11:50:42.859686
2026/02/17 21:50:00,KEPWF1,0.0,Kennedy Energy Park Pty Ltd,Kennedy Energy Park,Wind,43.0,0.0,Kennedy Energy Park,-20.88,144.42,2026-02-17T11:50:42.859686
2026/02/17 21:50:00,KIATAWF1,29.9,Kiata ProjectCo Pty Ltd Atf Kiata Project Trust,Kiata Wind Farm,Wind,31.0,96.45,Kiata Wind Farm,-36.4,141.75,2026-02-17T11:50:42.859686
2026/02/17 21:50:00,LGAPWF1,78.06,Lincoln Gap Wind Farm (Operations) Pty Ltd,Lincoln Gap Wind Farm,Wind,123.0,63.46,Lincoln Gap Wind Farm,-32.564279,137.557328,2026-02-17T11:50:42.859686
2026/02/17 21:50:00,LGAPWF1,78.06,Lincoln Gap Wind Farm (Operations) Pty Ltd,Lincoln Gap Wind Farm,Wind,123.0,63.46,Lincoln Gap Wind Farm,-32.564279,137.557328,2026-02-17T11:50:42.859686
2026/02/17 21:50:00,LGAPWF2,81.7,Lincoln Gap Wind Farm (Operations) Pty Ltd,Lincoln Gap Wind Farm,Wind,85.0,96.12,Lincoln Gap Wind Farm,-32.564279,137.557328,2026-02-17T11:50:42.859686
2026/02/17 21:50:00,LGAPWF2,81.7,Lincoln Gap Wind Farm (Operations) Pty Ltd,Lincoln Gap Wind Farm,Wind,85.0,96.12,Lincoln Gap Wind Farm,-32.564279,137.557328,2026-02-17T11:50:42.859686
2026/02/17 21:50:00,LKBONNY1,17.5,Lake Bonney Wind Power Pty Ltd,Lake Bonney Wind Farm Stage 1,Wind,81.0,21.6,Lake Bonney Wind Farm Stage 1,-37.76,140.4,2026-02-17T11:50:42.859686
2026/02/17 21:50:00,LKBONNY2,42.04,Lake Bonney Wind Power Pty Ltd,Lake Bonney Stage 2 Windfarm,Wind,159.0,26.44,Lake Bonney Stage 2 Windfarm,-37.76,140.4,2026-02-17T11:50:42.859686
2026/02/17 21:50:00,LKBONNY3,12.89,Lake Bonney Wind Power Pty Ltd,Lake Bonney Stage 3 Wind Farm,Wind,39.0,33.05,Lake Bonney Stage 3 Wind Farm,-37.737781,140.388137,2026-02-17T11:50:42.859686
2026/02/17 21:50:00,MACARTH1,75.3,AGL Hydro Partnership,Macarthur Wind Farm,Wind,420.0,17.93,Macarthur Wind Farm,-38.048957,142.192112,2026-02-17T11:50:42.859686
2026/02/17 21:50:00,MCINTYR1,272.11,MacIntyre UJV Operator Pty Ltd,MacIntyre Wind Farm,Wind,890.0,30.57,MacIntyre Wind Farm,-28.32,151.54,2026-02-17T11:50:42.859686
2026/02/17 21:50:00,MERCER01,45.3,Mt Mercer Windfarm Pty Ltd,Mt Mercer Wind Farm,Wind,131.0,34.58,Mt Mercer Wind Farm,-37.841111,143.871111,2026-02-17T11:50:42.859686
2026/02/17 21:50:00,MEWF1,19.26,Ergon Energy Queensland Pty Ltd ,Mount Emerald Wind Farm,Wind,178.0,10.82,Mount Emerald Wind Farm,-17.133007,145.380644,2026-02-17T11:50:42.859686
2026/02/17 21:50:00,MRTLSWF1,47.1,Mortlake South Wind Farm Pty Ltd,Mortlake South Wind Farm,Wind,153.0,30.78,Mortlake South Wind Farm,-38.127337,142.857801,2026-02-17T11:50:42.859686
2026/02/17 21:50:00,MTGELWF1,50.03,Mt. Gellibrand Wind Farm Pty Ltd,Mt Gellibrand Wind Farm,Wind,132.0,37.9,Mt Gellibrand Wind Farm,-38.23,143.77,2026-02-17T11:50:42.859686
2026/02/17 21:50:00,MTMILLAR,17.7,Mt Millar Wind Farm Pty Ltd,Mt Millar Wind Farm,Wind,70.0,25.29,Mt Millar Wind Farm,-33.624444,136.703611,2026-02-17T11:50:42.859686
2026/02/17 21:50:00,MUSSELR1,125.2,Hydro-Electric Corporation,Musselroe Wind Farm,Wind,168.0,74.52,Musselroe Wind Farm,-40.780225,148.010799,2026-02-17T11:50:42.859686
2026/02/17 21:50:00,MUWAWF1,177.0,Telstra Energy (Generation) Pty Ltd,Murra Warra Wind Farm,Wind,225.7,78.42,Murra Warra Wind Farm,-36.432404,142.317853,2026-02-17T11:50:42.859686
2026/02/17 21:50:00,MUWAWF2,134.9,Murra Warra II Project Co Pty Ltd ATF The Murra Warra II Project Trust,Murra Warra Wind Farm Stage 2,Wind,203.0,66.45,Murra Warra Wind Farm Stage 2,-36.43,142.32,2026-02-17T11:50:42.859686
2026/02/17 21:50:00,NBHWF1,24.9,AGL SA Generation Pty Limited,North Brown Hill Wind Farm,Wind,132.0,18.86,North Brown Hill Wind Farm,-33.367778,138.728611,2026-02-17T11:50:42.859686
2026/02/17 21:50:00,OAKLAND1,18.3,AGL Hydro Partnership,Oaklands Hill Wind Farm,Wind,63.0,29.05,Oaklands Hill Wind Farm,-37.683078,142.551678,2026-02-17T11:50:42.859686
2026/02/17 21:50:00,PAREPW1,194.09,Iberdrola Australia Energy Markets Pty Limited,Port Augusta Renewable Energy Park,Wind,201.0,96.56,Port Augusta Renewable Energy Park,-32.566944,137.856111,2026-02-17T11:50:42.859686
2026/02/17 21:50:00,RYANCWF1,61.93,Ryan Corner Development Pty Ltd,Ryan Corner Wind Farm,Wind,205.0,30.21,Ryan Corner Wind Farm,-38.271017,142.140647,2026-02-17T11:50:42.859686
2026/02/17 21:50:00,RYEPARK1,184.8,Rye Park Renewable Energy Pty Ltd as trustee for Rye Park Wind Farm Trust,Rye Park Renewable Energy,Wind,384.0,48.12,Rye Park Renewable Energy,-32.138333,148.972778,2026-02-17T11:50:42.859686
2026/02/17 21:50:00,SALTCRK1,15.18,Salt Creek Wind Farm Pty Ltd,Salt Creek Wind Farm,Wind,54.0,28.11,Salt Creek Wind Farm,-37.95,142.63,2026-02-17T11:50:42.859686
2026/02/17 21:50:00,SAPHWF1,128.19,The Trustee For The SWF1 Operations Trust,Sapphire Wind Farm,Wind,270.0,47.48,Sapphire Wind Farm,-29.7,151.41,2026-02-17T11:50:42.859686
2026/02/17 21:50:00,SNOWNTH1,48.2,Snowtown Wind Farm Stage 2 Pty Ltd,Snowtown Wind Farm Stage 2 North,Wind,144.0,33.47,Snowtown Wind Farm Stage 2 North,-33.83,138.118611,2026-02-17T11:50:42.859686
2026/02/17 21:50:00,SNOWSTH1,76.0,Snowtown Wind Farm Stage 2 Pty Ltd,Snowtown South Wind Farm,Wind,126.0,60.32,Snowtown South Wind Farm,-33.83,138.118611,2026-02-17T11:50:42.859686
2026/02/17 21:50:00,SNOWTWN1,37.35,Snowtown Wind Farm Pty Ltd,Snowtown Wind Farm Units 1 And 47,Wind,99.0,37.73,Snowtown Wind Farm Units 1 And 47,-33.83,138.118611,2026-02-17T11:50:42.859686
2026/02/17 21:50:00,STARHLWF,5.1,Starfish Hill Wind Farm Pty Ltd,Starfish Hill Wind Farm,Wind,35.0,14.57,Starfish Hill Wind Farm,-35.58,138.14,2026-02-17T11:50:42.859686
2026/02/17 21:50:00,STOCKYD1,144.11,Stockyard Hill Wind Farm Pty Ltd,Stockyard Hill Wind Farm,Wind,511.0,28.2,Stockyard Hill Wind Farm,-37.535833,143.251389,2026-02-17T11:50:42.859686
2026/02/17 21:50:00,STWF1,50.08,PARF Company 8 Pty Ltd as The Trustee for Silverton Project Trust,Silverton Wind Farm,Wind,198.0,25.29,Silverton Wind Farm,-37.683168,142.551678,2026-02-17T11:50:42.859686
2026/02/17 21:50:00,TARALGA1,0.0,Taralga Wind Farm Nominees No 2 Pty Ltd (ATF Taralga Wind Farm Operating Trust),Taralga Wind Farm,Wind,106.0,0.0,Taralga Wind Farm,-34.42352,149.826267,2026-02-17T11:50:42.859686
2026/02/17 21:50:00,WAMBOWF1,132.29,Stanwell Corporation Limited,Wambo Wind Farm 1,Wind,245.0,54.0,Wambo Wind Farm 1,-35.187301,149.524945,2026-02-17T11:50:42.859686
2026/02/17 21:50:00,WATERLWF,17.6,Waterloo Wind Farm Pty Ltd,Waterloo Wind Farm,Wind,130.0,13.54,Waterloo Wind Farm,-34.00094,138.911567,2026-02-17T11:50:42.859686
2026/02/17 21:50:00,WGWF1,0.0,Willogoleche Power Pty Ltd As The Trustee For The Willogoleche Operating Trust,Willogoleche Wind Farm,Wind,119.0,0.0,Willogoleche Wind Farm,-33.39,138.85,2026-02-17T11:50:42.859686
2026/02/17 21:50:00,WOODLWN1,28.77,Woodlawn Wind Pty Ltd,Woodlawn Wind Farm,Wind,48.0,59.94,Woodlawn Wind Farm,-35.08,149.62,2026-02-17T11:50:42.859686
2026/02/17 21:50:00,WPWF,24.55,AGL SA Generation Pty Limited,Wattle Point Wind Farm,Wind,91.0,26.98,Wattle Point Wind Farm,-35.111624,137.7219,2026-02-17T11:50:42.859686
2026/02/17 21:50:00,WRWF1,42.24,White Rock Wind Farm Pty Ltd,White Rock Wind Farm,Wind,172.0,24.56,White Rock Wind Farm,-29.79,151.54,2026-02-17T11:50:42.859686
2026/02/17 21:50:00,YENDWF1,37.11,Lal Lal Wind Farms Nom Co Pty Ltd,Yendon Wind Farm,Wind,142.0,26.13,Yendon Wind Farm,-37.629987,144.022717,2026-02-17T11:50:42.859686
