SETTLEMENTDATE,DUID,SCADAVALUE,Participant,Station Name,Fuel Source - Primary,MAX_CAP,utilisation_pct,Plant,Latitude,Longitude,timestamp_utc
2026/02/14 21:30:00,CAPTL_WF,31.06,Iberdrola Australia Holdings Pty Limited,Capital Wind Farm,Wind,140.0,22.19,Capital Wind Farm,-35.1,149.31,2026-02-14T11:32:52.170350
2026/02/14 21:30:00,CHALLHWF,18.6,Pacific Hydro Challicum Hills Pty Ltd,Challicum Hills Wind Farm,Wind,52.0,35.77,Challicum Hills Wind Farm,-37.38,143.11,2026-02-14T11:32:52.170350
2026/02/14 21:30:00,CULLRGWF,14.17,Cullerin Range Wind Farm Pty Ltd,Cullerin Range Wind Farm,Wind,30.0,47.23,Cullerin Range Wind Farm,-34.81,149.4,2026-02-14T11:32:52.170350
2026/02/14 21:30:00,DIAPURWF1,8.2,Y.E.S. Energy (SA) Pty Ltd,Diapur Wind Farm,Wind,7.0,117.14,Diapur Wind Farm,-36.3425,141.43,2026-02-14T11:32:52.170350
2026/02/14 21:30:00,MLWF1,5.67,Mortons Lane Windfarm Pty Limited,Mortons Lane Wind Farm,Wind,20.0,28.35,Mortons Lane Wind Farm,-37.84,142.45,2026-02-14T11:32:52.170350
2026/02/14 21:30:00,WAUBRAWF,115.16,Pyrenees Wind Energy Developments Pty Ltd,Waubra Wind Farm,Wind,192.0,59.98,Waubra Wind Farm,-37.394498,143.638982,2026-02-14T11:32:52.170350
2026/02/14 21:30:00,WOOLNTH1,-0.23,Hydro-Electric Corporation,Woolnorth Studland Bay / Bluff Point Wind Farm,Wind,140.0,-0.16,Woolnorth Studland Bay / Bluff Point Wind Farm,-40.69,144.72,2026-02-14T11:32:52.170350
2026/02/14 21:30:00,YAMBUKWF,10.6,Energy Pacific (Vic) Pty Ltd,Yambuk Wind Farm,Wind,30.0,35.33,Yambuk Wind Farm,-38.299083,142.027577,2026-02-14T11:32:52.170350
2026/02/14 21:30:00,YSWF1,1.5,Pacific Hydro Yaloak South Pty Ltd,Yaloak South Wind Farm,Wind,28.0,5.36,Yaloak South Wind Farm,-37.7163,144.242853,2026-02-14T11:32:52.170350
2026/02/14 21:30:00,ARWF1,60.9,Ararat Wind Farm Pty Ltd,Ararat Wind Farm,Wind,241.0,25.27,Ararat Wind Farm,-37.232778,143.031389,2026-02-14T11:32:52.170350
2026/02/14 21:30:00,BALDHWF1,45.77,Alinta Energy Retail Sales Pty Ltd,Bald Hills Wind Farm,Wind,106.0,43.18,Bald Hills Wind Farm,-38.79,145.93,2026-02-14T11:32:52.170350
2026/02/14 21:30:00,BANGOWF1,106.5,BWF Nominees Pty Ltd as The Trustee for BWF Trust,Bango 973 Wind Farm,Wind,155.0,68.71,Bango 973 Wind Farm,-34.551582,148.732808,2026-02-14T11:32:52.170350
2026/02/14 21:30:00,BANGOWF2,47.3,BWF Nominees Pty Ltd as The Trustee for BWF Trust,Bango 999 Wind Farm,Wind,82.0,57.68,Bango 999 Wind Farm,-34.551582,148.732808,2026-02-14T11:32:52.170350
2026/02/14 21:30:00,BLUFF1,4.9,AGL SA Generation Pty Limited,The Bluff Wind Farm,Wind,53.0,9.25,The Bluff Wind Farm,-33.367778,138.728611,2026-02-14T11:32:52.170350
2026/02/14 21:30:00,BOCORWF1,44.99,Boco Rock Wind Farm Pty Ltd,Boco Rock Wind Farm,Wind,111.0,40.53,Boco Rock Wind Farm,-36.578611,149.103333,2026-02-14T11:32:52.170350
2026/02/14 21:30:00,BRYB1WF1,61.94,Berrybank Development Pty Ltd,Berrybank Wind Farm,Wind,175.9,35.21,Berrybank Wind Farm,-37.94,143.52,2026-02-14T11:32:52.170350
2026/02/14 21:30:00,BRYB2WF2,44.68,Berrybank 2 Asset Pty Ltd as trustee for Berrybank 2 Asset Trust,Berrybank 2 Wind Farm,Wind,105.0,42.55,Berrybank 2 Wind Farm,-37.94,143.52,2026-02-14T11:32:52.170350
2026/02/14 21:30:00,BULGANA1,0.11,Bulgana Wind Farm Pty Ltd,Bulgana Green Power Hub,Wind,204.0,0.05,Bulgana Green Power Hub,-37.0975,142.973611,2026-02-14T11:32:52.170350
2026/02/14 21:30:00,CATHROCK,11.3,Cathedral Rocks Wind Farm Pty Ltd,Cathedral Rocks,Wind,66.0,17.12,Cathedral Rocks,-34.51,135.35,2026-02-14T11:32:52.170350
2026/02/14 21:30:00,CHYTWF1,41.92,Cherry Tree Wind Farm Pty Ltd as trustee for The Cherry Tree Project trust ,Cherry Tree Wind Farm,Wind,57.0,73.54,Cherry Tree Wind Farm,-37.1,145.26,2026-02-14T11:32:52.170350
2026/02/14 21:30:00,CLEMGPWF,35.15,Pacific Hydro Clements Gap Pty Ltd,Clements Gap Wind Farm,Wind,57.0,61.67,Clements Gap Wind Farm,-33.48,138.1,2026-02-14T11:32:52.170350
2026/02/14 21:30:00,CLRKCWF1,297.5,Stanwell Corporation Limited ,Clarke Creek Wind Farm,Wind,338.0,88.02,Clarke Creek Wind Farm,-22.85,149.45,2026-02-14T11:32:52.170350
2026/02/14 21:30:00,CLRKCWF2,81.76,Stanwell Corporation Limited ,Clarke Creek Wind Farm,Wind,101.0,80.95,Clarke Creek Wind Farm,-22.85,149.45,2026-02-14T11:32:52.170350
2026/02/14 21:30:00,CNUNDAWF,38.54,Canunda Power Pty Ltd,Canunda Wind Farm,Wind,46.0,83.78,Canunda Wind Farm,-37.73,140.39,2026-02-14T11:32:52.170350
2026/02/14 21:30:00,COLWF01,54.03,Collector Wind Farm Pty Ltd,Collector Wind Farm 1,Wind,219.0,24.67,Collector Wind Farm 1,-34.8719,149.3967,2026-02-14T11:32:52.170350
2026/02/14 21:30:00,COOPGWF1,376.46,PARF Company 10 Pty Limited as The Trustee for Coopers Gap Project Trust,Coopers Gap Wind Farm,Wind,440.0,85.56,Coopers Gap Wind Farm,-26.74,151.45,2026-02-14T11:32:52.170350
2026/02/14 21:30:00,CROOKWF2,48.33,Crookwell Development Pty Ltd ,Crookwell 2 Wind Farm,Wind,91.0,53.11,Crookwell 2 Wind Farm,-34.52,149.54,2026-02-14T11:32:52.170350
2026/02/14 21:30:00,CROOKWF3,19.37,Crookwell 3 Development Pty Ltd,Crookwell 3 Wind Farm,Wind,56.0,34.59,Crookwell 3 Wind Farm,-34.52,149.54,2026-02-14T11:32:52.170350
2026/02/14 21:30:00,CROWLWF1,55.59,Pacific Hydro Crowlands Pty Ltd ,Crowlands Wind Farm,Wind,79.0,70.37,Crowlands Wind Farm,-37.13,143.16,2026-02-14T11:32:52.170350
2026/02/14 21:30:00,CRURWF1,97.2,CRWF Nominees Pty Ltd As Trustee For The CRWF Trust,Crudine Ridge Wind Farm,Wind,138.0,70.43,Crudine Ridge Wind Farm,-32.97,149.64,2026-02-14T11:32:52.170350
2026/02/14 21:30:00,CTHLWF1,4.79,Wild Cattle Hill Pty Ltd,Cattle Hill Wind Farm,Wind,144.0,3.33,Cattle Hill Wind Farm,-42.15,146.69,2026-02-14T11:32:52.170350
2026/02/14 21:30:00,DULAWF1,140.3,Dulacca Energy Project Co Pty Ltd,Dulacca Wind Farm,Wind,173.0,81.1,Dulacca Wind Farm,-26.63,149.87,2026-02-14T11:32:52.170350
2026/02/14 21:30:00,DUNDWF1,109.13,Dundonnell Wind Farm Pty Ltd,Dundonnell Wind Farm,Wind,168.0,64.96,Dundonnell Wind Farm,-37.52,142.58,2026-02-14T11:32:52.170350
2026/02/14 21:30:00,DUNDWF2,27.01,Dundonnell Wind Farm Pty Ltd,Dundonnell Wind Farm,Wind,46.0,58.72,Dundonnell Wind Farm,-37.52,142.58,2026-02-14T11:32:52.170350
2026/02/14 21:30:00,DUNDWF3,72.98,Dundonnell Wind Farm Pty Ltd,Dundonnell Wind Farm,Wind,122.0,59.82,Dundonnell Wind Farm,-37.52,142.58,2026-02-14T11:32:52.170350
2026/02/14 21:30:00,ELAINWF1,19.64,Lal Lal Wind Farms Nom Co Pty Ltd,Elaine Wind Farm,Wind,82.0,23.95,Elaine Wind Farm,-37.36,144.0,2026-02-14T11:32:52.170350
2026/02/14 21:30:00,FLYCRKWF,63.05,Iberdrola Australia Energy Markets Pty Limited,Flyers Creek Wind Farm,Wind,140.0,45.04,Flyers Creek Wind Farm,-33.365556,148.981944,2026-02-14T11:32:52.170350
2026/02/14 21:30:00,GPWFEST1,57.21,Golden Plains WF1 Pty Ltd as Trustee for the Golden Plains WF1 Unit Trust,Golden Plains Wind Farm East,Wind,240.0,23.84,Golden Plains Wind Farm East,-37.945091,143.752614,2026-02-14T11:32:52.170350
2026/02/14 21:30:00,GPWFEST2,91.1,Golden Plains WF1 Pty Ltd as Trustee for the Golden Plains WF1 Unit Trust,Golden Plains Wind Farm East,Wind,253.0,36.01,Golden Plains Wind Farm East,-37.945091,143.752614,2026-02-14T11:32:52.170350
2026/02/14 21:30:00,GPWFEST3,91.9,Golden Plains WF1 Pty Ltd as Trustee for the Golden Plains WF1 Unit Trust,Golden Plains Wind Farm East,Wind,240.0,38.29,Golden Plains Wind Farm East,-37.945091,143.752614,2026-02-14T11:32:52.170350
2026/02/14 21:30:00,GRANWF1,18.64,Granville Harbour Operations Pty Ltd as The Trustee for Granville Harbour Operations Trust,Granville Harbour Wind Farm,Wind,111.0,16.79,Granville Harbour Wind Farm,-41.8,145.06,2026-02-14T11:32:52.170350
2026/02/14 21:30:00,GSWF1A,80.93,Goyder Wind Farm 1 Pty Ltd as the Trustee for Goyder Wind Farm 1 Trust,Goyder South Wind Farm 1A,Wind,201.0,40.26,Goyder South Wind Farm 1A,-33.679758,138.937597,2026-02-14T11:32:52.170350
2026/02/14 21:30:00,GSWF1B1,56.13,Goyder Wind Farm 1B Pty Ltd as the Trustee for the Goyder Wind Farm 1B Trust,Goyder South Wind Farm 1B,Wind,196.0,28.64,Goyder South Wind Farm 1B,-33.679758,138.937597,2026-02-14T11:32:52.170350
2026/02/14 21:30:00,GULLRWF1,72.18,New Gullen Range Wind Farm Pty Ltd,Gullen Range Wind Farm,Wind,161.0,44.83,Gullen Range Wind Farm,-34.34,149.27,2026-02-14T11:32:52.170350
2026/02/14 21:30:00,GULLRWF2,91.74,New Gullen Range Wind Farm Pty Ltd,Gullen Range Wind Farm,Wind,107.0,85.74,Gullen Range Wind Farm,-34.34,149.27,2026-02-14T11:32:52.170350
2026/02/14 21:30:00,GUNNING1,42.03,Gunning Wind Energy Developments Pty Ltd,Gunning Wind Farm,Wind,47.0,89.43,Gunning Wind Farm,-34.813333,149.4,2026-02-14T11:32:52.170350
2026/02/14 21:30:00,HALLWF1,44.27,AGL SA Generation Pty Limited,Hallett 1 Wind Farm,Wind,95.0,46.6,Hallett 1 Wind Farm,-33.367778,138.728611,2026-02-14T11:32:52.170350
2026/02/14 21:30:00,HALLWF2,40.24,AGL SA Generation Pty Limited,Hallett 2 Wind Farm,Wind,71.0,56.68,Hallett 2 Wind Farm,-33.367778,138.728611,2026-02-14T11:32:52.170350
2026/02/14 21:30:00,HD1WF1,26.43,Hawkesdale Asset Pty Ltd as trustee for Hawkesdale Asset Trust,Hawkesdale Wind Farm,Wind,89.0,29.7,Hawkesdale Wind Farm,-38.147894,142.361381,2026-02-14T11:32:52.170350
2026/02/14 21:30:00,HDWF1,91.1,HWF1 Pty Ltd,Hornsdale Wind Farm,Wind,102.0,89.31,Hornsdale Wind Farm,-33.050556,138.543611,2026-02-14T11:32:52.170350
2026/02/14 21:30:00,HDWF2,96.6,HWF 2 Pty Ltd,Hornsdale Wind Farm 2,Wind,102.0,94.71,Hornsdale Wind Farm 2,-33.06,138.54,2026-02-14T11:32:52.170350
2026/02/14 21:30:00,HDWF3,98.9,HWF3 Pty Ltd,Hornsdale Wind Farm 3,Wind,109.0,90.73,Hornsdale Wind Farm 3,-33.06,138.54,2026-02-14T11:32:52.170350
2026/02/14 21:30:00,KABANWF1,0.0,Kaban Wind Farm Pty Ltd as trustee for Kaban Wind Farm Trust,Kaban Wind Farm,Wind,152.0,0.0,Kaban Wind Farm,-17.56,145.41,2026-02-14T11:32:52.170350
2026/02/14 21:30:00,KEPWF1,0.0,Kennedy Energy Park Pty Ltd,Kennedy Energy Park,Wind,43.0,0.0,Kennedy Energy Park,-20.88,144.42,2026-02-14T11:32:52.170350
2026/02/14 21:30:00,KIATAWF1,30.6,Kiata ProjectCo Pty Ltd Atf Kiata Project Trust,Kiata Wind Farm,Wind,31.0,98.71,Kiata Wind Farm,-36.4,141.75,2026-02-14T11:32:52.170350
2026/02/14 21:30:00,LGAPWF1,70.4,Lincoln Gap Wind Farm (Operations) Pty Ltd,Lincoln Gap Wind Farm,Wind,123.0,57.24,Lincoln Gap Wind Farm,-32.564279,137.557328,2026-02-14T11:32:52.170350
2026/02/14 21:30:00,LGAPWF1,70.4,Lincoln Gap Wind Farm (Operations) Pty Ltd,Lincoln Gap Wind Farm,Wind,123.0,57.24,Lincoln Gap Wind Farm,-32.564279,137.557328,2026-02-14T11:32:52.170350
2026/02/14 21:30:00,LGAPWF2,56.63,Lincoln Gap Wind Farm (Operations) Pty Ltd,Lincoln Gap Wind Farm,Wind,85.0,66.62,Lincoln Gap Wind Farm,-32.564279,137.557328,2026-02-14T11:32:52.170350
2026/02/14 21:30:00,LGAPWF2,56.63,Lincoln Gap Wind Farm (Operations) Pty Ltd,Lincoln Gap Wind Farm,Wind,85.0,66.62,Lincoln Gap Wind Farm,-32.564279,137.557328,2026-02-14T11:32:52.170350
2026/02/14 21:30:00,LKBONNY1,55.1,Lake Bonney Wind Power Pty Ltd,Lake Bonney Wind Farm Stage 1,Wind,81.0,68.02,Lake Bonney Wind Farm Stage 1,-37.76,140.4,2026-02-14T11:32:52.170350
2026/02/14 21:30:00,LKBONNY2,127.84,Lake Bonney Wind Power Pty Ltd,Lake Bonney Stage 2 Windfarm,Wind,159.0,80.4,Lake Bonney Stage 2 Windfarm,-37.76,140.4,2026-02-14T11:32:52.170350
2026/02/14 21:30:00,LKBONNY3,25.18,Lake Bonney Wind Power Pty Ltd,Lake Bonney Stage 3 Wind Farm,Wind,39.0,64.56,Lake Bonney Stage 3 Wind Farm,-37.737781,140.388137,2026-02-14T11:32:52.170350
2026/02/14 21:30:00,MACARTH1,114.3,AGL Hydro Partnership,Macarthur Wind Farm,Wind,420.0,27.21,Macarthur Wind Farm,-38.048957,142.192112,2026-02-14T11:32:52.170350
2026/02/14 21:30:00,MCINTYR1,360.66,MacIntyre UJV Operator Pty Ltd,MacIntyre Wind Farm,Wind,890.0,40.52,MacIntyre Wind Farm,-28.32,151.54,2026-02-14T11:32:52.170350
2026/02/14 21:30:00,MERCER01,34.1,Mt Mercer Windfarm Pty Ltd,Mt Mercer Wind Farm,Wind,131.0,26.03,Mt Mercer Wind Farm,-37.841111,143.871111,2026-02-14T11:32:52.170350
2026/02/14 21:30:00,MEWF1,0.0,Ergon Energy Queensland Pty Ltd ,Mount Emerald Wind Farm,Wind,178.0,0.0,Mount Emerald Wind Farm,-17.133007,145.380644,2026-02-14T11:32:52.170350
2026/02/14 21:30:00,MRTLSWF1,29.11,Mortlake South Wind Farm Pty Ltd,Mortlake South Wind Farm,Wind,153.0,19.03,Mortlake South Wind Farm,-38.127337,142.857801,2026-02-14T11:32:52.170350
2026/02/14 21:30:00,MTGELWF1,41.92,Mt. Gellibrand Wind Farm Pty Ltd,Mt Gellibrand Wind Farm,Wind,132.0,31.76,Mt Gellibrand Wind Farm,-38.23,143.77,2026-02-14T11:32:52.170350
2026/02/14 21:30:00,MTMILLAR,20.6,Mt Millar Wind Farm Pty Ltd,Mt Millar Wind Farm,Wind,70.0,29.43,Mt Millar Wind Farm,-33.624444,136.703611,2026-02-14T11:32:52.170350
2026/02/14 21:30:00,MUSSELR1,5.1,Hydro-Electric Corporation,Musselroe Wind Farm,Wind,168.0,3.04,Musselroe Wind Farm,-40.780225,148.010799,2026-02-14T11:32:52.170350
2026/02/14 21:30:00,MUWAWF1,188.12,Telstra Energy (Generation) Pty Ltd,Murra Warra Wind Farm,Wind,225.7,83.35,Murra Warra Wind Farm,-36.432404,142.317853,2026-02-14T11:32:52.170350
2026/02/14 21:30:00,MUWAWF2,186.2,Murra Warra II Project Co Pty Ltd ATF The Murra Warra II Project Trust,Murra Warra Wind Farm Stage 2,Wind,203.0,91.72,Murra Warra Wind Farm Stage 2,-36.43,142.32,2026-02-14T11:32:52.170350
2026/02/14 21:30:00,NBHWF1,97.7,AGL SA Generation Pty Limited,North Brown Hill Wind Farm,Wind,132.0,74.02,North Brown Hill Wind Farm,-33.367778,138.728611,2026-02-14T11:32:52.170350
2026/02/14 21:30:00,OAKLAND1,23.4,AGL Hydro Partnership,Oaklands Hill Wind Farm,Wind,63.0,37.14,Oaklands Hill Wind Farm,-37.683078,142.551678,2026-02-14T11:32:52.170350
2026/02/14 21:30:00,PAREPW1,42.0,Iberdrola Australia Energy Markets Pty Limited,Port Augusta Renewable Energy Park,Wind,201.0,20.9,Port Augusta Renewable Energy Park,-32.566944,137.856111,2026-02-14T11:32:52.170350
2026/02/14 21:30:00,RYANCWF1,100.82,Ryan Corner Development Pty Ltd,Ryan Corner Wind Farm,Wind,205.0,49.18,Ryan Corner Wind Farm,-38.271017,142.140647,2026-02-14T11:32:52.170350
2026/02/14 21:30:00,RYEPARK1,177.44,Rye Park Renewable Energy Pty Ltd as trustee for Rye Park Wind Farm Trust,Rye Park Renewable Energy,Wind,384.0,46.21,Rye Park Renewable Energy,-32.138333,148.972778,2026-02-14T11:32:52.170350
2026/02/14 21:30:00,SALTCRK1,17.44,Salt Creek Wind Farm Pty Ltd,Salt Creek Wind Farm,Wind,54.0,32.3,Salt Creek Wind Farm,-37.95,142.63,2026-02-14T11:32:52.170350
2026/02/14 21:30:00,SAPHWF1,105.56,The Trustee For The SWF1 Operations Trust,Sapphire Wind Farm,Wind,270.0,39.1,Sapphire Wind Farm,-29.7,151.41,2026-02-14T11:32:52.170350
2026/02/14 21:30:00,SNOWNTH1,28.0,Snowtown Wind Farm Stage 2 Pty Ltd,Snowtown Wind Farm Stage 2 North,Wind,144.0,19.44,Snowtown Wind Farm Stage 2 North,-33.83,138.118611,2026-02-14T11:32:52.170350
2026/02/14 21:30:00,SNOWSTH1,39.5,Snowtown Wind Farm Stage 2 Pty Ltd,Snowtown South Wind Farm,Wind,126.0,31.35,Snowtown South Wind Farm,-33.83,138.118611,2026-02-14T11:32:52.170350
2026/02/14 21:30:00,SNOWTWN1,26.96,Snowtown Wind Farm Pty Ltd,Snowtown Wind Farm Units 1 And 47,Wind,99.0,27.23,Snowtown Wind Farm Units 1 And 47,-33.83,138.118611,2026-02-14T11:32:52.170350
2026/02/14 21:30:00,STARHLWF,23.59,Starfish Hill Wind Farm Pty Ltd,Starfish Hill Wind Farm,Wind,35.0,67.4,Starfish Hill Wind Farm,-35.58,138.14,2026-02-14T11:32:52.170350
2026/02/14 21:30:00,STOCKYD1,190.75,Stockyard Hill Wind Farm Pty Ltd,Stockyard Hill Wind Farm,Wind,511.0,37.33,Stockyard Hill Wind Farm,-37.535833,143.251389,2026-02-14T11:32:52.170350
2026/02/14 21:30:00,STWF1,118.75,PARF Company 8 Pty Ltd as The Trustee for Silverton Project Trust,Silverton Wind Farm,Wind,198.0,59.97,Silverton Wind Farm,-37.683168,142.551678,2026-02-14T11:32:52.170350
2026/02/14 21:30:00,TARALGA1,18.59,Taralga Wind Farm Nominees No 2 Pty Ltd (ATF Taralga Wind Farm Operating Trust),Taralga Wind Farm,Wind,106.0,17.54,Taralga Wind Farm,-34.42352,149.826267,2026-02-14T11:32:52.170350
2026/02/14 21:30:00,WAMBOWF1,209.71,Stanwell Corporation Limited,Wambo Wind Farm 1,Wind,245.0,85.6,Wambo Wind Farm 1,-35.187301,149.524945,2026-02-14T11:32:52.170350
2026/02/14 21:30:00,WATERLWF,67.8,Waterloo Wind Farm Pty Ltd,Waterloo Wind Farm,Wind,130.0,52.15,Waterloo Wind Farm,-34.00094,138.911567,2026-02-14T11:32:52.170350
2026/02/14 21:30:00,WGWF1,64.8,Willogoleche Power Pty Ltd As The Trustee For The Willogoleche Operating Trust,Willogoleche Wind Farm,Wind,119.0,54.45,Willogoleche Wind Farm,-33.39,138.85,2026-02-14T11:32:52.170350
2026/02/14 21:30:00,WOODLWN1,11.62,Woodlawn Wind Pty Ltd,Woodlawn Wind Farm,Wind,48.0,24.21,Woodlawn Wind Farm,-35.08,149.62,2026-02-14T11:32:52.170350
2026/02/14 21:30:00,WPWF,69.12,AGL SA Generation Pty Limited,Wattle Point Wind Farm,Wind,91.0,75.96,Wattle Point Wind Farm,-35.111624,137.7219,2026-02-14T11:32:52.170350
2026/02/14 21:30:00,WRWF1,159.44,White Rock Wind Farm Pty Ltd,White Rock Wind Farm,Wind,172.0,92.7,White Rock Wind Farm,-29.79,151.54,2026-02-14T11:32:52.170350
2026/02/14 21:30:00,YENDWF1,32.64,Lal Lal Wind Farms Nom Co Pty Ltd,Yendon Wind Farm,Wind,142.0,22.99,Yendon Wind Farm,-37.629987,144.022717,2026-02-14T11:32:52.170350
