SETTLEMENTDATE,DUID,SCADAVALUE,Participant,Station Name,Fuel Source - Primary,MAX_CAP,utilisation_pct,Plant,Latitude,Longitude,timestamp_utc
2026/02/03 00:35:00,CAPTL_WF,7.47,Iberdrola Australia Holdings Pty Limited,Capital Wind Farm,Wind,140.0,5.34,Capital Wind Farm,-35.1,149.31,2026-02-02T14:32:07.620996
2026/02/03 00:35:00,CHALLHWF,11.3,Pacific Hydro Challicum Hills Pty Ltd,Challicum Hills Wind Farm,Wind,52.0,21.73,Challicum Hills Wind Farm,-37.38,143.11,2026-02-02T14:32:07.620996
2026/02/03 00:35:00,CULLRGWF,22.18,Cullerin Range Wind Farm Pty Ltd,Cullerin Range Wind Farm,Wind,30.0,73.93,Cullerin Range Wind Farm,-34.81,149.4,2026-02-02T14:32:07.620996
2026/02/03 00:35:00,DIAPURWF1,8.3,Y.E.S. Energy (SA) Pty Ltd,Diapur Wind Farm,Wind,7.0,118.57,Diapur Wind Farm,-36.3425,141.43,2026-02-02T14:32:07.620996
2026/02/03 00:35:00,MLWF1,3.81,Mortons Lane Windfarm Pty Limited,Mortons Lane Wind Farm,Wind,20.0,19.05,Mortons Lane Wind Farm,-37.84,142.45,2026-02-02T14:32:07.620996
2026/02/03 00:35:00,WAUBRAWF,17.53,Pyrenees Wind Energy Developments Pty Ltd,Waubra Wind Farm,Wind,192.0,9.13,Waubra Wind Farm,-37.394498,143.638982,2026-02-02T14:32:07.620996
2026/02/03 00:35:00,WOOLNTH1,12.01,Hydro-Electric Corporation,Woolnorth Studland Bay / Bluff Point Wind Farm,Wind,140.0,8.58,Woolnorth Studland Bay / Bluff Point Wind Farm,-40.69,144.72,2026-02-02T14:32:07.620996
2026/02/03 00:35:00,YAMBUKWF,3.3,Energy Pacific (Vic) Pty Ltd,Yambuk Wind Farm,Wind,30.0,11.0,Yambuk Wind Farm,-38.299083,142.027577,2026-02-02T14:32:07.620996
2026/02/03 00:35:00,YSWF1,5.7,Pacific Hydro Yaloak South Pty Ltd,Yaloak South Wind Farm,Wind,28.0,20.36,Yaloak South Wind Farm,-37.7163,144.242853,2026-02-02T14:32:07.620996
2026/02/03 00:35:00,ARWF1,1.5,Ararat Wind Farm Pty Ltd,Ararat Wind Farm,Wind,241.0,0.62,Ararat Wind Farm,-37.232778,143.031389,2026-02-02T14:32:07.620996
2026/02/03 00:35:00,BALDHWF1,53.08,Alinta Energy Retail Sales Pty Ltd,Bald Hills Wind Farm,Wind,106.0,50.08,Bald Hills Wind Farm,-38.79,145.93,2026-02-02T14:32:07.620996
2026/02/03 00:35:00,BANGOWF1,129.1,BWF Nominees Pty Ltd as The Trustee for BWF Trust,Bango 973 Wind Farm,Wind,155.0,83.29,Bango 973 Wind Farm,-34.551582,148.732808,2026-02-02T14:32:07.620996
2026/02/03 00:35:00,BANGOWF2,71.6,BWF Nominees Pty Ltd as The Trustee for BWF Trust,Bango 999 Wind Farm,Wind,82.0,87.32,Bango 999 Wind Farm,-34.551582,148.732808,2026-02-02T14:32:07.620996
2026/02/03 00:35:00,BLUFF1,14.0,AGL SA Generation Pty Limited,The Bluff Wind Farm,Wind,53.0,26.42,The Bluff Wind Farm,-33.367778,138.728611,2026-02-02T14:32:07.620996
2026/02/03 00:35:00,BOCORWF1,2.87,Boco Rock Wind Farm Pty Ltd,Boco Rock Wind Farm,Wind,111.0,2.59,Boco Rock Wind Farm,-36.578611,149.103333,2026-02-02T14:32:07.620996
2026/02/03 00:35:00,BRYB1WF1,69.31,Berrybank Development Pty Ltd,Berrybank Wind Farm,Wind,175.9,39.4,Berrybank Wind Farm,-37.94,143.52,2026-02-02T14:32:07.620996
2026/02/03 00:35:00,BRYB2WF2,52.23,Berrybank 2 Asset Pty Ltd as trustee for Berrybank 2 Asset Trust,Berrybank 2 Wind Farm,Wind,105.0,49.74,Berrybank 2 Wind Farm,-37.94,143.52,2026-02-02T14:32:07.620996
2026/02/03 00:35:00,BULGANA1,0.0,Bulgana Wind Farm Pty Ltd,Bulgana Green Power Hub,Wind,204.0,0.0,Bulgana Green Power Hub,-37.0975,142.973611,2026-02-02T14:32:07.620996
2026/02/03 00:35:00,CATHROCK,50.3,Cathedral Rocks Wind Farm Pty Ltd,Cathedral Rocks,Wind,66.0,76.21,Cathedral Rocks,-34.51,135.35,2026-02-02T14:32:07.620996
2026/02/03 00:35:00,CHYTWF1,17.52,Cherry Tree Wind Farm Pty Ltd as trustee for The Cherry Tree Project trust ,Cherry Tree Wind Farm,Wind,57.0,30.74,Cherry Tree Wind Farm,-37.1,145.26,2026-02-02T14:32:07.620996
2026/02/03 00:35:00,CLEMGPWF,45.81,Pacific Hydro Clements Gap Pty Ltd,Clements Gap Wind Farm,Wind,57.0,80.37,Clements Gap Wind Farm,-33.48,138.1,2026-02-02T14:32:07.620996
2026/02/03 00:35:00,CLRKCWF1,309.66,Stanwell Corporation Limited ,Clarke Creek Wind Farm,Wind,338.0,91.62,Clarke Creek Wind Farm,-22.85,149.45,2026-02-02T14:32:07.620996
2026/02/03 00:35:00,CLRKCWF2,89.21,Stanwell Corporation Limited ,Clarke Creek Wind Farm,Wind,101.0,88.33,Clarke Creek Wind Farm,-22.85,149.45,2026-02-02T14:32:07.620996
2026/02/03 00:35:00,CNUNDAWF,25.63,Canunda Power Pty Ltd,Canunda Wind Farm,Wind,46.0,55.72,Canunda Wind Farm,-37.73,140.39,2026-02-02T14:32:07.620996
2026/02/03 00:35:00,COLWF01,70.36,Collector Wind Farm Pty Ltd,Collector Wind Farm 1,Wind,219.0,32.13,Collector Wind Farm 1,-34.8719,149.3967,2026-02-02T14:32:07.620996
2026/02/03 00:35:00,COOPGWF1,322.99,PARF Company 10 Pty Limited as The Trustee for Coopers Gap Project Trust,Coopers Gap Wind Farm,Wind,440.0,73.41,Coopers Gap Wind Farm,-26.74,151.45,2026-02-02T14:32:07.620996
2026/02/03 00:35:00,CROOKWF2,35.78,Crookwell Development Pty Ltd ,Crookwell 2 Wind Farm,Wind,91.0,39.32,Crookwell 2 Wind Farm,-34.52,149.54,2026-02-02T14:32:07.620996
2026/02/03 00:35:00,CROOKWF3,19.05,Crookwell 3 Development Pty Ltd,Crookwell 3 Wind Farm,Wind,56.0,34.02,Crookwell 3 Wind Farm,-34.52,149.54,2026-02-02T14:32:07.620996
2026/02/03 00:35:00,CROWLWF1,8.36,Pacific Hydro Crowlands Pty Ltd ,Crowlands Wind Farm,Wind,79.0,10.58,Crowlands Wind Farm,-37.13,143.16,2026-02-02T14:32:07.620996
2026/02/03 00:35:00,CRURWF1,135.3,CRWF Nominees Pty Ltd As Trustee For The CRWF Trust,Crudine Ridge Wind Farm,Wind,138.0,98.04,Crudine Ridge Wind Farm,-32.97,149.64,2026-02-02T14:32:07.620996
2026/02/03 00:35:00,CTHLWF1,7.01,Wild Cattle Hill Pty Ltd,Cattle Hill Wind Farm,Wind,144.0,4.87,Cattle Hill Wind Farm,-42.15,146.69,2026-02-02T14:32:07.620996
2026/02/03 00:35:00,DULAWF1,163.5,Dulacca Energy Project Co Pty Ltd,Dulacca Wind Farm,Wind,173.0,94.51,Dulacca Wind Farm,-26.63,149.87,2026-02-02T14:32:07.620996
2026/02/03 00:35:00,DUNDWF1,48.68,Dundonnell Wind Farm Pty Ltd,Dundonnell Wind Farm,Wind,168.0,28.98,Dundonnell Wind Farm,-37.52,142.58,2026-02-02T14:32:07.620996
2026/02/03 00:35:00,DUNDWF2,17.09,Dundonnell Wind Farm Pty Ltd,Dundonnell Wind Farm,Wind,46.0,37.15,Dundonnell Wind Farm,-37.52,142.58,2026-02-02T14:32:07.620996
2026/02/03 00:35:00,DUNDWF3,53.86,Dundonnell Wind Farm Pty Ltd,Dundonnell Wind Farm,Wind,122.0,44.15,Dundonnell Wind Farm,-37.52,142.58,2026-02-02T14:32:07.620996
2026/02/03 00:35:00,ELAINWF1,28.99,Lal Lal Wind Farms Nom Co Pty Ltd,Elaine Wind Farm,Wind,82.0,35.35,Elaine Wind Farm,-37.36,144.0,2026-02-02T14:32:07.620996
2026/02/03 00:35:00,FLYCRKWF,68.68,Iberdrola Australia Energy Markets Pty Limited,Flyers Creek Wind Farm,Wind,140.0,49.06,Flyers Creek Wind Farm,-33.365556,148.981944,2026-02-02T14:32:07.620996
2026/02/03 00:35:00,GPWFEST1,117.17,Golden Plains WF1 Pty Ltd as Trustee for the Golden Plains WF1 Unit Trust,Golden Plains Wind Farm East,Wind,240.0,48.82,Golden Plains Wind Farm East,-37.945091,143.752614,2026-02-02T14:32:07.620996
2026/02/03 00:35:00,GPWFEST2,102.81,Golden Plains WF1 Pty Ltd as Trustee for the Golden Plains WF1 Unit Trust,Golden Plains Wind Farm East,Wind,253.0,40.64,Golden Plains Wind Farm East,-37.945091,143.752614,2026-02-02T14:32:07.620996
2026/02/03 00:35:00,GPWFEST3,77.12,Golden Plains WF1 Pty Ltd as Trustee for the Golden Plains WF1 Unit Trust,Golden Plains Wind Farm East,Wind,240.0,32.13,Golden Plains Wind Farm East,-37.945091,143.752614,2026-02-02T14:32:07.620996
2026/02/03 00:35:00,GRANWF1,5.35,Granville Harbour Operations Pty Ltd as The Trustee for Granville Harbour Operations Trust,Granville Harbour Wind Farm,Wind,111.0,4.82,Granville Harbour Wind Farm,-41.8,145.06,2026-02-02T14:32:07.620996
2026/02/03 00:35:00,GSWF1A,111.14,Goyder Wind Farm 1 Pty Ltd as the Trustee for Goyder Wind Farm 1 Trust,Goyder South Wind Farm 1A,Wind,201.0,55.29,Goyder South Wind Farm 1A,-33.679758,138.937597,2026-02-02T14:32:07.620996
2026/02/03 00:35:00,GSWF1B1,105.74,Goyder Wind Farm 1B Pty Ltd as the Trustee for the Goyder Wind Farm 1B Trust,Goyder South Wind Farm 1B,Wind,196.0,53.95,Goyder South Wind Farm 1B,-33.679758,138.937597,2026-02-02T14:32:07.620996
2026/02/03 00:35:00,GULLRWF1,109.5,New Gullen Range Wind Farm Pty Ltd,Gullen Range Wind Farm,Wind,161.0,68.01,Gullen Range Wind Farm,-34.34,149.27,2026-02-02T14:32:07.620996
2026/02/03 00:35:00,GULLRWF2,103.39,New Gullen Range Wind Farm Pty Ltd,Gullen Range Wind Farm,Wind,107.0,96.63,Gullen Range Wind Farm,-34.34,149.27,2026-02-02T14:32:07.620996
2026/02/03 00:35:00,GUNNING1,40.15,Gunning Wind Energy Developments Pty Ltd,Gunning Wind Farm,Wind,47.0,85.43,Gunning Wind Farm,-34.813333,149.4,2026-02-02T14:32:07.620996
2026/02/03 00:35:00,HALLWF1,54.39,AGL SA Generation Pty Limited,Hallett 1 Wind Farm,Wind,95.0,57.25,Hallett 1 Wind Farm,-33.367778,138.728611,2026-02-02T14:32:07.620996
2026/02/03 00:35:00,HALLWF2,53.7,AGL SA Generation Pty Limited,Hallett 2 Wind Farm,Wind,71.0,75.63,Hallett 2 Wind Farm,-33.367778,138.728611,2026-02-02T14:32:07.620996
2026/02/03 00:35:00,HD1WF1,55.91,Hawkesdale Asset Pty Ltd as trustee for Hawkesdale Asset Trust,Hawkesdale Wind Farm,Wind,89.0,62.82,Hawkesdale Wind Farm,-38.147894,142.361381,2026-02-02T14:32:07.620996
2026/02/03 00:35:00,HDWF1,75.2,HWF1 Pty Ltd,Hornsdale Wind Farm,Wind,102.0,73.73,Hornsdale Wind Farm,-33.050556,138.543611,2026-02-02T14:32:07.620996
2026/02/03 00:35:00,HDWF2,86.2,HWF 2 Pty Ltd,Hornsdale Wind Farm 2,Wind,102.0,84.51,Hornsdale Wind Farm 2,-33.06,138.54,2026-02-02T14:32:07.620996
2026/02/03 00:35:00,HDWF3,89.6,HWF3 Pty Ltd,Hornsdale Wind Farm 3,Wind,109.0,82.2,Hornsdale Wind Farm 3,-33.06,138.54,2026-02-02T14:32:07.620996
2026/02/03 00:35:00,KABANWF1,27.08,Kaban Wind Farm Pty Ltd as trustee for Kaban Wind Farm Trust,Kaban Wind Farm,Wind,152.0,17.82,Kaban Wind Farm,-17.56,145.41,2026-02-02T14:32:07.620996
2026/02/03 00:35:00,KEPWF1,0.0,Kennedy Energy Park Pty Ltd,Kennedy Energy Park,Wind,43.0,0.0,Kennedy Energy Park,-20.88,144.42,2026-02-02T14:32:07.620996
2026/02/03 00:35:00,KIATAWF1,17.3,Kiata ProjectCo Pty Ltd Atf Kiata Project Trust,Kiata Wind Farm,Wind,31.0,55.81,Kiata Wind Farm,-36.4,141.75,2026-02-02T14:32:07.620996
2026/02/03 00:35:00,LGAPWF1,22.36,Lincoln Gap Wind Farm (Operations) Pty Ltd,Lincoln Gap Wind Farm,Wind,123.0,18.18,Lincoln Gap Wind Farm,-32.564279,137.557328,2026-02-02T14:32:07.620996
2026/02/03 00:35:00,LGAPWF1,22.36,Lincoln Gap Wind Farm (Operations) Pty Ltd,Lincoln Gap Wind Farm,Wind,123.0,18.18,Lincoln Gap Wind Farm,-32.564279,137.557328,2026-02-02T14:32:07.620996
2026/02/03 00:35:00,LGAPWF2,21.58,Lincoln Gap Wind Farm (Operations) Pty Ltd,Lincoln Gap Wind Farm,Wind,85.0,25.39,Lincoln Gap Wind Farm,-32.564279,137.557328,2026-02-02T14:32:07.620996
2026/02/03 00:35:00,LGAPWF2,21.58,Lincoln Gap Wind Farm (Operations) Pty Ltd,Lincoln Gap Wind Farm,Wind,85.0,25.39,Lincoln Gap Wind Farm,-32.564279,137.557328,2026-02-02T14:32:07.620996
2026/02/03 00:35:00,LKBONNY1,37.78,Lake Bonney Wind Power Pty Ltd,Lake Bonney Wind Farm Stage 1,Wind,81.0,46.64,Lake Bonney Wind Farm Stage 1,-37.76,140.4,2026-02-02T14:32:07.620996
2026/02/03 00:35:00,LKBONNY2,94.98,Lake Bonney Wind Power Pty Ltd,Lake Bonney Stage 2 Windfarm,Wind,159.0,59.74,Lake Bonney Stage 2 Windfarm,-37.76,140.4,2026-02-02T14:32:07.620996
2026/02/03 00:35:00,LKBONNY3,28.58,Lake Bonney Wind Power Pty Ltd,Lake Bonney Stage 3 Wind Farm,Wind,39.0,73.28,Lake Bonney Stage 3 Wind Farm,-37.737781,140.388137,2026-02-02T14:32:07.620996
2026/02/03 00:35:00,MACARTH1,80.1,AGL Hydro Partnership,Macarthur Wind Farm,Wind,420.0,19.07,Macarthur Wind Farm,-38.048957,142.192112,2026-02-02T14:32:07.620996
2026/02/03 00:35:00,MCINTYR1,266.84,MacIntyre UJV Operator Pty Ltd,MacIntyre Wind Farm,Wind,890.0,29.98,MacIntyre Wind Farm,-28.32,151.54,2026-02-02T14:32:07.620996
2026/02/03 00:35:00,MERCER01,10.9,Mt Mercer Windfarm Pty Ltd,Mt Mercer Wind Farm,Wind,131.0,8.32,Mt Mercer Wind Farm,-37.841111,143.871111,2026-02-02T14:32:07.620996
2026/02/03 00:35:00,MEWF1,0.0,Ergon Energy Queensland Pty Ltd ,Mount Emerald Wind Farm,Wind,178.0,0.0,Mount Emerald Wind Farm,-17.133007,145.380644,2026-02-02T14:32:07.620996
2026/02/03 00:35:00,MRTLSWF1,26.67,Mortlake South Wind Farm Pty Ltd,Mortlake South Wind Farm,Wind,153.0,17.43,Mortlake South Wind Farm,-38.127337,142.857801,2026-02-02T14:32:07.620996
2026/02/03 00:35:00,MTGELWF1,57.66,Mt. Gellibrand Wind Farm Pty Ltd,Mt Gellibrand Wind Farm,Wind,132.0,43.68,Mt Gellibrand Wind Farm,-38.23,143.77,2026-02-02T14:32:07.620996
2026/02/03 00:35:00,MTMILLAR,7.6,Mt Millar Wind Farm Pty Ltd,Mt Millar Wind Farm,Wind,70.0,10.86,Mt Millar Wind Farm,-33.624444,136.703611,2026-02-02T14:32:07.620996
2026/02/03 00:35:00,MUSSELR1,2.6,Hydro-Electric Corporation,Musselroe Wind Farm,Wind,168.0,1.55,Musselroe Wind Farm,-40.780225,148.010799,2026-02-02T14:32:07.620996
2026/02/03 00:35:00,MUWAWF1,52.35,Telstra Energy (Generation) Pty Ltd,Murra Warra Wind Farm,Wind,225.7,23.19,Murra Warra Wind Farm,-36.432404,142.317853,2026-02-02T14:32:07.620996
2026/02/03 00:35:00,MUWAWF2,46.8,Murra Warra II Project Co Pty Ltd ATF The Murra Warra II Project Trust,Murra Warra Wind Farm Stage 2,Wind,203.0,23.05,Murra Warra Wind Farm Stage 2,-36.43,142.32,2026-02-02T14:32:07.620996
2026/02/03 00:35:00,NBHWF1,91.8,AGL SA Generation Pty Limited,North Brown Hill Wind Farm,Wind,132.0,69.55,North Brown Hill Wind Farm,-33.367778,138.728611,2026-02-02T14:32:07.620996
2026/02/03 00:35:00,OAKLAND1,26.1,AGL Hydro Partnership,Oaklands Hill Wind Farm,Wind,63.0,41.43,Oaklands Hill Wind Farm,-37.683078,142.551678,2026-02-02T14:32:07.620996
2026/02/03 00:35:00,PAREPW1,84.97,Iberdrola Australia Energy Markets Pty Limited,Port Augusta Renewable Energy Park,Wind,201.0,42.27,Port Augusta Renewable Energy Park,-32.566944,137.856111,2026-02-02T14:32:07.620996
2026/02/03 00:35:00,RYANCWF1,46.14,Ryan Corner Development Pty Ltd,Ryan Corner Wind Farm,Wind,205.0,22.51,Ryan Corner Wind Farm,-38.271017,142.140647,2026-02-02T14:32:07.620996
2026/02/03 00:35:00,RYEPARK1,361.48,Rye Park Renewable Energy Pty Ltd as trustee for Rye Park Wind Farm Trust,Rye Park Renewable Energy,Wind,384.0,94.14,Rye Park Renewable Energy,-32.138333,148.972778,2026-02-02T14:32:07.620996
2026/02/03 00:35:00,SALTCRK1,29.39,Salt Creek Wind Farm Pty Ltd,Salt Creek Wind Farm,Wind,54.0,54.43,Salt Creek Wind Farm,-37.95,142.63,2026-02-02T14:32:07.620996
2026/02/03 00:35:00,SAPHWF1,249.12,The Trustee For The SWF1 Operations Trust,Sapphire Wind Farm,Wind,270.0,92.27,Sapphire Wind Farm,-29.7,151.41,2026-02-02T14:32:07.620996
2026/02/03 00:35:00,SNOWNTH1,28.7,Snowtown Wind Farm Stage 2 Pty Ltd,Snowtown Wind Farm Stage 2 North,Wind,144.0,19.93,Snowtown Wind Farm Stage 2 North,-33.83,138.118611,2026-02-02T14:32:07.620996
2026/02/03 00:35:00,SNOWSTH1,37.8,Snowtown Wind Farm Stage 2 Pty Ltd,Snowtown South Wind Farm,Wind,126.0,30.0,Snowtown South Wind Farm,-33.83,138.118611,2026-02-02T14:32:07.620996
2026/02/03 00:35:00,SNOWTWN1,42.03,Snowtown Wind Farm Pty Ltd,Snowtown Wind Farm Units 1 And 47,Wind,99.0,42.45,Snowtown Wind Farm Units 1 And 47,-33.83,138.118611,2026-02-02T14:32:07.620996
2026/02/03 00:35:00,STARHLWF,23.59,Starfish Hill Wind Farm Pty Ltd,Starfish Hill Wind Farm,Wind,35.0,67.4,Starfish Hill Wind Farm,-35.58,138.14,2026-02-02T14:32:07.620996
2026/02/03 00:35:00,STOCKYD1,94.57,Stockyard Hill Wind Farm Pty Ltd,Stockyard Hill Wind Farm,Wind,511.0,18.51,Stockyard Hill Wind Farm,-37.535833,143.251389,2026-02-02T14:32:07.620996
2026/02/03 00:35:00,STWF1,0.0,PARF Company 8 Pty Ltd as The Trustee for Silverton Project Trust,Silverton Wind Farm,Wind,198.0,0.0,Silverton Wind Farm,-37.683168,142.551678,2026-02-02T14:32:07.620996
2026/02/03 00:35:00,TARALGA1,40.23,Taralga Wind Farm Nominees No 2 Pty Ltd (ATF Taralga Wind Farm Operating Trust),Taralga Wind Farm,Wind,106.0,37.95,Taralga Wind Farm,-34.42352,149.826267,2026-02-02T14:32:07.620996
2026/02/03 00:35:00,WAMBOWF1,105.04,Stanwell Corporation Limited,Wambo Wind Farm 1,Wind,245.0,42.87,Wambo Wind Farm 1,-35.187301,149.524945,2026-02-02T14:32:07.620996
2026/02/03 00:35:00,WATERLWF,35.6,Waterloo Wind Farm Pty Ltd,Waterloo Wind Farm,Wind,130.0,27.38,Waterloo Wind Farm,-34.00094,138.911567,2026-02-02T14:32:07.620996
2026/02/03 00:35:00,WGWF1,65.4,Willogoleche Power Pty Ltd As The Trustee For The Willogoleche Operating Trust,Willogoleche Wind Farm,Wind,119.0,54.96,Willogoleche Wind Farm,-33.39,138.85,2026-02-02T14:32:07.620996
2026/02/03 00:35:00,WOODLWN1,16.41,Woodlawn Wind Pty Ltd,Woodlawn Wind Farm,Wind,48.0,34.19,Woodlawn Wind Farm,-35.08,149.62,2026-02-02T14:32:07.620996
2026/02/03 00:35:00,WPWF,20.52,AGL SA Generation Pty Limited,Wattle Point Wind Farm,Wind,91.0,22.55,Wattle Point Wind Farm,-35.111624,137.7219,2026-02-02T14:32:07.620996
2026/02/03 00:35:00,WRWF1,160.83,White Rock Wind Farm Pty Ltd,White Rock Wind Farm,Wind,172.0,93.51,White Rock Wind Farm,-29.79,151.54,2026-02-02T14:32:07.620996
2026/02/03 00:35:00,YENDWF1,55.9,Lal Lal Wind Farms Nom Co Pty Ltd,Yendon Wind Farm,Wind,142.0,39.37,Yendon Wind Farm,-37.629987,144.022717,2026-02-02T14:32:07.620996
