SETTLEMENTDATE,DUID,SCADAVALUE,Participant,Station Name,Fuel Source - Primary,MAX_CAP,utilisation_pct,Plant,Latitude,Longitude,timestamp_utc
2026/04/06 06:50:00,CAPTL_WF,0.0,Iberdrola Australia Holdings Pty Limited,Capital Wind Farm,Wind,140.0,0.0,Capital Wind Farm,-35.1,149.31,2026-04-05T20:54:10.431074
2026/04/06 06:50:00,CHALLHWF,17.6,Pacific Hydro Challicum Hills Pty Ltd,Challicum Hills Wind Farm,Wind,52.0,33.85,Challicum Hills Wind Farm,-37.38,143.11,2026-04-05T20:54:10.431074
2026/04/06 06:50:00,CULLRGWF,8.42,Cullerin Range Wind Farm Pty Ltd,Cullerin Range Wind Farm,Wind,30.0,28.07,Cullerin Range Wind Farm,-34.81,149.4,2026-04-05T20:54:10.431074
2026/04/06 06:50:00,DIAPURWF1,5.6,Y.E.S. Energy (SA) Pty Ltd,Diapur Wind Farm,Wind,7.0,80.0,Diapur Wind Farm,-36.3425,141.43,2026-04-05T20:54:10.431074
2026/04/06 06:50:00,MLWF1,1.38,Mortons Lane Windfarm Pty Limited,Mortons Lane Wind Farm,Wind,20.0,6.9,Mortons Lane Wind Farm,-37.84,142.45,2026-04-05T20:54:10.431074
2026/04/06 06:50:00,WAUBRAWF,94.42,Pyrenees Wind Energy Developments Pty Ltd,Waubra Wind Farm,Wind,192.0,49.18,Waubra Wind Farm,-37.394498,143.638982,2026-04-05T20:54:10.431074
2026/04/06 06:50:00,WOOLNTH1,109.8,Hydro-Electric Corporation,Woolnorth Studland Bay / Bluff Point Wind Farm,Wind,140.0,78.43,Woolnorth Studland Bay / Bluff Point Wind Farm,-40.69,144.72,2026-04-05T20:54:10.431074
2026/04/06 06:50:00,YAMBUKWF,1.7,Energy Pacific (Vic) Pty Ltd,Yambuk Wind Farm,Wind,30.0,5.67,Yambuk Wind Farm,-38.299083,142.027577,2026-04-05T20:54:10.431074
2026/04/06 06:50:00,YSWF1,2.5,Pacific Hydro Yaloak South Pty Ltd,Yaloak South Wind Farm,Wind,28.0,8.93,Yaloak South Wind Farm,-37.7163,144.242853,2026-04-05T20:54:10.431074
2026/04/06 06:50:00,ARWF1,56.7,Ararat Wind Farm Pty Ltd,Ararat Wind Farm,Wind,241.0,23.53,Ararat Wind Farm,-37.232778,143.031389,2026-04-05T20:54:10.431074
2026/04/06 06:50:00,BALDHWF1,36.06,Alinta Energy Retail Sales Pty Ltd,Bald Hills Wind Farm,Wind,106.0,34.02,Bald Hills Wind Farm,-38.79,145.93,2026-04-05T20:54:10.431074
2026/04/06 06:50:00,BANGOWF1,26.8,BWF Nominees Pty Ltd as The Trustee for BWF Trust,Bango 973 Wind Farm,Wind,155.0,17.29,Bango 973 Wind Farm,-34.551582,148.732808,2026-04-05T20:54:10.431074
2026/04/06 06:50:00,BANGOWF2,15.1,BWF Nominees Pty Ltd as The Trustee for BWF Trust,Bango 999 Wind Farm,Wind,82.0,18.41,Bango 999 Wind Farm,-34.551582,148.732808,2026-04-05T20:54:10.431074
2026/04/06 06:50:00,BLUFF1,28.9,AGL SA Generation Pty Limited,The Bluff Wind Farm,Wind,53.0,54.53,The Bluff Wind Farm,-33.367778,138.728611,2026-04-05T20:54:10.431074
2026/04/06 06:50:00,BOCORWF1,24.04,Boco Rock Wind Farm Pty Ltd,Boco Rock Wind Farm,Wind,111.0,21.66,Boco Rock Wind Farm,-36.578611,149.103333,2026-04-05T20:54:10.431074
2026/04/06 06:50:00,BRYB1WF1,23.59,Berrybank Development Pty Ltd,Berrybank Wind Farm,Wind,175.9,13.41,Berrybank Wind Farm,-37.94,143.52,2026-04-05T20:54:10.431074
2026/04/06 06:50:00,BRYB2WF2,17.32,Berrybank 2 Asset Pty Ltd as trustee for Berrybank 2 Asset Trust,Berrybank 2 Wind Farm,Wind,105.0,16.5,Berrybank 2 Wind Farm,-37.94,143.52,2026-04-05T20:54:10.431074
2026/04/06 06:50:00,BULGANA1,0.0,Bulgana Wind Farm Pty Ltd,Bulgana Green Power Hub,Wind,204.0,0.0,Bulgana Green Power Hub,-37.0975,142.973611,2026-04-05T20:54:10.431074
2026/04/06 06:50:00,CATHROCK,29.2,Cathedral Rocks Wind Farm Pty Ltd,Cathedral Rocks,Wind,66.0,44.24,Cathedral Rocks,-34.51,135.35,2026-04-05T20:54:10.431074
2026/04/06 06:50:00,CHYTWF1,12.13,Cherry Tree Wind Farm Pty Ltd as trustee for The Cherry Tree Project trust ,Cherry Tree Wind Farm,Wind,57.0,21.28,Cherry Tree Wind Farm,-37.1,145.26,2026-04-05T20:54:10.431074
2026/04/06 06:50:00,CLEMGPWF,1.3,Pacific Hydro Clements Gap Pty Ltd,Clements Gap Wind Farm,Wind,57.0,2.28,Clements Gap Wind Farm,-33.48,138.1,2026-04-05T20:54:10.431074
2026/04/06 06:50:00,CLRKCWF1,182.46,Stanwell Corporation Limited ,Clarke Creek Wind Farm,Wind,338.0,53.98,Clarke Creek Wind Farm,-22.85,149.45,2026-04-05T20:54:10.431074
2026/04/06 06:50:00,CLRKCWF2,70.51,Stanwell Corporation Limited ,Clarke Creek Wind Farm,Wind,101.0,69.81,Clarke Creek Wind Farm,-22.85,149.45,2026-04-05T20:54:10.431074
2026/04/06 06:50:00,CNUNDAWF,2.8,Canunda Power Pty Ltd,Canunda Wind Farm,Wind,46.0,6.09,Canunda Wind Farm,-37.73,140.39,2026-04-05T20:54:10.431074
2026/04/06 06:50:00,COLWF01,39.57,Collector Wind Farm Pty Ltd,Collector Wind Farm 1,Wind,219.0,18.07,Collector Wind Farm 1,-34.8719,149.3967,2026-04-05T20:54:10.431074
2026/04/06 06:50:00,COOPGWF1,215.73,PARF Company 10 Pty Limited as The Trustee for Coopers Gap Project Trust,Coopers Gap Wind Farm,Wind,440.0,49.03,Coopers Gap Wind Farm,-26.74,151.45,2026-04-05T20:54:10.431074
2026/04/06 06:50:00,CROOKWF2,3.6,Crookwell Development Pty Ltd ,Crookwell 2 Wind Farm,Wind,91.0,3.96,Crookwell 2 Wind Farm,-34.52,149.54,2026-04-05T20:54:10.431074
2026/04/06 06:50:00,CROOKWF3,5.73,Crookwell 3 Development Pty Ltd,Crookwell 3 Wind Farm,Wind,56.0,10.23,Crookwell 3 Wind Farm,-34.52,149.54,2026-04-05T20:54:10.431074
2026/04/06 06:50:00,CROWLWF1,32.35,Pacific Hydro Crowlands Pty Ltd ,Crowlands Wind Farm,Wind,79.0,40.95,Crowlands Wind Farm,-37.13,143.16,2026-04-05T20:54:10.431074
2026/04/06 06:50:00,CRURWF1,33.2,CRWF Nominees Pty Ltd As Trustee For The CRWF Trust,Crudine Ridge Wind Farm,Wind,138.0,24.06,Crudine Ridge Wind Farm,-32.97,149.64,2026-04-05T20:54:10.431074
2026/04/06 06:50:00,CTHLWF1,13.98,Wild Cattle Hill Pty Ltd,Cattle Hill Wind Farm,Wind,144.0,9.71,Cattle Hill Wind Farm,-42.15,146.69,2026-04-05T20:54:10.431074
2026/04/06 06:50:00,DULAWF1,86.0,Dulacca Energy Project Co Pty Ltd,Dulacca Wind Farm,Wind,173.0,49.71,Dulacca Wind Farm,-26.63,149.87,2026-04-05T20:54:10.431074
2026/04/06 06:50:00,DUNDWF1,78.46,Dundonnell Wind Farm Pty Ltd,Dundonnell Wind Farm,Wind,168.0,46.7,Dundonnell Wind Farm,-37.52,142.58,2026-04-05T20:54:10.431074
2026/04/06 06:50:00,DUNDWF2,18.73,Dundonnell Wind Farm Pty Ltd,Dundonnell Wind Farm,Wind,46.0,40.72,Dundonnell Wind Farm,-37.52,142.58,2026-04-05T20:54:10.431074
2026/04/06 06:50:00,DUNDWF3,46.59,Dundonnell Wind Farm Pty Ltd,Dundonnell Wind Farm,Wind,122.0,38.19,Dundonnell Wind Farm,-37.52,142.58,2026-04-05T20:54:10.431074
2026/04/06 06:50:00,ELAINWF1,16.89,Lal Lal Wind Farms Nom Co Pty Ltd,Elaine Wind Farm,Wind,82.0,20.6,Elaine Wind Farm,-37.36,144.0,2026-04-05T20:54:10.431074
2026/04/06 06:50:00,FLYCRKWF,80.34,Iberdrola Australia Energy Markets Pty Limited,Flyers Creek Wind Farm,Wind,140.0,57.39,Flyers Creek Wind Farm,-33.365556,148.981944,2026-04-05T20:54:10.431074
2026/04/06 06:50:00,GPWFEST1,23.19,Golden Plains WF1 Pty Ltd as Trustee for the Golden Plains WF1 Unit Trust,Golden Plains Wind Farm East,Wind,240.0,9.66,Golden Plains Wind Farm East,-37.945091,143.752614,2026-04-05T20:54:10.431074
2026/04/06 06:50:00,GPWFEST2,26.97,Golden Plains WF1 Pty Ltd as Trustee for the Golden Plains WF1 Unit Trust,Golden Plains Wind Farm East,Wind,253.0,10.66,Golden Plains Wind Farm East,-37.945091,143.752614,2026-04-05T20:54:10.431074
2026/04/06 06:50:00,GPWFEST3,14.84,Golden Plains WF1 Pty Ltd as Trustee for the Golden Plains WF1 Unit Trust,Golden Plains Wind Farm East,Wind,240.0,6.18,Golden Plains Wind Farm East,-37.945091,143.752614,2026-04-05T20:54:10.431074
2026/04/06 06:50:00,GRANWF1,88.32,Granville Harbour Operations Pty Ltd as The Trustee for Granville Harbour Operations Trust,Granville Harbour Wind Farm,Wind,111.0,79.57,Granville Harbour Wind Farm,-41.8,145.06,2026-04-05T20:54:10.431074
2026/04/06 06:50:00,GSWF1A,145.05,Goyder Wind Farm 1 Pty Ltd as the Trustee for Goyder Wind Farm 1 Trust,Goyder South Wind Farm 1A,Wind,201.0,72.16,Goyder South Wind Farm 1A,-33.679758,138.937597,2026-04-05T20:54:10.431074
2026/04/06 06:50:00,GSWF1B1,160.53,Goyder Wind Farm 1B Pty Ltd as the Trustee for the Goyder Wind Farm 1B Trust,Goyder South Wind Farm 1B,Wind,196.0,81.9,Goyder South Wind Farm 1B,-33.679758,138.937597,2026-04-05T20:54:10.431074
2026/04/06 06:50:00,GULLRWF1,11.6,New Gullen Range Wind Farm Pty Ltd,Gullen Range Wind Farm,Wind,161.0,7.2,Gullen Range Wind Farm,-34.34,149.27,2026-04-05T20:54:10.431074
2026/04/06 06:50:00,GULLRWF2,12.25,New Gullen Range Wind Farm Pty Ltd,Gullen Range Wind Farm,Wind,107.0,11.45,Gullen Range Wind Farm,-34.34,149.27,2026-04-05T20:54:10.431074
2026/04/06 06:50:00,GUNNING1,17.63,Gunning Wind Energy Developments Pty Ltd,Gunning Wind Farm,Wind,47.0,37.51,Gunning Wind Farm,-34.813333,149.4,2026-04-05T20:54:10.431074
2026/04/06 06:50:00,HALLWF1,51.89,AGL SA Generation Pty Limited,Hallett 1 Wind Farm,Wind,95.0,54.62,Hallett 1 Wind Farm,-33.367778,138.728611,2026-04-05T20:54:10.431074
2026/04/06 06:50:00,HALLWF2,43.51,AGL SA Generation Pty Limited,Hallett 2 Wind Farm,Wind,71.0,61.28,Hallett 2 Wind Farm,-33.367778,138.728611,2026-04-05T20:54:10.431074
2026/04/06 06:50:00,HD1WF1,13.89,Hawkesdale Asset Pty Ltd as trustee for Hawkesdale Asset Trust,Hawkesdale Wind Farm,Wind,89.0,15.61,Hawkesdale Wind Farm,-38.147894,142.361381,2026-04-05T20:54:10.431074
2026/04/06 06:50:00,HDWF1,64.5,HWF1 Pty Ltd,Hornsdale Wind Farm,Wind,102.0,63.24,Hornsdale Wind Farm,-33.050556,138.543611,2026-04-05T20:54:10.431074
2026/04/06 06:50:00,HDWF2,60.2,HWF 2 Pty Ltd,Hornsdale Wind Farm 2,Wind,102.0,59.02,Hornsdale Wind Farm 2,-33.06,138.54,2026-04-05T20:54:10.431074
2026/04/06 06:50:00,HDWF3,65.9,HWF3 Pty Ltd,Hornsdale Wind Farm 3,Wind,109.0,60.46,Hornsdale Wind Farm 3,-33.06,138.54,2026-04-05T20:54:10.431074
2026/04/06 06:50:00,KABANWF1,74.43,Kaban Wind Farm Pty Ltd as trustee for Kaban Wind Farm Trust,Kaban Wind Farm,Wind,152.0,48.97,Kaban Wind Farm,-17.56,145.41,2026-04-05T20:54:10.431074
2026/04/06 06:50:00,KEPWF1,27.1,Kennedy Energy Park Pty Ltd,Kennedy Energy Park,Wind,43.0,63.02,Kennedy Energy Park,-20.88,144.42,2026-04-05T20:54:10.431074
2026/04/06 06:50:00,KIATAWF1,3.7,Kiata ProjectCo Pty Ltd Atf Kiata Project Trust,Kiata Wind Farm,Wind,31.0,11.94,Kiata Wind Farm,-36.4,141.75,2026-04-05T20:54:10.431074
2026/04/06 06:50:00,LGAPWF1,28.32,Lincoln Gap Wind Farm (Operations) Pty Ltd,Lincoln Gap Wind Farm,Wind,123.0,23.02,Lincoln Gap Wind Farm,-32.564279,137.557328,2026-04-05T20:54:10.431074
2026/04/06 06:50:00,LGAPWF1,28.32,Lincoln Gap Wind Farm (Operations) Pty Ltd,Lincoln Gap Wind Farm,Wind,123.0,23.02,Lincoln Gap Wind Farm,-32.564279,137.557328,2026-04-05T20:54:10.431074
2026/04/06 06:50:00,LGAPWF2,55.69,Lincoln Gap Wind Farm (Operations) Pty Ltd,Lincoln Gap Wind Farm,Wind,85.0,65.52,Lincoln Gap Wind Farm,-32.564279,137.557328,2026-04-05T20:54:10.431074
2026/04/06 06:50:00,LGAPWF2,55.69,Lincoln Gap Wind Farm (Operations) Pty Ltd,Lincoln Gap Wind Farm,Wind,85.0,65.52,Lincoln Gap Wind Farm,-32.564279,137.557328,2026-04-05T20:54:10.431074
2026/04/06 06:50:00,LKBONNY1,3.84,Lake Bonney Wind Power Pty Ltd,Lake Bonney Wind Farm Stage 1,Wind,81.0,4.74,Lake Bonney Wind Farm Stage 1,-37.76,140.4,2026-04-05T20:54:10.431074
2026/04/06 06:50:00,LKBONNY2,12.59,Lake Bonney Wind Power Pty Ltd,Lake Bonney Stage 2 Windfarm,Wind,159.0,7.92,Lake Bonney Stage 2 Windfarm,-37.76,140.4,2026-04-05T20:54:10.431074
2026/04/06 06:50:00,LKBONNY3,3.96,Lake Bonney Wind Power Pty Ltd,Lake Bonney Stage 3 Wind Farm,Wind,39.0,10.15,Lake Bonney Stage 3 Wind Farm,-37.737781,140.388137,2026-04-05T20:54:10.431074
2026/04/06 06:50:00,MACARTH1,39.2,AGL Hydro Partnership,Macarthur Wind Farm,Wind,420.0,9.33,Macarthur Wind Farm,-38.048957,142.192112,2026-04-05T20:54:10.431074
2026/04/06 06:50:00,MCINTYR1,342.9,MacIntyre UJV Operator Pty Ltd,MacIntyre Wind Farm,Wind,890.0,38.53,MacIntyre Wind Farm,-28.32,151.54,2026-04-05T20:54:10.431074
2026/04/06 06:50:00,MERCER01,23.1,Mt Mercer Windfarm Pty Ltd,Mt Mercer Wind Farm,Wind,131.0,17.63,Mt Mercer Wind Farm,-37.841111,143.871111,2026-04-05T20:54:10.431074
2026/04/06 06:50:00,MEWF1,120.66,Ergon Energy Queensland Pty Ltd ,Mount Emerald Wind Farm,Wind,178.0,67.79,Mount Emerald Wind Farm,-17.133007,145.380644,2026-04-05T20:54:10.431074
2026/04/06 06:50:00,MRTLSWF1,64.06,Mortlake South Wind Farm Pty Ltd,Mortlake South Wind Farm,Wind,153.0,41.87,Mortlake South Wind Farm,-38.127337,142.857801,2026-04-05T20:54:10.431074
2026/04/06 06:50:00,MTGELWF1,29.95,Mt. Gellibrand Wind Farm Pty Ltd,Mt Gellibrand Wind Farm,Wind,132.0,22.69,Mt Gellibrand Wind Farm,-38.23,143.77,2026-04-05T20:54:10.431074
2026/04/06 06:50:00,MTMILLAR,52.8,Mt Millar Wind Farm Pty Ltd,Mt Millar Wind Farm,Wind,70.0,75.43,Mt Millar Wind Farm,-33.624444,136.703611,2026-04-05T20:54:10.431074
2026/04/06 06:50:00,MUSSELR1,11.3,Hydro-Electric Corporation,Musselroe Wind Farm,Wind,168.0,6.73,Musselroe Wind Farm,-40.780225,148.010799,2026-04-05T20:54:10.431074
2026/04/06 06:50:00,MUWAWF1,8.64,Telstra Energy (Generation) Pty Ltd,Murra Warra Wind Farm,Wind,225.7,3.83,Murra Warra Wind Farm,-36.432404,142.317853,2026-04-05T20:54:10.431074
2026/04/06 06:50:00,MUWAWF2,1.9,Murra Warra II Project Co Pty Ltd ATF The Murra Warra II Project Trust,Murra Warra Wind Farm Stage 2,Wind,203.0,0.94,Murra Warra Wind Farm Stage 2,-36.43,142.32,2026-04-05T20:54:10.431074
2026/04/06 06:50:00,NBHWF1,52.3,AGL SA Generation Pty Limited,North Brown Hill Wind Farm,Wind,132.0,39.62,North Brown Hill Wind Farm,-33.367778,138.728611,2026-04-05T20:54:10.431074
2026/04/06 06:50:00,OAKLAND1,9.7,AGL Hydro Partnership,Oaklands Hill Wind Farm,Wind,63.0,15.4,Oaklands Hill Wind Farm,-37.683078,142.551678,2026-04-05T20:54:10.431074
2026/04/06 06:50:00,PAREPW1,69.93,Iberdrola Australia Energy Markets Pty Limited,Port Augusta Renewable Energy Park,Wind,201.0,34.79,Port Augusta Renewable Energy Park,-32.566944,137.856111,2026-04-05T20:54:10.431074
2026/04/06 06:50:00,RYANCWF1,9.41,Ryan Corner Development Pty Ltd,Ryan Corner Wind Farm,Wind,205.0,4.59,Ryan Corner Wind Farm,-38.271017,142.140647,2026-04-05T20:54:10.431074
2026/04/06 06:50:00,RYEPARK1,36.83,Rye Park Renewable Energy Pty Ltd as trustee for Rye Park Wind Farm Trust,Rye Park Renewable Energy,Wind,384.0,9.59,Rye Park Renewable Energy,-32.138333,148.972778,2026-04-05T20:54:10.431074
2026/04/06 06:50:00,SALTCRK1,11.1,Salt Creek Wind Farm Pty Ltd,Salt Creek Wind Farm,Wind,54.0,20.56,Salt Creek Wind Farm,-37.95,142.63,2026-04-05T20:54:10.431074
2026/04/06 06:50:00,SAPHWF1,60.53,The Trustee For The SWF1 Operations Trust,Sapphire Wind Farm,Wind,270.0,22.42,Sapphire Wind Farm,-29.7,151.41,2026-04-05T20:54:10.431074
2026/04/06 06:50:00,SNOWNTH1,31.9,Snowtown Wind Farm Stage 2 Pty Ltd,Snowtown Wind Farm Stage 2 North,Wind,144.0,22.15,Snowtown Wind Farm Stage 2 North,-33.83,138.118611,2026-04-05T20:54:10.431074
2026/04/06 06:50:00,SNOWSTH1,69.0,Snowtown Wind Farm Stage 2 Pty Ltd,Snowtown South Wind Farm,Wind,126.0,54.76,Snowtown South Wind Farm,-33.83,138.118611,2026-04-05T20:54:10.431074
2026/04/06 06:50:00,SNOWTWN1,33.74,Snowtown Wind Farm Pty Ltd,Snowtown Wind Farm Units 1 And 47,Wind,99.0,34.08,Snowtown Wind Farm Units 1 And 47,-33.83,138.118611,2026-04-05T20:54:10.431074
2026/04/06 06:50:00,STARHLWF,1.2,Starfish Hill Wind Farm Pty Ltd,Starfish Hill Wind Farm,Wind,35.0,3.43,Starfish Hill Wind Farm,-35.58,138.14,2026-04-05T20:54:10.431074
2026/04/06 06:50:00,STOCKYD1,302.07,Stockyard Hill Wind Farm Pty Ltd,Stockyard Hill Wind Farm,Wind,511.0,59.11,Stockyard Hill Wind Farm,-37.535833,143.251389,2026-04-05T20:54:10.431074
2026/04/06 06:50:00,STWF1,0.0,PARF Company 8 Pty Ltd as The Trustee for Silverton Project Trust,Silverton Wind Farm,Wind,198.0,0.0,Silverton Wind Farm,-37.683168,142.551678,2026-04-05T20:54:10.431074
2026/04/06 06:50:00,TARALGA1,5.37,Taralga Wind Farm Nominees No 2 Pty Ltd (ATF Taralga Wind Farm Operating Trust),Taralga Wind Farm,Wind,106.0,5.07,Taralga Wind Farm,-34.42352,149.826267,2026-04-05T20:54:10.431074
2026/04/06 06:50:00,WAMBOWF1,113.24,Stanwell Corporation Limited,Wambo Wind Farm 1,Wind,245.0,46.22,Wambo Wind Farm 1,-35.187301,149.524945,2026-04-05T20:54:10.431074
2026/04/06 06:50:00,WATERLWF,79.2,Waterloo Wind Farm Pty Ltd,Waterloo Wind Farm,Wind,130.0,60.92,Waterloo Wind Farm,-34.00094,138.911567,2026-04-05T20:54:10.431074
2026/04/06 06:50:00,WGWF1,42.4,Willogoleche Power Pty Ltd As The Trustee For The Willogoleche Operating Trust,Willogoleche Wind Farm,Wind,119.0,35.63,Willogoleche Wind Farm,-33.39,138.85,2026-04-05T20:54:10.431074
2026/04/06 06:50:00,WOODLWN1,2.63,Woodlawn Wind Pty Ltd,Woodlawn Wind Farm,Wind,48.0,5.48,Woodlawn Wind Farm,-35.08,149.62,2026-04-05T20:54:10.431074
2026/04/06 06:50:00,WPWF,7.41,AGL SA Generation Pty Limited,Wattle Point Wind Farm,Wind,91.0,8.14,Wattle Point Wind Farm,-35.111624,137.7219,2026-04-05T20:54:10.431074
2026/04/06 06:50:00,WRWF1,4.94,White Rock Wind Farm Pty Ltd,White Rock Wind Farm,Wind,172.0,2.87,White Rock Wind Farm,-29.79,151.54,2026-04-05T20:54:10.431074
2026/04/06 06:50:00,YENDWF1,43.29,Lal Lal Wind Farms Nom Co Pty Ltd,Yendon Wind Farm,Wind,142.0,30.49,Yendon Wind Farm,-37.629987,144.022717,2026-04-05T20:54:10.431074
