SETTLEMENTDATE,DUID,SCADAVALUE,Participant,Station Name,Fuel Source - Primary,MAX_CAP,utilisation_pct,Plant,Latitude,Longitude,timestamp_utc
2026/02/08 04:50:00,CAPTL_WF,0.0,Iberdrola Australia Holdings Pty Limited,Capital Wind Farm,Wind,140.0,0.0,Capital Wind Farm,-35.1,149.31,2026-02-07T18:51:31.747261
2026/02/08 04:50:00,CHALLHWF,29.6,Pacific Hydro Challicum Hills Pty Ltd,Challicum Hills Wind Farm,Wind,52.0,56.92,Challicum Hills Wind Farm,-37.38,143.11,2026-02-07T18:51:31.747261
2026/02/08 04:50:00,CULLRGWF,1.87,Cullerin Range Wind Farm Pty Ltd,Cullerin Range Wind Farm,Wind,30.0,6.23,Cullerin Range Wind Farm,-34.81,149.4,2026-02-07T18:51:31.747261
2026/02/08 04:50:00,DIAPURWF1,8.2,Y.E.S. Energy (SA) Pty Ltd,Diapur Wind Farm,Wind,7.0,117.14,Diapur Wind Farm,-36.3425,141.43,2026-02-07T18:51:31.747261
2026/02/08 04:50:00,MLWF1,9.04,Mortons Lane Windfarm Pty Limited,Mortons Lane Wind Farm,Wind,20.0,45.2,Mortons Lane Wind Farm,-37.84,142.45,2026-02-07T18:51:31.747261
2026/02/08 04:50:00,WAUBRAWF,78.96,Pyrenees Wind Energy Developments Pty Ltd,Waubra Wind Farm,Wind,192.0,41.12,Waubra Wind Farm,-37.394498,143.638982,2026-02-07T18:51:31.747261
2026/02/08 04:50:00,WOOLNTH1,69.63,Hydro-Electric Corporation,Woolnorth Studland Bay / Bluff Point Wind Farm,Wind,140.0,49.74,Woolnorth Studland Bay / Bluff Point Wind Farm,-40.69,144.72,2026-02-07T18:51:31.747261
2026/02/08 04:50:00,YAMBUKWF,4.1,Energy Pacific (Vic) Pty Ltd,Yambuk Wind Farm,Wind,30.0,13.67,Yambuk Wind Farm,-38.299083,142.027577,2026-02-07T18:51:31.747261
2026/02/08 04:50:00,YSWF1,22.1,Pacific Hydro Yaloak South Pty Ltd,Yaloak South Wind Farm,Wind,28.0,78.93,Yaloak South Wind Farm,-37.7163,144.242853,2026-02-07T18:51:31.747261
2026/02/08 04:50:00,ARWF1,120.2,Ararat Wind Farm Pty Ltd,Ararat Wind Farm,Wind,241.0,49.88,Ararat Wind Farm,-37.232778,143.031389,2026-02-07T18:51:31.747261
2026/02/08 04:50:00,BALDHWF1,13.47,Alinta Energy Retail Sales Pty Ltd,Bald Hills Wind Farm,Wind,106.0,12.71,Bald Hills Wind Farm,-38.79,145.93,2026-02-07T18:51:31.747261
2026/02/08 04:50:00,BANGOWF1,91.8,BWF Nominees Pty Ltd as The Trustee for BWF Trust,Bango 973 Wind Farm,Wind,155.0,59.23,Bango 973 Wind Farm,-34.551582,148.732808,2026-02-07T18:51:31.747261
2026/02/08 04:50:00,BANGOWF2,56.6,BWF Nominees Pty Ltd as The Trustee for BWF Trust,Bango 999 Wind Farm,Wind,82.0,69.02,Bango 999 Wind Farm,-34.551582,148.732808,2026-02-07T18:51:31.747261
2026/02/08 04:50:00,BLUFF1,3.9,AGL SA Generation Pty Limited,The Bluff Wind Farm,Wind,53.0,7.36,The Bluff Wind Farm,-33.367778,138.728611,2026-02-07T18:51:31.747261
2026/02/08 04:50:00,BOCORWF1,87.85,Boco Rock Wind Farm Pty Ltd,Boco Rock Wind Farm,Wind,111.0,79.14,Boco Rock Wind Farm,-36.578611,149.103333,2026-02-07T18:51:31.747261
2026/02/08 04:50:00,BRYB1WF1,172.41,Berrybank Development Pty Ltd,Berrybank Wind Farm,Wind,175.9,98.02,Berrybank Wind Farm,-37.94,143.52,2026-02-07T18:51:31.747261
2026/02/08 04:50:00,BRYB2WF2,102.01,Berrybank 2 Asset Pty Ltd as trustee for Berrybank 2 Asset Trust,Berrybank 2 Wind Farm,Wind,105.0,97.15,Berrybank 2 Wind Farm,-37.94,143.52,2026-02-07T18:51:31.747261
2026/02/08 04:50:00,BULGANA1,89.62,Bulgana Wind Farm Pty Ltd,Bulgana Green Power Hub,Wind,204.0,43.93,Bulgana Green Power Hub,-37.0975,142.973611,2026-02-07T18:51:31.747261
2026/02/08 04:50:00,CATHROCK,16.1,Cathedral Rocks Wind Farm Pty Ltd,Cathedral Rocks,Wind,66.0,24.39,Cathedral Rocks,-34.51,135.35,2026-02-07T18:51:31.747261
2026/02/08 04:50:00,CHYTWF1,31.16,Cherry Tree Wind Farm Pty Ltd as trustee for The Cherry Tree Project trust ,Cherry Tree Wind Farm,Wind,57.0,54.67,Cherry Tree Wind Farm,-37.1,145.26,2026-02-07T18:51:31.747261
2026/02/08 04:50:00,CLEMGPWF,5.11,Pacific Hydro Clements Gap Pty Ltd,Clements Gap Wind Farm,Wind,57.0,8.96,Clements Gap Wind Farm,-33.48,138.1,2026-02-07T18:51:31.747261
2026/02/08 04:50:00,CLRKCWF1,162.45,Stanwell Corporation Limited ,Clarke Creek Wind Farm,Wind,338.0,48.06,Clarke Creek Wind Farm,-22.85,149.45,2026-02-07T18:51:31.747261
2026/02/08 04:50:00,CLRKCWF2,71.74,Stanwell Corporation Limited ,Clarke Creek Wind Farm,Wind,101.0,71.03,Clarke Creek Wind Farm,-22.85,149.45,2026-02-07T18:51:31.747261
2026/02/08 04:50:00,CNUNDAWF,8.31,Canunda Power Pty Ltd,Canunda Wind Farm,Wind,46.0,18.07,Canunda Wind Farm,-37.73,140.39,2026-02-07T18:51:31.747261
2026/02/08 04:50:00,COLWF01,2.25,Collector Wind Farm Pty Ltd,Collector Wind Farm 1,Wind,219.0,1.03,Collector Wind Farm 1,-34.8719,149.3967,2026-02-07T18:51:31.747261
2026/02/08 04:50:00,COOPGWF1,281.81,PARF Company 10 Pty Limited as The Trustee for Coopers Gap Project Trust,Coopers Gap Wind Farm,Wind,440.0,64.05,Coopers Gap Wind Farm,-26.74,151.45,2026-02-07T18:51:31.747261
2026/02/08 04:50:00,CROOKWF2,6.01,Crookwell Development Pty Ltd ,Crookwell 2 Wind Farm,Wind,91.0,6.6,Crookwell 2 Wind Farm,-34.52,149.54,2026-02-07T18:51:31.747261
2026/02/08 04:50:00,CROOKWF3,0.0,Crookwell 3 Development Pty Ltd,Crookwell 3 Wind Farm,Wind,56.0,0.0,Crookwell 3 Wind Farm,-34.52,149.54,2026-02-07T18:51:31.747261
2026/02/08 04:50:00,CROWLWF1,64.35,Pacific Hydro Crowlands Pty Ltd ,Crowlands Wind Farm,Wind,79.0,81.46,Crowlands Wind Farm,-37.13,143.16,2026-02-07T18:51:31.747261
2026/02/08 04:50:00,CRURWF1,5.6,CRWF Nominees Pty Ltd As Trustee For The CRWF Trust,Crudine Ridge Wind Farm,Wind,138.0,4.06,Crudine Ridge Wind Farm,-32.97,149.64,2026-02-07T18:51:31.747261
2026/02/08 04:50:00,CTHLWF1,0.0,Wild Cattle Hill Pty Ltd,Cattle Hill Wind Farm,Wind,144.0,0.0,Cattle Hill Wind Farm,-42.15,146.69,2026-02-07T18:51:31.747261
2026/02/08 04:50:00,DULAWF1,51.8,Dulacca Energy Project Co Pty Ltd,Dulacca Wind Farm,Wind,173.0,29.94,Dulacca Wind Farm,-26.63,149.87,2026-02-07T18:51:31.747261
2026/02/08 04:50:00,DUNDWF1,162.04,Dundonnell Wind Farm Pty Ltd,Dundonnell Wind Farm,Wind,168.0,96.45,Dundonnell Wind Farm,-37.52,142.58,2026-02-07T18:51:31.747261
2026/02/08 04:50:00,DUNDWF2,45.63,Dundonnell Wind Farm Pty Ltd,Dundonnell Wind Farm,Wind,46.0,99.2,Dundonnell Wind Farm,-37.52,142.58,2026-02-07T18:51:31.747261
2026/02/08 04:50:00,DUNDWF3,110.72,Dundonnell Wind Farm Pty Ltd,Dundonnell Wind Farm,Wind,122.0,90.75,Dundonnell Wind Farm,-37.52,142.58,2026-02-07T18:51:31.747261
2026/02/08 04:50:00,ELAINWF1,75.28,Lal Lal Wind Farms Nom Co Pty Ltd,Elaine Wind Farm,Wind,82.0,91.8,Elaine Wind Farm,-37.36,144.0,2026-02-07T18:51:31.747261
2026/02/08 04:50:00,FLYCRKWF,9.29,Iberdrola Australia Energy Markets Pty Limited,Flyers Creek Wind Farm,Wind,140.0,6.64,Flyers Creek Wind Farm,-33.365556,148.981944,2026-02-07T18:51:31.747261
2026/02/08 04:50:00,GPWFEST1,147.66,Golden Plains WF1 Pty Ltd as Trustee for the Golden Plains WF1 Unit Trust,Golden Plains Wind Farm East,Wind,240.0,61.52,Golden Plains Wind Farm East,-37.945091,143.752614,2026-02-07T18:51:31.747261
2026/02/08 04:50:00,GPWFEST2,170.88,Golden Plains WF1 Pty Ltd as Trustee for the Golden Plains WF1 Unit Trust,Golden Plains Wind Farm East,Wind,253.0,67.54,Golden Plains Wind Farm East,-37.945091,143.752614,2026-02-07T18:51:31.747261
2026/02/08 04:50:00,GPWFEST3,192.61,Golden Plains WF1 Pty Ltd as Trustee for the Golden Plains WF1 Unit Trust,Golden Plains Wind Farm East,Wind,240.0,80.25,Golden Plains Wind Farm East,-37.945091,143.752614,2026-02-07T18:51:31.747261
2026/02/08 04:50:00,GRANWF1,0.0,Granville Harbour Operations Pty Ltd as The Trustee for Granville Harbour Operations Trust,Granville Harbour Wind Farm,Wind,111.0,0.0,Granville Harbour Wind Farm,-41.8,145.06,2026-02-07T18:51:31.747261
2026/02/08 04:50:00,GSWF1A,33.3,Goyder Wind Farm 1 Pty Ltd as the Trustee for Goyder Wind Farm 1 Trust,Goyder South Wind Farm 1A,Wind,201.0,16.57,Goyder South Wind Farm 1A,-33.679758,138.937597,2026-02-07T18:51:31.747261
2026/02/08 04:50:00,GSWF1B1,49.23,Goyder Wind Farm 1B Pty Ltd as the Trustee for the Goyder Wind Farm 1B Trust,Goyder South Wind Farm 1B,Wind,196.0,25.12,Goyder South Wind Farm 1B,-33.679758,138.937597,2026-02-07T18:51:31.747261
2026/02/08 04:50:00,GULLRWF1,30.77,New Gullen Range Wind Farm Pty Ltd,Gullen Range Wind Farm,Wind,161.0,19.11,Gullen Range Wind Farm,-34.34,149.27,2026-02-07T18:51:31.747261
2026/02/08 04:50:00,GULLRWF2,52.32,New Gullen Range Wind Farm Pty Ltd,Gullen Range Wind Farm,Wind,107.0,48.9,Gullen Range Wind Farm,-34.34,149.27,2026-02-07T18:51:31.747261
2026/02/08 04:50:00,GUNNING1,15.9,Gunning Wind Energy Developments Pty Ltd,Gunning Wind Farm,Wind,47.0,33.83,Gunning Wind Farm,-34.813333,149.4,2026-02-07T18:51:31.747261
2026/02/08 04:50:00,HALLWF1,22.67,AGL SA Generation Pty Limited,Hallett 1 Wind Farm,Wind,95.0,23.86,Hallett 1 Wind Farm,-33.367778,138.728611,2026-02-07T18:51:31.747261
2026/02/08 04:50:00,HALLWF2,15.18,AGL SA Generation Pty Limited,Hallett 2 Wind Farm,Wind,71.0,21.38,Hallett 2 Wind Farm,-33.367778,138.728611,2026-02-07T18:51:31.747261
2026/02/08 04:50:00,HD1WF1,18.62,Hawkesdale Asset Pty Ltd as trustee for Hawkesdale Asset Trust,Hawkesdale Wind Farm,Wind,89.0,20.92,Hawkesdale Wind Farm,-38.147894,142.361381,2026-02-07T18:51:31.747261
2026/02/08 04:50:00,HDWF1,41.3,HWF1 Pty Ltd,Hornsdale Wind Farm,Wind,102.0,40.49,Hornsdale Wind Farm,-33.050556,138.543611,2026-02-07T18:51:31.747261
2026/02/08 04:50:00,HDWF2,19.0,HWF 2 Pty Ltd,Hornsdale Wind Farm 2,Wind,102.0,18.63,Hornsdale Wind Farm 2,-33.06,138.54,2026-02-07T18:51:31.747261
2026/02/08 04:50:00,HDWF3,27.3,HWF3 Pty Ltd,Hornsdale Wind Farm 3,Wind,109.0,25.05,Hornsdale Wind Farm 3,-33.06,138.54,2026-02-07T18:51:31.747261
2026/02/08 04:50:00,KABANWF1,59.98,Kaban Wind Farm Pty Ltd as trustee for Kaban Wind Farm Trust,Kaban Wind Farm,Wind,152.0,39.46,Kaban Wind Farm,-17.56,145.41,2026-02-07T18:51:31.747261
2026/02/08 04:50:00,KEPWF1,38.5,Kennedy Energy Park Pty Ltd,Kennedy Energy Park,Wind,43.0,89.53,Kennedy Energy Park,-20.88,144.42,2026-02-07T18:51:31.747261
2026/02/08 04:50:00,KIATAWF1,10.1,Kiata ProjectCo Pty Ltd Atf Kiata Project Trust,Kiata Wind Farm,Wind,31.0,32.58,Kiata Wind Farm,-36.4,141.75,2026-02-07T18:51:31.747261
2026/02/08 04:50:00,LGAPWF1,9.11,Lincoln Gap Wind Farm (Operations) Pty Ltd,Lincoln Gap Wind Farm,Wind,123.0,7.41,Lincoln Gap Wind Farm,-32.564279,137.557328,2026-02-07T18:51:31.747261
2026/02/08 04:50:00,LGAPWF1,9.11,Lincoln Gap Wind Farm (Operations) Pty Ltd,Lincoln Gap Wind Farm,Wind,123.0,7.41,Lincoln Gap Wind Farm,-32.564279,137.557328,2026-02-07T18:51:31.747261
2026/02/08 04:50:00,LGAPWF2,8.83,Lincoln Gap Wind Farm (Operations) Pty Ltd,Lincoln Gap Wind Farm,Wind,85.0,10.39,Lincoln Gap Wind Farm,-32.564279,137.557328,2026-02-07T18:51:31.747261
2026/02/08 04:50:00,LGAPWF2,8.83,Lincoln Gap Wind Farm (Operations) Pty Ltd,Lincoln Gap Wind Farm,Wind,85.0,10.39,Lincoln Gap Wind Farm,-32.564279,137.557328,2026-02-07T18:51:31.747261
2026/02/08 04:50:00,LKBONNY1,9.65,Lake Bonney Wind Power Pty Ltd,Lake Bonney Wind Farm Stage 1,Wind,81.0,11.91,Lake Bonney Wind Farm Stage 1,-37.76,140.4,2026-02-07T18:51:31.747261
2026/02/08 04:50:00,LKBONNY2,22.39,Lake Bonney Wind Power Pty Ltd,Lake Bonney Stage 2 Windfarm,Wind,159.0,14.08,Lake Bonney Stage 2 Windfarm,-37.76,140.4,2026-02-07T18:51:31.747261
2026/02/08 04:50:00,LKBONNY3,4.47,Lake Bonney Wind Power Pty Ltd,Lake Bonney Stage 3 Wind Farm,Wind,39.0,11.46,Lake Bonney Stage 3 Wind Farm,-37.737781,140.388137,2026-02-07T18:51:31.747261
2026/02/08 04:50:00,MACARTH1,31.0,AGL Hydro Partnership,Macarthur Wind Farm,Wind,420.0,7.38,Macarthur Wind Farm,-38.048957,142.192112,2026-02-07T18:51:31.747261
2026/02/08 04:50:00,MCINTYR1,43.2,MacIntyre UJV Operator Pty Ltd,MacIntyre Wind Farm,Wind,890.0,4.85,MacIntyre Wind Farm,-28.32,151.54,2026-02-07T18:51:31.747261
2026/02/08 04:50:00,MERCER01,126.4,Mt Mercer Windfarm Pty Ltd,Mt Mercer Wind Farm,Wind,131.0,96.49,Mt Mercer Wind Farm,-37.841111,143.871111,2026-02-07T18:51:31.747261
2026/02/08 04:50:00,MEWF1,22.01,Ergon Energy Queensland Pty Ltd ,Mount Emerald Wind Farm,Wind,178.0,12.37,Mount Emerald Wind Farm,-17.133007,145.380644,2026-02-07T18:51:31.747261
2026/02/08 04:50:00,MRTLSWF1,75.49,Mortlake South Wind Farm Pty Ltd,Mortlake South Wind Farm,Wind,153.0,49.34,Mortlake South Wind Farm,-38.127337,142.857801,2026-02-07T18:51:31.747261
2026/02/08 04:50:00,MTGELWF1,6.85,Mt. Gellibrand Wind Farm Pty Ltd,Mt Gellibrand Wind Farm,Wind,132.0,5.19,Mt Gellibrand Wind Farm,-38.23,143.77,2026-02-07T18:51:31.747261
2026/02/08 04:50:00,MTMILLAR,5.2,Mt Millar Wind Farm Pty Ltd,Mt Millar Wind Farm,Wind,70.0,7.43,Mt Millar Wind Farm,-33.624444,136.703611,2026-02-07T18:51:31.747261
2026/02/08 04:50:00,MUSSELR1,10.8,Hydro-Electric Corporation,Musselroe Wind Farm,Wind,168.0,6.43,Musselroe Wind Farm,-40.780225,148.010799,2026-02-07T18:51:31.747261
2026/02/08 04:50:00,MUWAWF1,135.79,Telstra Energy (Generation) Pty Ltd,Murra Warra Wind Farm,Wind,225.7,60.16,Murra Warra Wind Farm,-36.432404,142.317853,2026-02-07T18:51:31.747261
2026/02/08 04:50:00,MUWAWF2,123.4,Murra Warra II Project Co Pty Ltd ATF The Murra Warra II Project Trust,Murra Warra Wind Farm Stage 2,Wind,203.0,60.79,Murra Warra Wind Farm Stage 2,-36.43,142.32,2026-02-07T18:51:31.747261
2026/02/08 04:50:00,NBHWF1,55.3,AGL SA Generation Pty Limited,North Brown Hill Wind Farm,Wind,132.0,41.89,North Brown Hill Wind Farm,-33.367778,138.728611,2026-02-07T18:51:31.747261
2026/02/08 04:50:00,OAKLAND1,52.0,AGL Hydro Partnership,Oaklands Hill Wind Farm,Wind,63.0,82.54,Oaklands Hill Wind Farm,-37.683078,142.551678,2026-02-07T18:51:31.747261
2026/02/08 04:50:00,PAREPW1,0.0,Iberdrola Australia Energy Markets Pty Limited,Port Augusta Renewable Energy Park,Wind,201.0,0.0,Port Augusta Renewable Energy Park,-32.566944,137.856111,2026-02-07T18:51:31.747261
2026/02/08 04:50:00,RYANCWF1,50.58,Ryan Corner Development Pty Ltd,Ryan Corner Wind Farm,Wind,205.0,24.67,Ryan Corner Wind Farm,-38.271017,142.140647,2026-02-07T18:51:31.747261
2026/02/08 04:50:00,RYEPARK1,202.57,Rye Park Renewable Energy Pty Ltd as trustee for Rye Park Wind Farm Trust,Rye Park Renewable Energy,Wind,384.0,52.75,Rye Park Renewable Energy,-32.138333,148.972778,2026-02-07T18:51:31.747261
2026/02/08 04:50:00,SALTCRK1,52.27,Salt Creek Wind Farm Pty Ltd,Salt Creek Wind Farm,Wind,54.0,96.8,Salt Creek Wind Farm,-37.95,142.63,2026-02-07T18:51:31.747261
2026/02/08 04:50:00,SAPHWF1,19.34,The Trustee For The SWF1 Operations Trust,Sapphire Wind Farm,Wind,270.0,7.16,Sapphire Wind Farm,-29.7,151.41,2026-02-07T18:51:31.747261
2026/02/08 04:50:00,SNOWNTH1,2.9,Snowtown Wind Farm Stage 2 Pty Ltd,Snowtown Wind Farm Stage 2 North,Wind,144.0,2.01,Snowtown Wind Farm Stage 2 North,-33.83,138.118611,2026-02-07T18:51:31.747261
2026/02/08 04:50:00,SNOWSTH1,0.0,Snowtown Wind Farm Stage 2 Pty Ltd,Snowtown South Wind Farm,Wind,126.0,0.0,Snowtown South Wind Farm,-33.83,138.118611,2026-02-07T18:51:31.747261
2026/02/08 04:50:00,SNOWTWN1,0.76,Snowtown Wind Farm Pty Ltd,Snowtown Wind Farm Units 1 And 47,Wind,99.0,0.77,Snowtown Wind Farm Units 1 And 47,-33.83,138.118611,2026-02-07T18:51:31.747261
2026/02/08 04:50:00,STARHLWF,19.09,Starfish Hill Wind Farm Pty Ltd,Starfish Hill Wind Farm,Wind,35.0,54.54,Starfish Hill Wind Farm,-35.58,138.14,2026-02-07T18:51:31.747261
2026/02/08 04:50:00,STOCKYD1,454.24,Stockyard Hill Wind Farm Pty Ltd,Stockyard Hill Wind Farm,Wind,511.0,88.89,Stockyard Hill Wind Farm,-37.535833,143.251389,2026-02-07T18:51:31.747261
2026/02/08 04:50:00,STWF1,14.88,PARF Company 8 Pty Ltd as The Trustee for Silverton Project Trust,Silverton Wind Farm,Wind,198.0,7.52,Silverton Wind Farm,-37.683168,142.551678,2026-02-07T18:51:31.747261
2026/02/08 04:50:00,TARALGA1,0.0,Taralga Wind Farm Nominees No 2 Pty Ltd (ATF Taralga Wind Farm Operating Trust),Taralga Wind Farm,Wind,106.0,0.0,Taralga Wind Farm,-34.42352,149.826267,2026-02-07T18:51:31.747261
2026/02/08 04:50:00,WAMBOWF1,93.28,Stanwell Corporation Limited,Wambo Wind Farm 1,Wind,245.0,38.07,Wambo Wind Farm 1,-35.187301,149.524945,2026-02-07T18:51:31.747261
2026/02/08 04:50:00,WATERLWF,17.5,Waterloo Wind Farm Pty Ltd,Waterloo Wind Farm,Wind,130.0,13.46,Waterloo Wind Farm,-34.00094,138.911567,2026-02-07T18:51:31.747261
2026/02/08 04:50:00,WGWF1,24.4,Willogoleche Power Pty Ltd As The Trustee For The Willogoleche Operating Trust,Willogoleche Wind Farm,Wind,119.0,20.5,Willogoleche Wind Farm,-33.39,138.85,2026-02-07T18:51:31.747261
2026/02/08 04:50:00,WOODLWN1,0.0,Woodlawn Wind Pty Ltd,Woodlawn Wind Farm,Wind,48.0,0.0,Woodlawn Wind Farm,-35.08,149.62,2026-02-07T18:51:31.747261
2026/02/08 04:50:00,WPWF,64.41,AGL SA Generation Pty Limited,Wattle Point Wind Farm,Wind,91.0,70.78,Wattle Point Wind Farm,-35.111624,137.7219,2026-02-07T18:51:31.747261
2026/02/08 04:50:00,WRWF1,4.65,White Rock Wind Farm Pty Ltd,White Rock Wind Farm,Wind,172.0,2.7,White Rock Wind Farm,-29.79,151.54,2026-02-07T18:51:31.747261
2026/02/08 04:50:00,YENDWF1,125.02,Lal Lal Wind Farms Nom Co Pty Ltd,Yendon Wind Farm,Wind,142.0,88.04,Yendon Wind Farm,-37.629987,144.022717,2026-02-07T18:51:31.747261
