SETTLEMENTDATE,DUID,SCADAVALUE,Participant,Station Name,Fuel Source - Primary,MAX_CAP,utilisation_pct,Plant,Latitude,Longitude,timestamp_utc
2026/02/01 00:20:00,CAPTL_WF,44.11,Iberdrola Australia Holdings Pty Limited,Capital Wind Farm,Wind,140.0,31.51,Capital Wind Farm,-35.1,149.31,2026-01-31T14:17:43.667960
2026/02/01 00:20:00,CHALLHWF,22.9,Pacific Hydro Challicum Hills Pty Ltd,Challicum Hills Wind Farm,Wind,52.0,44.04,Challicum Hills Wind Farm,-37.38,143.11,2026-01-31T14:17:43.667960
2026/02/01 00:20:00,CULLRGWF,18.28,Cullerin Range Wind Farm Pty Ltd,Cullerin Range Wind Farm,Wind,30.0,60.93,Cullerin Range Wind Farm,-34.81,149.4,2026-01-31T14:17:43.667960
2026/02/01 00:20:00,DIAPURWF1,8.3,Y.E.S. Energy (SA) Pty Ltd,Diapur Wind Farm,Wind,7.0,118.57,Diapur Wind Farm,-36.3425,141.43,2026-01-31T14:17:43.667960
2026/02/01 00:20:00,MLWF1,2.22,Mortons Lane Windfarm Pty Limited,Mortons Lane Wind Farm,Wind,20.0,11.1,Mortons Lane Wind Farm,-37.84,142.45,2026-01-31T14:17:43.667960
2026/02/01 00:20:00,WAUBRAWF,121.7,Pyrenees Wind Energy Developments Pty Ltd,Waubra Wind Farm,Wind,192.0,63.39,Waubra Wind Farm,-37.394498,143.638982,2026-01-31T14:17:43.667960
2026/02/01 00:20:00,WOOLNTH1,90.88,Hydro-Electric Corporation,Woolnorth Studland Bay / Bluff Point Wind Farm,Wind,140.0,64.91,Woolnorth Studland Bay / Bluff Point Wind Farm,-40.69,144.72,2026-01-31T14:17:43.667960
2026/02/01 00:20:00,YAMBUKWF,6.5,Energy Pacific (Vic) Pty Ltd,Yambuk Wind Farm,Wind,30.0,21.67,Yambuk Wind Farm,-38.299083,142.027577,2026-01-31T14:17:43.667960
2026/02/01 00:20:00,YSWF1,4.6,Pacific Hydro Yaloak South Pty Ltd,Yaloak South Wind Farm,Wind,28.0,16.43,Yaloak South Wind Farm,-37.7163,144.242853,2026-01-31T14:17:43.667960
2026/02/01 00:20:00,ARWF1,152.2,Ararat Wind Farm Pty Ltd,Ararat Wind Farm,Wind,241.0,63.15,Ararat Wind Farm,-37.232778,143.031389,2026-01-31T14:17:43.667960
2026/02/01 00:20:00,BALDHWF1,38.22,Alinta Energy Retail Sales Pty Ltd,Bald Hills Wind Farm,Wind,106.0,36.06,Bald Hills Wind Farm,-38.79,145.93,2026-01-31T14:17:43.667960
2026/02/01 00:20:00,BANGOWF1,14.7,BWF Nominees Pty Ltd as The Trustee for BWF Trust,Bango 973 Wind Farm,Wind,155.0,9.48,Bango 973 Wind Farm,-34.551582,148.732808,2026-01-31T14:17:43.667960
2026/02/01 00:20:00,BANGOWF2,24.4,BWF Nominees Pty Ltd as The Trustee for BWF Trust,Bango 999 Wind Farm,Wind,82.0,29.76,Bango 999 Wind Farm,-34.551582,148.732808,2026-01-31T14:17:43.667960
2026/02/01 00:20:00,BLUFF1,5.9,AGL SA Generation Pty Limited,The Bluff Wind Farm,Wind,53.0,11.13,The Bluff Wind Farm,-33.367778,138.728611,2026-01-31T14:17:43.667960
2026/02/01 00:20:00,BOCORWF1,29.67,Boco Rock Wind Farm Pty Ltd,Boco Rock Wind Farm,Wind,111.0,26.73,Boco Rock Wind Farm,-36.578611,149.103333,2026-01-31T14:17:43.667960
2026/02/01 00:20:00,BRYB1WF1,58.28,Berrybank Development Pty Ltd,Berrybank Wind Farm,Wind,175.9,33.13,Berrybank Wind Farm,-37.94,143.52,2026-01-31T14:17:43.667960
2026/02/01 00:20:00,BRYB2WF2,33.54,Berrybank 2 Asset Pty Ltd as trustee for Berrybank 2 Asset Trust,Berrybank 2 Wind Farm,Wind,105.0,31.94,Berrybank 2 Wind Farm,-37.94,143.52,2026-01-31T14:17:43.667960
2026/02/01 00:20:00,BULGANA1,0.0,Bulgana Wind Farm Pty Ltd,Bulgana Green Power Hub,Wind,204.0,0.0,Bulgana Green Power Hub,-37.0975,142.973611,2026-01-31T14:17:43.667960
2026/02/01 00:20:00,CATHROCK,23.6,Cathedral Rocks Wind Farm Pty Ltd,Cathedral Rocks,Wind,66.0,35.76,Cathedral Rocks,-34.51,135.35,2026-01-31T14:17:43.667960
2026/02/01 00:20:00,CHYTWF1,55.81,Cherry Tree Wind Farm Pty Ltd as trustee for The Cherry Tree Project trust ,Cherry Tree Wind Farm,Wind,57.0,97.91,Cherry Tree Wind Farm,-37.1,145.26,2026-01-31T14:17:43.667960
2026/02/01 00:20:00,CLEMGPWF,21.75,Pacific Hydro Clements Gap Pty Ltd,Clements Gap Wind Farm,Wind,57.0,38.16,Clements Gap Wind Farm,-33.48,138.1,2026-01-31T14:17:43.667960
2026/02/01 00:20:00,CLRKCWF1,209.39,Stanwell Corporation Limited ,Clarke Creek Wind Farm,Wind,338.0,61.95,Clarke Creek Wind Farm,-22.85,149.45,2026-01-31T14:17:43.667960
2026/02/01 00:20:00,CLRKCWF2,54.53,Stanwell Corporation Limited ,Clarke Creek Wind Farm,Wind,101.0,53.99,Clarke Creek Wind Farm,-22.85,149.45,2026-01-31T14:17:43.667960
2026/02/01 00:20:00,CNUNDAWF,6.31,Canunda Power Pty Ltd,Canunda Wind Farm,Wind,46.0,13.72,Canunda Wind Farm,-37.73,140.39,2026-01-31T14:17:43.667960
2026/02/01 00:20:00,COLWF01,94.81,Collector Wind Farm Pty Ltd,Collector Wind Farm 1,Wind,219.0,43.29,Collector Wind Farm 1,-34.8719,149.3967,2026-01-31T14:17:43.667960
2026/02/01 00:20:00,COOPGWF1,310.23,PARF Company 10 Pty Limited as The Trustee for Coopers Gap Project Trust,Coopers Gap Wind Farm,Wind,440.0,70.51,Coopers Gap Wind Farm,-26.74,151.45,2026-01-31T14:17:43.667960
2026/02/01 00:20:00,CROOKWF2,27.7,Crookwell Development Pty Ltd ,Crookwell 2 Wind Farm,Wind,91.0,30.44,Crookwell 2 Wind Farm,-34.52,149.54,2026-01-31T14:17:43.667960
2026/02/01 00:20:00,CROOKWF3,27.12,Crookwell 3 Development Pty Ltd,Crookwell 3 Wind Farm,Wind,56.0,48.43,Crookwell 3 Wind Farm,-34.52,149.54,2026-01-31T14:17:43.667960
2026/02/01 00:20:00,CROWLWF1,71.72,Pacific Hydro Crowlands Pty Ltd ,Crowlands Wind Farm,Wind,79.0,90.78,Crowlands Wind Farm,-37.13,143.16,2026-01-31T14:17:43.667960
2026/02/01 00:20:00,CRURWF1,20.2,CRWF Nominees Pty Ltd As Trustee For The CRWF Trust,Crudine Ridge Wind Farm,Wind,138.0,14.64,Crudine Ridge Wind Farm,-32.97,149.64,2026-01-31T14:17:43.667960
2026/02/01 00:20:00,CTHLWF1,53.5,Wild Cattle Hill Pty Ltd,Cattle Hill Wind Farm,Wind,144.0,37.15,Cattle Hill Wind Farm,-42.15,146.69,2026-01-31T14:17:43.667960
2026/02/01 00:20:00,DULAWF1,154.4,Dulacca Energy Project Co Pty Ltd,Dulacca Wind Farm,Wind,173.0,89.25,Dulacca Wind Farm,-26.63,149.87,2026-01-31T14:17:43.667960
2026/02/01 00:20:00,DUNDWF1,37.94,Dundonnell Wind Farm Pty Ltd,Dundonnell Wind Farm,Wind,168.0,22.58,Dundonnell Wind Farm,-37.52,142.58,2026-01-31T14:17:43.667960
2026/02/01 00:20:00,DUNDWF2,13.2,Dundonnell Wind Farm Pty Ltd,Dundonnell Wind Farm,Wind,46.0,28.7,Dundonnell Wind Farm,-37.52,142.58,2026-01-31T14:17:43.667960
2026/02/01 00:20:00,DUNDWF3,36.16,Dundonnell Wind Farm Pty Ltd,Dundonnell Wind Farm,Wind,122.0,29.64,Dundonnell Wind Farm,-37.52,142.58,2026-01-31T14:17:43.667960
2026/02/01 00:20:00,ELAINWF1,11.49,Lal Lal Wind Farms Nom Co Pty Ltd,Elaine Wind Farm,Wind,82.0,14.01,Elaine Wind Farm,-37.36,144.0,2026-01-31T14:17:43.667960
2026/02/01 00:20:00,FLYCRKWF,57.74,Iberdrola Australia Energy Markets Pty Limited,Flyers Creek Wind Farm,Wind,140.0,41.24,Flyers Creek Wind Farm,-33.365556,148.981944,2026-01-31T14:17:43.667960
2026/02/01 00:20:00,GPWFEST1,132.34,Golden Plains WF1 Pty Ltd as Trustee for the Golden Plains WF1 Unit Trust,Golden Plains Wind Farm East,Wind,240.0,55.14,Golden Plains Wind Farm East,-37.945091,143.752614,2026-01-31T14:17:43.667960
2026/02/01 00:20:00,GPWFEST2,95.59,Golden Plains WF1 Pty Ltd as Trustee for the Golden Plains WF1 Unit Trust,Golden Plains Wind Farm East,Wind,253.0,37.78,Golden Plains Wind Farm East,-37.945091,143.752614,2026-01-31T14:17:43.667960
2026/02/01 00:20:00,GPWFEST3,126.96,Golden Plains WF1 Pty Ltd as Trustee for the Golden Plains WF1 Unit Trust,Golden Plains Wind Farm East,Wind,240.0,52.9,Golden Plains Wind Farm East,-37.945091,143.752614,2026-01-31T14:17:43.667960
2026/02/01 00:20:00,GRANWF1,71.18,Granville Harbour Operations Pty Ltd as The Trustee for Granville Harbour Operations Trust,Granville Harbour Wind Farm,Wind,111.0,64.13,Granville Harbour Wind Farm,-41.8,145.06,2026-01-31T14:17:43.667960
2026/02/01 00:20:00,GSWF1A,15.8,Goyder Wind Farm 1 Pty Ltd as the Trustee for Goyder Wind Farm 1 Trust,Goyder South Wind Farm 1A,Wind,201.0,7.86,Goyder South Wind Farm 1A,-33.679758,138.937597,2026-01-31T14:17:43.667960
2026/02/01 00:20:00,GSWF1B1,30.72,Goyder Wind Farm 1B Pty Ltd as the Trustee for the Goyder Wind Farm 1B Trust,Goyder South Wind Farm 1B,Wind,196.0,15.67,Goyder South Wind Farm 1B,-33.679758,138.937597,2026-01-31T14:17:43.667960
2026/02/01 00:20:00,GULLRWF1,40.08,New Gullen Range Wind Farm Pty Ltd,Gullen Range Wind Farm,Wind,161.0,24.89,Gullen Range Wind Farm,-34.34,149.27,2026-01-31T14:17:43.667960
2026/02/01 00:20:00,GULLRWF2,69.64,New Gullen Range Wind Farm Pty Ltd,Gullen Range Wind Farm,Wind,107.0,65.08,Gullen Range Wind Farm,-34.34,149.27,2026-01-31T14:17:43.667960
2026/02/01 00:20:00,GUNNING1,24.24,Gunning Wind Energy Developments Pty Ltd,Gunning Wind Farm,Wind,47.0,51.57,Gunning Wind Farm,-34.813333,149.4,2026-01-31T14:17:43.667960
2026/02/01 00:20:00,HALLWF1,11.93,AGL SA Generation Pty Limited,Hallett 1 Wind Farm,Wind,95.0,12.56,Hallett 1 Wind Farm,-33.367778,138.728611,2026-01-31T14:17:43.667960
2026/02/01 00:20:00,HALLWF2,4.65,AGL SA Generation Pty Limited,Hallett 2 Wind Farm,Wind,71.0,6.55,Hallett 2 Wind Farm,-33.367778,138.728611,2026-01-31T14:17:43.667960
2026/02/01 00:20:00,HD1WF1,14.8,Hawkesdale Asset Pty Ltd as trustee for Hawkesdale Asset Trust,Hawkesdale Wind Farm,Wind,89.0,16.63,Hawkesdale Wind Farm,-38.147894,142.361381,2026-01-31T14:17:43.667960
2026/02/01 00:20:00,HDWF1,38.4,HWF1 Pty Ltd,Hornsdale Wind Farm,Wind,102.0,37.65,Hornsdale Wind Farm,-33.050556,138.543611,2026-01-31T14:17:43.667960
2026/02/01 00:20:00,HDWF2,35.4,HWF 2 Pty Ltd,Hornsdale Wind Farm 2,Wind,102.0,34.71,Hornsdale Wind Farm 2,-33.06,138.54,2026-01-31T14:17:43.667960
2026/02/01 00:20:00,HDWF3,57.4,HWF3 Pty Ltd,Hornsdale Wind Farm 3,Wind,109.0,52.66,Hornsdale Wind Farm 3,-33.06,138.54,2026-01-31T14:17:43.667960
2026/02/01 00:20:00,KABANWF1,4.8,Kaban Wind Farm Pty Ltd as trustee for Kaban Wind Farm Trust,Kaban Wind Farm,Wind,152.0,3.16,Kaban Wind Farm,-17.56,145.41,2026-01-31T14:17:43.667960
2026/02/01 00:20:00,KEPWF1,0.0,Kennedy Energy Park Pty Ltd,Kennedy Energy Park,Wind,43.0,0.0,Kennedy Energy Park,-20.88,144.42,2026-01-31T14:17:43.667960
2026/02/01 00:20:00,KIATAWF1,27.6,Kiata ProjectCo Pty Ltd Atf Kiata Project Trust,Kiata Wind Farm,Wind,31.0,89.03,Kiata Wind Farm,-36.4,141.75,2026-01-31T14:17:43.667960
2026/02/01 00:20:00,LGAPWF1,70.52,Lincoln Gap Wind Farm (Operations) Pty Ltd,Lincoln Gap Wind Farm,Wind,123.0,57.33,Lincoln Gap Wind Farm,-32.564279,137.557328,2026-01-31T14:17:43.667960
2026/02/01 00:20:00,LGAPWF1,70.52,Lincoln Gap Wind Farm (Operations) Pty Ltd,Lincoln Gap Wind Farm,Wind,123.0,57.33,Lincoln Gap Wind Farm,-32.564279,137.557328,2026-01-31T14:17:43.667960
2026/02/01 00:20:00,LGAPWF2,77.48,Lincoln Gap Wind Farm (Operations) Pty Ltd,Lincoln Gap Wind Farm,Wind,85.0,91.15,Lincoln Gap Wind Farm,-32.564279,137.557328,2026-01-31T14:17:43.667960
2026/02/01 00:20:00,LGAPWF2,77.48,Lincoln Gap Wind Farm (Operations) Pty Ltd,Lincoln Gap Wind Farm,Wind,85.0,91.15,Lincoln Gap Wind Farm,-32.564279,137.557328,2026-01-31T14:17:43.667960
2026/02/01 00:20:00,LKBONNY1,13.84,Lake Bonney Wind Power Pty Ltd,Lake Bonney Wind Farm Stage 1,Wind,81.0,17.09,Lake Bonney Wind Farm Stage 1,-37.76,140.4,2026-01-31T14:17:43.667960
2026/02/01 00:20:00,LKBONNY2,24.36,Lake Bonney Wind Power Pty Ltd,Lake Bonney Stage 2 Windfarm,Wind,159.0,15.32,Lake Bonney Stage 2 Windfarm,-37.76,140.4,2026-01-31T14:17:43.667960
2026/02/01 00:20:00,LKBONNY3,6.03,Lake Bonney Wind Power Pty Ltd,Lake Bonney Stage 3 Wind Farm,Wind,39.0,15.46,Lake Bonney Stage 3 Wind Farm,-37.737781,140.388137,2026-01-31T14:17:43.667960
2026/02/01 00:20:00,MACARTH1,20.1,AGL Hydro Partnership,Macarthur Wind Farm,Wind,420.0,4.79,Macarthur Wind Farm,-38.048957,142.192112,2026-01-31T14:17:43.667960
2026/02/01 00:20:00,MCINTYR1,172.73,MacIntyre UJV Operator Pty Ltd,MacIntyre Wind Farm,Wind,890.0,19.41,MacIntyre Wind Farm,-28.32,151.54,2026-01-31T14:17:43.667960
2026/02/01 00:20:00,MERCER01,12.8,Mt Mercer Windfarm Pty Ltd,Mt Mercer Wind Farm,Wind,131.0,9.77,Mt Mercer Wind Farm,-37.841111,143.871111,2026-01-31T14:17:43.667960
2026/02/01 00:20:00,MEWF1,0.0,Ergon Energy Queensland Pty Ltd ,Mount Emerald Wind Farm,Wind,178.0,0.0,Mount Emerald Wind Farm,-17.133007,145.380644,2026-01-31T14:17:43.667960
2026/02/01 00:20:00,MRTLSWF1,24.6,Mortlake South Wind Farm Pty Ltd,Mortlake South Wind Farm,Wind,153.0,16.08,Mortlake South Wind Farm,-38.127337,142.857801,2026-01-31T14:17:43.667960
2026/02/01 00:20:00,MTGELWF1,25.24,Mt. Gellibrand Wind Farm Pty Ltd,Mt Gellibrand Wind Farm,Wind,132.0,19.12,Mt Gellibrand Wind Farm,-38.23,143.77,2026-01-31T14:17:43.667960
2026/02/01 00:20:00,MTMILLAR,43.2,Mt Millar Wind Farm Pty Ltd,Mt Millar Wind Farm,Wind,70.0,61.71,Mt Millar Wind Farm,-33.624444,136.703611,2026-01-31T14:17:43.667960
2026/02/01 00:20:00,MUSSELR1,142.9,Hydro-Electric Corporation,Musselroe Wind Farm,Wind,168.0,85.06,Musselroe Wind Farm,-40.780225,148.010799,2026-01-31T14:17:43.667960
2026/02/01 00:20:00,MUWAWF1,52.3,Telstra Energy (Generation) Pty Ltd,Murra Warra Wind Farm,Wind,225.7,23.17,Murra Warra Wind Farm,-36.432404,142.317853,2026-01-31T14:17:43.667960
2026/02/01 00:20:00,MUWAWF2,48.0,Murra Warra II Project Co Pty Ltd ATF The Murra Warra II Project Trust,Murra Warra Wind Farm Stage 2,Wind,203.0,23.65,Murra Warra Wind Farm Stage 2,-36.43,142.32,2026-01-31T14:17:43.667960
2026/02/01 00:20:00,NBHWF1,21.2,AGL SA Generation Pty Limited,North Brown Hill Wind Farm,Wind,132.0,16.06,North Brown Hill Wind Farm,-33.367778,138.728611,2026-01-31T14:17:43.667960
2026/02/01 00:20:00,OAKLAND1,21.1,AGL Hydro Partnership,Oaklands Hill Wind Farm,Wind,63.0,33.49,Oaklands Hill Wind Farm,-37.683078,142.551678,2026-01-31T14:17:43.667960
2026/02/01 00:20:00,PAREPW1,195.23,Iberdrola Australia Energy Markets Pty Limited,Port Augusta Renewable Energy Park,Wind,201.0,97.13,Port Augusta Renewable Energy Park,-32.566944,137.856111,2026-01-31T14:17:43.667960
2026/02/01 00:20:00,RYANCWF1,23.91,Ryan Corner Development Pty Ltd,Ryan Corner Wind Farm,Wind,205.0,11.66,Ryan Corner Wind Farm,-38.271017,142.140647,2026-01-31T14:17:43.667960
2026/02/01 00:20:00,RYEPARK1,115.32,Rye Park Renewable Energy Pty Ltd as trustee for Rye Park Wind Farm Trust,Rye Park Renewable Energy,Wind,384.0,30.03,Rye Park Renewable Energy,-32.138333,148.972778,2026-01-31T14:17:43.667960
2026/02/01 00:20:00,SALTCRK1,3.81,Salt Creek Wind Farm Pty Ltd,Salt Creek Wind Farm,Wind,54.0,7.06,Salt Creek Wind Farm,-37.95,142.63,2026-01-31T14:17:43.667960
2026/02/01 00:20:00,SAPHWF1,22.33,The Trustee For The SWF1 Operations Trust,Sapphire Wind Farm,Wind,270.0,8.27,Sapphire Wind Farm,-29.7,151.41,2026-01-31T14:17:43.667960
2026/02/01 00:20:00,SNOWNTH1,138.3,Snowtown Wind Farm Stage 2 Pty Ltd,Snowtown Wind Farm Stage 2 North,Wind,144.0,96.04,Snowtown Wind Farm Stage 2 North,-33.83,138.118611,2026-01-31T14:17:43.667960
2026/02/01 00:20:00,SNOWSTH1,117.3,Snowtown Wind Farm Stage 2 Pty Ltd,Snowtown South Wind Farm,Wind,126.0,93.1,Snowtown South Wind Farm,-33.83,138.118611,2026-01-31T14:17:43.667960
2026/02/01 00:20:00,SNOWTWN1,92.41,Snowtown Wind Farm Pty Ltd,Snowtown Wind Farm Units 1 And 47,Wind,99.0,93.34,Snowtown Wind Farm Units 1 And 47,-33.83,138.118611,2026-01-31T14:17:43.667960
2026/02/01 00:20:00,STARHLWF,8.2,Starfish Hill Wind Farm Pty Ltd,Starfish Hill Wind Farm,Wind,35.0,23.43,Starfish Hill Wind Farm,-35.58,138.14,2026-01-31T14:17:43.667960
2026/02/01 00:20:00,STOCKYD1,325.91,Stockyard Hill Wind Farm Pty Ltd,Stockyard Hill Wind Farm,Wind,511.0,63.78,Stockyard Hill Wind Farm,-37.535833,143.251389,2026-01-31T14:17:43.667960
2026/02/01 00:20:00,STWF1,0.0,PARF Company 8 Pty Ltd as The Trustee for Silverton Project Trust,Silverton Wind Farm,Wind,198.0,0.0,Silverton Wind Farm,-37.683168,142.551678,2026-01-31T14:17:43.667960
2026/02/01 00:20:00,TARALGA1,25.93,Taralga Wind Farm Nominees No 2 Pty Ltd (ATF Taralga Wind Farm Operating Trust),Taralga Wind Farm,Wind,106.0,24.46,Taralga Wind Farm,-34.42352,149.826267,2026-01-31T14:17:43.667960
2026/02/01 00:20:00,WAMBOWF1,90.73,Stanwell Corporation Limited,Wambo Wind Farm 1,Wind,245.0,37.03,Wambo Wind Farm 1,-35.187301,149.524945,2026-01-31T14:17:43.667960
2026/02/01 00:20:00,WATERLWF,7.1,Waterloo Wind Farm Pty Ltd,Waterloo Wind Farm,Wind,130.0,5.46,Waterloo Wind Farm,-34.00094,138.911567,2026-01-31T14:17:43.667960
2026/02/01 00:20:00,WGWF1,17.8,Willogoleche Power Pty Ltd As The Trustee For The Willogoleche Operating Trust,Willogoleche Wind Farm,Wind,119.0,14.96,Willogoleche Wind Farm,-33.39,138.85,2026-01-31T14:17:43.667960
2026/02/01 00:20:00,WOODLWN1,13.04,Woodlawn Wind Pty Ltd,Woodlawn Wind Farm,Wind,48.0,27.17,Woodlawn Wind Farm,-35.08,149.62,2026-01-31T14:17:43.667960
2026/02/01 00:20:00,WPWF,65.25,AGL SA Generation Pty Limited,Wattle Point Wind Farm,Wind,91.0,71.7,Wattle Point Wind Farm,-35.111624,137.7219,2026-01-31T14:17:43.667960
2026/02/01 00:20:00,WRWF1,0.0,White Rock Wind Farm Pty Ltd,White Rock Wind Farm,Wind,172.0,0.0,White Rock Wind Farm,-29.79,151.54,2026-01-31T14:17:43.667960
2026/02/01 00:20:00,YENDWF1,29.97,Lal Lal Wind Farms Nom Co Pty Ltd,Yendon Wind Farm,Wind,142.0,21.11,Yendon Wind Farm,-37.629987,144.022717,2026-01-31T14:17:43.667960
