SETTLEMENTDATE,DUID,SCADAVALUE,Participant,Station Name,Fuel Source - Primary,MAX_CAP,utilisation_pct,Plant,Latitude,Longitude,timestamp_utc
2026/02/23 19:30:00,CAPTL_WF,86.18,Iberdrola Australia Holdings Pty Limited,Capital Wind Farm,Wind,140.0,61.56,Capital Wind Farm,-35.1,149.31,2026-02-23T09:32:09.187836
2026/02/23 19:30:00,CHALLHWF,9.9,Pacific Hydro Challicum Hills Pty Ltd,Challicum Hills Wind Farm,Wind,52.0,19.04,Challicum Hills Wind Farm,-37.38,143.11,2026-02-23T09:32:09.187836
2026/02/23 19:30:00,CULLRGWF,25.74,Cullerin Range Wind Farm Pty Ltd,Cullerin Range Wind Farm,Wind,30.0,85.8,Cullerin Range Wind Farm,-34.81,149.4,2026-02-23T09:32:09.187836
2026/02/23 19:30:00,DIAPURWF1,0.8,Y.E.S. Energy (SA) Pty Ltd,Diapur Wind Farm,Wind,7.0,11.43,Diapur Wind Farm,-36.3425,141.43,2026-02-23T09:32:09.187836
2026/02/23 19:30:00,MLWF1,5.88,Mortons Lane Windfarm Pty Limited,Mortons Lane Wind Farm,Wind,20.0,29.4,Mortons Lane Wind Farm,-37.84,142.45,2026-02-23T09:32:09.187836
2026/02/23 19:30:00,WAUBRAWF,69.05,Pyrenees Wind Energy Developments Pty Ltd,Waubra Wind Farm,Wind,192.0,35.96,Waubra Wind Farm,-37.394498,143.638982,2026-02-23T09:32:09.187836
2026/02/23 19:30:00,WOOLNTH1,-0.58,Hydro-Electric Corporation,Woolnorth Studland Bay / Bluff Point Wind Farm,Wind,140.0,-0.41,Woolnorth Studland Bay / Bluff Point Wind Farm,-40.69,144.72,2026-02-23T09:32:09.187836
2026/02/23 19:30:00,YAMBUKWF,4.2,Energy Pacific (Vic) Pty Ltd,Yambuk Wind Farm,Wind,30.0,14.0,Yambuk Wind Farm,-38.299083,142.027577,2026-02-23T09:32:09.187836
2026/02/23 19:30:00,YSWF1,6.2,Pacific Hydro Yaloak South Pty Ltd,Yaloak South Wind Farm,Wind,28.0,22.14,Yaloak South Wind Farm,-37.7163,144.242853,2026-02-23T09:32:09.187836
2026/02/23 19:30:00,ARWF1,33.6,Ararat Wind Farm Pty Ltd,Ararat Wind Farm,Wind,241.0,13.94,Ararat Wind Farm,-37.232778,143.031389,2026-02-23T09:32:09.187836
2026/02/23 19:30:00,BALDHWF1,63.08,Alinta Energy Retail Sales Pty Ltd,Bald Hills Wind Farm,Wind,106.0,59.51,Bald Hills Wind Farm,-38.79,145.93,2026-02-23T09:32:09.187836
2026/02/23 19:30:00,BANGOWF1,109.2,BWF Nominees Pty Ltd as The Trustee for BWF Trust,Bango 973 Wind Farm,Wind,155.0,70.45,Bango 973 Wind Farm,-34.551582,148.732808,2026-02-23T09:32:09.187836
2026/02/23 19:30:00,BANGOWF2,45.8,BWF Nominees Pty Ltd as The Trustee for BWF Trust,Bango 999 Wind Farm,Wind,82.0,55.85,Bango 999 Wind Farm,-34.551582,148.732808,2026-02-23T09:32:09.187836
2026/02/23 19:30:00,BLUFF1,2.4,AGL SA Generation Pty Limited,The Bluff Wind Farm,Wind,53.0,4.53,The Bluff Wind Farm,-33.367778,138.728611,2026-02-23T09:32:09.187836
2026/02/23 19:30:00,BOCORWF1,22.14,Boco Rock Wind Farm Pty Ltd,Boco Rock Wind Farm,Wind,111.0,19.95,Boco Rock Wind Farm,-36.578611,149.103333,2026-02-23T09:32:09.187836
2026/02/23 19:30:00,BRYB1WF1,74.35,Berrybank Development Pty Ltd,Berrybank Wind Farm,Wind,175.9,42.27,Berrybank Wind Farm,-37.94,143.52,2026-02-23T09:32:09.187836
2026/02/23 19:30:00,BRYB2WF2,56.49,Berrybank 2 Asset Pty Ltd as trustee for Berrybank 2 Asset Trust,Berrybank 2 Wind Farm,Wind,105.0,53.8,Berrybank 2 Wind Farm,-37.94,143.52,2026-02-23T09:32:09.187836
2026/02/23 19:30:00,BULGANA1,40.26,Bulgana Wind Farm Pty Ltd,Bulgana Green Power Hub,Wind,204.0,19.74,Bulgana Green Power Hub,-37.0975,142.973611,2026-02-23T09:32:09.187836
2026/02/23 19:30:00,CATHROCK,13.7,Cathedral Rocks Wind Farm Pty Ltd,Cathedral Rocks,Wind,66.0,20.76,Cathedral Rocks,-34.51,135.35,2026-02-23T09:32:09.187836
2026/02/23 19:30:00,CHYTWF1,20.52,Cherry Tree Wind Farm Pty Ltd as trustee for The Cherry Tree Project trust ,Cherry Tree Wind Farm,Wind,57.0,36.0,Cherry Tree Wind Farm,-37.1,145.26,2026-02-23T09:32:09.187836
2026/02/23 19:30:00,CLEMGPWF,28.02,Pacific Hydro Clements Gap Pty Ltd,Clements Gap Wind Farm,Wind,57.0,49.16,Clements Gap Wind Farm,-33.48,138.1,2026-02-23T09:32:09.187836
2026/02/23 19:30:00,CLRKCWF1,272.61,Stanwell Corporation Limited ,Clarke Creek Wind Farm,Wind,338.0,80.65,Clarke Creek Wind Farm,-22.85,149.45,2026-02-23T09:32:09.187836
2026/02/23 19:30:00,CLRKCWF2,79.16,Stanwell Corporation Limited ,Clarke Creek Wind Farm,Wind,101.0,78.38,Clarke Creek Wind Farm,-22.85,149.45,2026-02-23T09:32:09.187836
2026/02/23 19:30:00,CNUNDAWF,12.11,Canunda Power Pty Ltd,Canunda Wind Farm,Wind,46.0,26.33,Canunda Wind Farm,-37.73,140.39,2026-02-23T09:32:09.187836
2026/02/23 19:30:00,COLWF01,131.93,Collector Wind Farm Pty Ltd,Collector Wind Farm 1,Wind,219.0,60.24,Collector Wind Farm 1,-34.8719,149.3967,2026-02-23T09:32:09.187836
2026/02/23 19:30:00,COOPGWF1,314.81,PARF Company 10 Pty Limited as The Trustee for Coopers Gap Project Trust,Coopers Gap Wind Farm,Wind,440.0,71.55,Coopers Gap Wind Farm,-26.74,151.45,2026-02-23T09:32:09.187836
2026/02/23 19:30:00,CROOKWF2,39.39,Crookwell Development Pty Ltd ,Crookwell 2 Wind Farm,Wind,91.0,43.29,Crookwell 2 Wind Farm,-34.52,149.54,2026-02-23T09:32:09.187836
2026/02/23 19:30:00,CROOKWF3,40.28,Crookwell 3 Development Pty Ltd,Crookwell 3 Wind Farm,Wind,56.0,71.93,Crookwell 3 Wind Farm,-34.52,149.54,2026-02-23T09:32:09.187836
2026/02/23 19:30:00,CROWLWF1,14.08,Pacific Hydro Crowlands Pty Ltd ,Crowlands Wind Farm,Wind,79.0,17.82,Crowlands Wind Farm,-37.13,143.16,2026-02-23T09:32:09.187836
2026/02/23 19:30:00,CRURWF1,86.1,CRWF Nominees Pty Ltd As Trustee For The CRWF Trust,Crudine Ridge Wind Farm,Wind,138.0,62.39,Crudine Ridge Wind Farm,-32.97,149.64,2026-02-23T09:32:09.187836
2026/02/23 19:30:00,CTHLWF1,0.0,Wild Cattle Hill Pty Ltd,Cattle Hill Wind Farm,Wind,144.0,0.0,Cattle Hill Wind Farm,-42.15,146.69,2026-02-23T09:32:09.187836
2026/02/23 19:30:00,DULAWF1,9.7,Dulacca Energy Project Co Pty Ltd,Dulacca Wind Farm,Wind,173.0,5.61,Dulacca Wind Farm,-26.63,149.87,2026-02-23T09:32:09.187836
2026/02/23 19:30:00,DUNDWF1,77.31,Dundonnell Wind Farm Pty Ltd,Dundonnell Wind Farm,Wind,168.0,46.02,Dundonnell Wind Farm,-37.52,142.58,2026-02-23T09:32:09.187836
2026/02/23 19:30:00,DUNDWF2,23.58,Dundonnell Wind Farm Pty Ltd,Dundonnell Wind Farm,Wind,46.0,51.26,Dundonnell Wind Farm,-37.52,142.58,2026-02-23T09:32:09.187836
2026/02/23 19:30:00,DUNDWF3,48.26,Dundonnell Wind Farm Pty Ltd,Dundonnell Wind Farm,Wind,122.0,39.56,Dundonnell Wind Farm,-37.52,142.58,2026-02-23T09:32:09.187836
2026/02/23 19:30:00,ELAINWF1,29.04,Lal Lal Wind Farms Nom Co Pty Ltd,Elaine Wind Farm,Wind,82.0,35.41,Elaine Wind Farm,-37.36,144.0,2026-02-23T09:32:09.187836
2026/02/23 19:30:00,FLYCRKWF,55.33,Iberdrola Australia Energy Markets Pty Limited,Flyers Creek Wind Farm,Wind,140.0,39.52,Flyers Creek Wind Farm,-33.365556,148.981944,2026-02-23T09:32:09.187836
2026/02/23 19:30:00,GPWFEST1,97.3,Golden Plains WF1 Pty Ltd as Trustee for the Golden Plains WF1 Unit Trust,Golden Plains Wind Farm East,Wind,240.0,40.54,Golden Plains Wind Farm East,-37.945091,143.752614,2026-02-23T09:32:09.187836
2026/02/23 19:30:00,GPWFEST2,95.26,Golden Plains WF1 Pty Ltd as Trustee for the Golden Plains WF1 Unit Trust,Golden Plains Wind Farm East,Wind,253.0,37.65,Golden Plains Wind Farm East,-37.945091,143.752614,2026-02-23T09:32:09.187836
2026/02/23 19:30:00,GPWFEST3,105.26,Golden Plains WF1 Pty Ltd as Trustee for the Golden Plains WF1 Unit Trust,Golden Plains Wind Farm East,Wind,240.0,43.86,Golden Plains Wind Farm East,-37.945091,143.752614,2026-02-23T09:32:09.187836
2026/02/23 19:30:00,GRANWF1,2.45,Granville Harbour Operations Pty Ltd as The Trustee for Granville Harbour Operations Trust,Granville Harbour Wind Farm,Wind,111.0,2.21,Granville Harbour Wind Farm,-41.8,145.06,2026-02-23T09:32:09.187836
2026/02/23 19:30:00,GSWF1A,87.12,Goyder Wind Farm 1 Pty Ltd as the Trustee for Goyder Wind Farm 1 Trust,Goyder South Wind Farm 1A,Wind,201.0,43.34,Goyder South Wind Farm 1A,-33.679758,138.937597,2026-02-23T09:32:09.187836
2026/02/23 19:30:00,GSWF1B1,24.46,Goyder Wind Farm 1B Pty Ltd as the Trustee for the Goyder Wind Farm 1B Trust,Goyder South Wind Farm 1B,Wind,196.0,12.48,Goyder South Wind Farm 1B,-33.679758,138.937597,2026-02-23T09:32:09.187836
2026/02/23 19:30:00,GULLRWF1,52.59,New Gullen Range Wind Farm Pty Ltd,Gullen Range Wind Farm,Wind,161.0,32.66,Gullen Range Wind Farm,-34.34,149.27,2026-02-23T09:32:09.187836
2026/02/23 19:30:00,GULLRWF2,104.05,New Gullen Range Wind Farm Pty Ltd,Gullen Range Wind Farm,Wind,107.0,97.24,Gullen Range Wind Farm,-34.34,149.27,2026-02-23T09:32:09.187836
2026/02/23 19:30:00,GUNNING1,31.3,Gunning Wind Energy Developments Pty Ltd,Gunning Wind Farm,Wind,47.0,66.6,Gunning Wind Farm,-34.813333,149.4,2026-02-23T09:32:09.187836
2026/02/23 19:30:00,HALLWF1,29.5,AGL SA Generation Pty Limited,Hallett 1 Wind Farm,Wind,95.0,31.05,Hallett 1 Wind Farm,-33.367778,138.728611,2026-02-23T09:32:09.187836
2026/02/23 19:30:00,HALLWF2,32.92,AGL SA Generation Pty Limited,Hallett 2 Wind Farm,Wind,71.0,46.37,Hallett 2 Wind Farm,-33.367778,138.728611,2026-02-23T09:32:09.187836
2026/02/23 19:30:00,HD1WF1,32.2,Hawkesdale Asset Pty Ltd as trustee for Hawkesdale Asset Trust,Hawkesdale Wind Farm,Wind,89.0,36.18,Hawkesdale Wind Farm,-38.147894,142.361381,2026-02-23T09:32:09.187836
2026/02/23 19:30:00,HDWF1,60.2,HWF1 Pty Ltd,Hornsdale Wind Farm,Wind,102.0,59.02,Hornsdale Wind Farm,-33.050556,138.543611,2026-02-23T09:32:09.187836
2026/02/23 19:30:00,HDWF2,27.0,HWF 2 Pty Ltd,Hornsdale Wind Farm 2,Wind,102.0,26.47,Hornsdale Wind Farm 2,-33.06,138.54,2026-02-23T09:32:09.187836
2026/02/23 19:30:00,HDWF3,43.1,HWF3 Pty Ltd,Hornsdale Wind Farm 3,Wind,109.0,39.54,Hornsdale Wind Farm 3,-33.06,138.54,2026-02-23T09:32:09.187836
2026/02/23 19:30:00,KABANWF1,0.0,Kaban Wind Farm Pty Ltd as trustee for Kaban Wind Farm Trust,Kaban Wind Farm,Wind,152.0,0.0,Kaban Wind Farm,-17.56,145.41,2026-02-23T09:32:09.187836
2026/02/23 19:30:00,KEPWF1,18.2,Kennedy Energy Park Pty Ltd,Kennedy Energy Park,Wind,43.0,42.33,Kennedy Energy Park,-20.88,144.42,2026-02-23T09:32:09.187836
2026/02/23 19:30:00,KIATAWF1,0.7,Kiata ProjectCo Pty Ltd Atf Kiata Project Trust,Kiata Wind Farm,Wind,31.0,2.26,Kiata Wind Farm,-36.4,141.75,2026-02-23T09:32:09.187836
2026/02/23 19:30:00,LGAPWF1,2.7,Lincoln Gap Wind Farm (Operations) Pty Ltd,Lincoln Gap Wind Farm,Wind,123.0,2.2,Lincoln Gap Wind Farm,-32.564279,137.557328,2026-02-23T09:32:09.187836
2026/02/23 19:30:00,LGAPWF1,2.7,Lincoln Gap Wind Farm (Operations) Pty Ltd,Lincoln Gap Wind Farm,Wind,123.0,2.2,Lincoln Gap Wind Farm,-32.564279,137.557328,2026-02-23T09:32:09.187836
2026/02/23 19:30:00,LGAPWF2,8.04,Lincoln Gap Wind Farm (Operations) Pty Ltd,Lincoln Gap Wind Farm,Wind,85.0,9.46,Lincoln Gap Wind Farm,-32.564279,137.557328,2026-02-23T09:32:09.187836
2026/02/23 19:30:00,LGAPWF2,8.04,Lincoln Gap Wind Farm (Operations) Pty Ltd,Lincoln Gap Wind Farm,Wind,85.0,9.46,Lincoln Gap Wind Farm,-32.564279,137.557328,2026-02-23T09:32:09.187836
2026/02/23 19:30:00,LKBONNY1,12.59,Lake Bonney Wind Power Pty Ltd,Lake Bonney Wind Farm Stage 1,Wind,81.0,15.54,Lake Bonney Wind Farm Stage 1,-37.76,140.4,2026-02-23T09:32:09.187836
2026/02/23 19:30:00,LKBONNY2,34.08,Lake Bonney Wind Power Pty Ltd,Lake Bonney Stage 2 Windfarm,Wind,159.0,21.43,Lake Bonney Stage 2 Windfarm,-37.76,140.4,2026-02-23T09:32:09.187836
2026/02/23 19:30:00,LKBONNY3,5.92,Lake Bonney Wind Power Pty Ltd,Lake Bonney Stage 3 Wind Farm,Wind,39.0,15.18,Lake Bonney Stage 3 Wind Farm,-37.737781,140.388137,2026-02-23T09:32:09.187836
2026/02/23 19:30:00,MACARTH1,105.8,AGL Hydro Partnership,Macarthur Wind Farm,Wind,420.0,25.19,Macarthur Wind Farm,-38.048957,142.192112,2026-02-23T09:32:09.187836
2026/02/23 19:30:00,MCINTYR1,298.66,MacIntyre UJV Operator Pty Ltd,MacIntyre Wind Farm,Wind,890.0,33.56,MacIntyre Wind Farm,-28.32,151.54,2026-02-23T09:32:09.187836
2026/02/23 19:30:00,MERCER01,35.0,Mt Mercer Windfarm Pty Ltd,Mt Mercer Wind Farm,Wind,131.0,26.72,Mt Mercer Wind Farm,-37.841111,143.871111,2026-02-23T09:32:09.187836
2026/02/23 19:30:00,MEWF1,1.0,Ergon Energy Queensland Pty Ltd ,Mount Emerald Wind Farm,Wind,178.0,0.56,Mount Emerald Wind Farm,-17.133007,145.380644,2026-02-23T09:32:09.187836
2026/02/23 19:30:00,MRTLSWF1,27.72,Mortlake South Wind Farm Pty Ltd,Mortlake South Wind Farm,Wind,153.0,18.12,Mortlake South Wind Farm,-38.127337,142.857801,2026-02-23T09:32:09.187836
2026/02/23 19:30:00,MTGELWF1,46.59,Mt. Gellibrand Wind Farm Pty Ltd,Mt Gellibrand Wind Farm,Wind,132.0,35.3,Mt Gellibrand Wind Farm,-38.23,143.77,2026-02-23T09:32:09.187836
2026/02/23 19:30:00,MTMILLAR,20.1,Mt Millar Wind Farm Pty Ltd,Mt Millar Wind Farm,Wind,70.0,28.71,Mt Millar Wind Farm,-33.624444,136.703611,2026-02-23T09:32:09.187836
2026/02/23 19:30:00,MUSSELR1,20.2,Hydro-Electric Corporation,Musselroe Wind Farm,Wind,168.0,12.02,Musselroe Wind Farm,-40.780225,148.010799,2026-02-23T09:32:09.187836
2026/02/23 19:30:00,MUWAWF1,19.32,Telstra Energy (Generation) Pty Ltd,Murra Warra Wind Farm,Wind,225.7,8.56,Murra Warra Wind Farm,-36.432404,142.317853,2026-02-23T09:32:09.187836
2026/02/23 19:30:00,MUWAWF2,8.3,Murra Warra II Project Co Pty Ltd ATF The Murra Warra II Project Trust,Murra Warra Wind Farm Stage 2,Wind,203.0,4.09,Murra Warra Wind Farm Stage 2,-36.43,142.32,2026-02-23T09:32:09.187836
2026/02/23 19:30:00,NBHWF1,77.2,AGL SA Generation Pty Limited,North Brown Hill Wind Farm,Wind,132.0,58.48,North Brown Hill Wind Farm,-33.367778,138.728611,2026-02-23T09:32:09.187836
2026/02/23 19:30:00,OAKLAND1,22.0,AGL Hydro Partnership,Oaklands Hill Wind Farm,Wind,63.0,34.92,Oaklands Hill Wind Farm,-37.683078,142.551678,2026-02-23T09:32:09.187836
2026/02/23 19:30:00,PAREPW1,86.72,Iberdrola Australia Energy Markets Pty Limited,Port Augusta Renewable Energy Park,Wind,201.0,43.14,Port Augusta Renewable Energy Park,-32.566944,137.856111,2026-02-23T09:32:09.187836
2026/02/23 19:30:00,RYANCWF1,74.46,Ryan Corner Development Pty Ltd,Ryan Corner Wind Farm,Wind,205.0,36.32,Ryan Corner Wind Farm,-38.271017,142.140647,2026-02-23T09:32:09.187836
2026/02/23 19:30:00,RYEPARK1,302.8,Rye Park Renewable Energy Pty Ltd as trustee for Rye Park Wind Farm Trust,Rye Park Renewable Energy,Wind,384.0,78.85,Rye Park Renewable Energy,-32.138333,148.972778,2026-02-23T09:32:09.187836
2026/02/23 19:30:00,SALTCRK1,12.52,Salt Creek Wind Farm Pty Ltd,Salt Creek Wind Farm,Wind,54.0,23.19,Salt Creek Wind Farm,-37.95,142.63,2026-02-23T09:32:09.187836
2026/02/23 19:30:00,SAPHWF1,179.0,The Trustee For The SWF1 Operations Trust,Sapphire Wind Farm,Wind,270.0,66.3,Sapphire Wind Farm,-29.7,151.41,2026-02-23T09:32:09.187836
2026/02/23 19:30:00,SNOWNTH1,32.5,Snowtown Wind Farm Stage 2 Pty Ltd,Snowtown Wind Farm Stage 2 North,Wind,144.0,22.57,Snowtown Wind Farm Stage 2 North,-33.83,138.118611,2026-02-23T09:32:09.187836
2026/02/23 19:30:00,SNOWSTH1,51.9,Snowtown Wind Farm Stage 2 Pty Ltd,Snowtown South Wind Farm,Wind,126.0,41.19,Snowtown South Wind Farm,-33.83,138.118611,2026-02-23T09:32:09.187836
2026/02/23 19:30:00,SNOWTWN1,34.61,Snowtown Wind Farm Pty Ltd,Snowtown Wind Farm Units 1 And 47,Wind,99.0,34.96,Snowtown Wind Farm Units 1 And 47,-33.83,138.118611,2026-02-23T09:32:09.187836
2026/02/23 19:30:00,STARHLWF,23.79,Starfish Hill Wind Farm Pty Ltd,Starfish Hill Wind Farm,Wind,35.0,67.97,Starfish Hill Wind Farm,-35.58,138.14,2026-02-23T09:32:09.187836
2026/02/23 19:30:00,STOCKYD1,226.02,Stockyard Hill Wind Farm Pty Ltd,Stockyard Hill Wind Farm,Wind,511.0,44.23,Stockyard Hill Wind Farm,-37.535833,143.251389,2026-02-23T09:32:09.187836
2026/02/23 19:30:00,STWF1,48.32,PARF Company 8 Pty Ltd as The Trustee for Silverton Project Trust,Silverton Wind Farm,Wind,198.0,24.4,Silverton Wind Farm,-37.683168,142.551678,2026-02-23T09:32:09.187836
2026/02/23 19:30:00,TARALGA1,13.14,Taralga Wind Farm Nominees No 2 Pty Ltd (ATF Taralga Wind Farm Operating Trust),Taralga Wind Farm,Wind,106.0,12.4,Taralga Wind Farm,-34.42352,149.826267,2026-02-23T09:32:09.187836
2026/02/23 19:30:00,WAMBOWF1,180.24,Stanwell Corporation Limited,Wambo Wind Farm 1,Wind,245.0,73.57,Wambo Wind Farm 1,-35.187301,149.524945,2026-02-23T09:32:09.187836
2026/02/23 19:30:00,WATERLWF,30.9,Waterloo Wind Farm Pty Ltd,Waterloo Wind Farm,Wind,130.0,23.77,Waterloo Wind Farm,-34.00094,138.911567,2026-02-23T09:32:09.187836
2026/02/23 19:30:00,WGWF1,51.5,Willogoleche Power Pty Ltd As The Trustee For The Willogoleche Operating Trust,Willogoleche Wind Farm,Wind,119.0,43.28,Willogoleche Wind Farm,-33.39,138.85,2026-02-23T09:32:09.187836
2026/02/23 19:30:00,WOODLWN1,34.97,Woodlawn Wind Pty Ltd,Woodlawn Wind Farm,Wind,48.0,72.85,Woodlawn Wind Farm,-35.08,149.62,2026-02-23T09:32:09.187836
2026/02/23 19:30:00,WPWF,57.99,AGL SA Generation Pty Limited,Wattle Point Wind Farm,Wind,91.0,63.73,Wattle Point Wind Farm,-35.111624,137.7219,2026-02-23T09:32:09.187836
2026/02/23 19:30:00,WRWF1,134.5,White Rock Wind Farm Pty Ltd,White Rock Wind Farm,Wind,172.0,78.2,White Rock Wind Farm,-29.79,151.54,2026-02-23T09:32:09.187836
2026/02/23 19:30:00,YENDWF1,39.65,Lal Lal Wind Farms Nom Co Pty Ltd,Yendon Wind Farm,Wind,142.0,27.92,Yendon Wind Farm,-37.629987,144.022717,2026-02-23T09:32:09.187836
