SETTLEMENTDATE,DUID,SCADAVALUE,Participant,Station Name,Fuel Source - Primary,MAX_CAP,utilisation_pct,Plant,Latitude,Longitude,timestamp_utc
2026/03/02 03:35:00,CAPTL_WF,0.0,Iberdrola Australia Holdings Pty Limited,Capital Wind Farm,Wind,140.0,0.0,Capital Wind Farm,-35.1,149.31,2026-03-01T17:33:07.301063
2026/03/02 03:35:00,CHALLHWF,2.7,Pacific Hydro Challicum Hills Pty Ltd,Challicum Hills Wind Farm,Wind,52.0,5.19,Challicum Hills Wind Farm,-37.38,143.11,2026-03-01T17:33:07.301063
2026/03/02 03:35:00,CULLRGWF,4.5,Cullerin Range Wind Farm Pty Ltd,Cullerin Range Wind Farm,Wind,30.0,15.0,Cullerin Range Wind Farm,-34.81,149.4,2026-03-01T17:33:07.301063
2026/03/02 03:35:00,DIAPURWF1,0.0,Y.E.S. Energy (SA) Pty Ltd,Diapur Wind Farm,Wind,7.0,0.0,Diapur Wind Farm,-36.3425,141.43,2026-03-01T17:33:07.301063
2026/03/02 03:35:00,MLWF1,0.81,Mortons Lane Windfarm Pty Limited,Mortons Lane Wind Farm,Wind,20.0,4.05,Mortons Lane Wind Farm,-37.84,142.45,2026-03-01T17:33:07.301063
2026/03/02 03:35:00,WAUBRAWF,85.77,Pyrenees Wind Energy Developments Pty Ltd,Waubra Wind Farm,Wind,192.0,44.67,Waubra Wind Farm,-37.394498,143.638982,2026-03-01T17:33:07.301063
2026/03/02 03:35:00,WOOLNTH1,14.02,Hydro-Electric Corporation,Woolnorth Studland Bay / Bluff Point Wind Farm,Wind,140.0,10.01,Woolnorth Studland Bay / Bluff Point Wind Farm,-40.69,144.72,2026-03-01T17:33:07.301063
2026/03/02 03:35:00,YAMBUKWF,13.1,Energy Pacific (Vic) Pty Ltd,Yambuk Wind Farm,Wind,30.0,43.67,Yambuk Wind Farm,-38.299083,142.027577,2026-03-01T17:33:07.301063
2026/03/02 03:35:00,YSWF1,5.2,Pacific Hydro Yaloak South Pty Ltd,Yaloak South Wind Farm,Wind,28.0,18.57,Yaloak South Wind Farm,-37.7163,144.242853,2026-03-01T17:33:07.301063
2026/03/02 03:35:00,ARWF1,16.5,Ararat Wind Farm Pty Ltd,Ararat Wind Farm,Wind,241.0,6.85,Ararat Wind Farm,-37.232778,143.031389,2026-03-01T17:33:07.301063
2026/03/02 03:35:00,BALDHWF1,0.14,Alinta Energy Retail Sales Pty Ltd,Bald Hills Wind Farm,Wind,106.0,0.13,Bald Hills Wind Farm,-38.79,145.93,2026-03-01T17:33:07.301063
2026/03/02 03:35:00,BANGOWF1,41.3,BWF Nominees Pty Ltd as The Trustee for BWF Trust,Bango 973 Wind Farm,Wind,155.0,26.65,Bango 973 Wind Farm,-34.551582,148.732808,2026-03-01T17:33:07.301063
2026/03/02 03:35:00,BANGOWF2,25.1,BWF Nominees Pty Ltd as The Trustee for BWF Trust,Bango 999 Wind Farm,Wind,82.0,30.61,Bango 999 Wind Farm,-34.551582,148.732808,2026-03-01T17:33:07.301063
2026/03/02 03:35:00,BLUFF1,11.9,AGL SA Generation Pty Limited,The Bluff Wind Farm,Wind,53.0,22.45,The Bluff Wind Farm,-33.367778,138.728611,2026-03-01T17:33:07.301063
2026/03/02 03:35:00,BOCORWF1,91.79,Boco Rock Wind Farm Pty Ltd,Boco Rock Wind Farm,Wind,111.0,82.69,Boco Rock Wind Farm,-36.578611,149.103333,2026-03-01T17:33:07.301063
2026/03/02 03:35:00,BRYB1WF1,92.23,Berrybank Development Pty Ltd,Berrybank Wind Farm,Wind,175.9,52.43,Berrybank Wind Farm,-37.94,143.52,2026-03-01T17:33:07.301063
2026/03/02 03:35:00,BRYB2WF2,62.7,Berrybank 2 Asset Pty Ltd as trustee for Berrybank 2 Asset Trust,Berrybank 2 Wind Farm,Wind,105.0,59.71,Berrybank 2 Wind Farm,-37.94,143.52,2026-03-01T17:33:07.301063
2026/03/02 03:35:00,BULGANA1,31.91,Bulgana Wind Farm Pty Ltd,Bulgana Green Power Hub,Wind,204.0,15.64,Bulgana Green Power Hub,-37.0975,142.973611,2026-03-01T17:33:07.301063
2026/03/02 03:35:00,CATHROCK,43.0,Cathedral Rocks Wind Farm Pty Ltd,Cathedral Rocks,Wind,66.0,65.15,Cathedral Rocks,-34.51,135.35,2026-03-01T17:33:07.301063
2026/03/02 03:35:00,CHYTWF1,52.57,Cherry Tree Wind Farm Pty Ltd as trustee for The Cherry Tree Project trust ,Cherry Tree Wind Farm,Wind,57.0,92.23,Cherry Tree Wind Farm,-37.1,145.26,2026-03-01T17:33:07.301063
2026/03/02 03:35:00,CLEMGPWF,37.03,Pacific Hydro Clements Gap Pty Ltd,Clements Gap Wind Farm,Wind,57.0,64.96,Clements Gap Wind Farm,-33.48,138.1,2026-03-01T17:33:07.301063
2026/03/02 03:35:00,CLRKCWF1,194.26,Stanwell Corporation Limited ,Clarke Creek Wind Farm,Wind,338.0,57.47,Clarke Creek Wind Farm,-22.85,149.45,2026-03-01T17:33:07.301063
2026/03/02 03:35:00,CLRKCWF2,68.33,Stanwell Corporation Limited ,Clarke Creek Wind Farm,Wind,101.0,67.65,Clarke Creek Wind Farm,-22.85,149.45,2026-03-01T17:33:07.301063
2026/03/02 03:35:00,CNUNDAWF,15.42,Canunda Power Pty Ltd,Canunda Wind Farm,Wind,46.0,33.52,Canunda Wind Farm,-37.73,140.39,2026-03-01T17:33:07.301063
2026/03/02 03:35:00,COLWF01,5.7,Collector Wind Farm Pty Ltd,Collector Wind Farm 1,Wind,219.0,2.6,Collector Wind Farm 1,-34.8719,149.3967,2026-03-01T17:33:07.301063
2026/03/02 03:35:00,COOPGWF1,361.9,PARF Company 10 Pty Limited as The Trustee for Coopers Gap Project Trust,Coopers Gap Wind Farm,Wind,440.0,82.25,Coopers Gap Wind Farm,-26.74,151.45,2026-03-01T17:33:07.301063
2026/03/02 03:35:00,CROOKWF2,21.62,Crookwell Development Pty Ltd ,Crookwell 2 Wind Farm,Wind,91.0,23.76,Crookwell 2 Wind Farm,-34.52,149.54,2026-03-01T17:33:07.301063
2026/03/02 03:35:00,CROOKWF3,15.17,Crookwell 3 Development Pty Ltd,Crookwell 3 Wind Farm,Wind,56.0,27.09,Crookwell 3 Wind Farm,-34.52,149.54,2026-03-01T17:33:07.301063
2026/03/02 03:35:00,CROWLWF1,27.3,Pacific Hydro Crowlands Pty Ltd ,Crowlands Wind Farm,Wind,79.0,34.56,Crowlands Wind Farm,-37.13,143.16,2026-03-01T17:33:07.301063
2026/03/02 03:35:00,CRURWF1,36.6,CRWF Nominees Pty Ltd As Trustee For The CRWF Trust,Crudine Ridge Wind Farm,Wind,138.0,26.52,Crudine Ridge Wind Farm,-32.97,149.64,2026-03-01T17:33:07.301063
2026/03/02 03:35:00,CTHLWF1,41.31,Wild Cattle Hill Pty Ltd,Cattle Hill Wind Farm,Wind,144.0,28.69,Cattle Hill Wind Farm,-42.15,146.69,2026-03-01T17:33:07.301063
2026/03/02 03:35:00,DULAWF1,110.1,Dulacca Energy Project Co Pty Ltd,Dulacca Wind Farm,Wind,173.0,63.64,Dulacca Wind Farm,-26.63,149.87,2026-03-01T17:33:07.301063
2026/03/02 03:35:00,DUNDWF1,28.62,Dundonnell Wind Farm Pty Ltd,Dundonnell Wind Farm,Wind,168.0,17.04,Dundonnell Wind Farm,-37.52,142.58,2026-03-01T17:33:07.301063
2026/03/02 03:35:00,DUNDWF2,9.97,Dundonnell Wind Farm Pty Ltd,Dundonnell Wind Farm,Wind,46.0,21.67,Dundonnell Wind Farm,-37.52,142.58,2026-03-01T17:33:07.301063
2026/03/02 03:35:00,DUNDWF3,21.81,Dundonnell Wind Farm Pty Ltd,Dundonnell Wind Farm,Wind,122.0,17.88,Dundonnell Wind Farm,-37.52,142.58,2026-03-01T17:33:07.301063
2026/03/02 03:35:00,ELAINWF1,37.71,Lal Lal Wind Farms Nom Co Pty Ltd,Elaine Wind Farm,Wind,82.0,45.99,Elaine Wind Farm,-37.36,144.0,2026-03-01T17:33:07.301063
2026/03/02 03:35:00,FLYCRKWF,63.33,Iberdrola Australia Energy Markets Pty Limited,Flyers Creek Wind Farm,Wind,140.0,45.24,Flyers Creek Wind Farm,-33.365556,148.981944,2026-03-01T17:33:07.301063
2026/03/02 03:35:00,GPWFEST1,20.94,Golden Plains WF1 Pty Ltd as Trustee for the Golden Plains WF1 Unit Trust,Golden Plains Wind Farm East,Wind,240.0,8.73,Golden Plains Wind Farm East,-37.945091,143.752614,2026-03-01T17:33:07.301063
2026/03/02 03:35:00,GPWFEST2,28.34,Golden Plains WF1 Pty Ltd as Trustee for the Golden Plains WF1 Unit Trust,Golden Plains Wind Farm East,Wind,253.0,11.2,Golden Plains Wind Farm East,-37.945091,143.752614,2026-03-01T17:33:07.301063
2026/03/02 03:35:00,GPWFEST3,63.97,Golden Plains WF1 Pty Ltd as Trustee for the Golden Plains WF1 Unit Trust,Golden Plains Wind Farm East,Wind,240.0,26.65,Golden Plains Wind Farm East,-37.945091,143.752614,2026-03-01T17:33:07.301063
2026/03/02 03:35:00,GRANWF1,41.45,Granville Harbour Operations Pty Ltd as The Trustee for Granville Harbour Operations Trust,Granville Harbour Wind Farm,Wind,111.0,37.34,Granville Harbour Wind Farm,-41.8,145.06,2026-03-01T17:33:07.301063
2026/03/02 03:35:00,GSWF1A,99.62,Goyder Wind Farm 1 Pty Ltd as the Trustee for Goyder Wind Farm 1 Trust,Goyder South Wind Farm 1A,Wind,201.0,49.56,Goyder South Wind Farm 1A,-33.679758,138.937597,2026-03-01T17:33:07.301063
2026/03/02 03:35:00,GSWF1B1,102.22,Goyder Wind Farm 1B Pty Ltd as the Trustee for the Goyder Wind Farm 1B Trust,Goyder South Wind Farm 1B,Wind,196.0,52.15,Goyder South Wind Farm 1B,-33.679758,138.937597,2026-03-01T17:33:07.301063
2026/03/02 03:35:00,GULLRWF1,42.93,New Gullen Range Wind Farm Pty Ltd,Gullen Range Wind Farm,Wind,161.0,26.66,Gullen Range Wind Farm,-34.34,149.27,2026-03-01T17:33:07.301063
2026/03/02 03:35:00,GULLRWF2,60.94,New Gullen Range Wind Farm Pty Ltd,Gullen Range Wind Farm,Wind,107.0,56.95,Gullen Range Wind Farm,-34.34,149.27,2026-03-01T17:33:07.301063
2026/03/02 03:35:00,GUNNING1,16.75,Gunning Wind Energy Developments Pty Ltd,Gunning Wind Farm,Wind,47.0,35.64,Gunning Wind Farm,-34.813333,149.4,2026-03-01T17:33:07.301063
2026/03/02 03:35:00,HALLWF1,16.94,AGL SA Generation Pty Limited,Hallett 1 Wind Farm,Wind,95.0,17.83,Hallett 1 Wind Farm,-33.367778,138.728611,2026-03-01T17:33:07.301063
2026/03/02 03:35:00,HALLWF2,19.63,AGL SA Generation Pty Limited,Hallett 2 Wind Farm,Wind,71.0,27.65,Hallett 2 Wind Farm,-33.367778,138.728611,2026-03-01T17:33:07.301063
2026/03/02 03:35:00,HD1WF1,4.34,Hawkesdale Asset Pty Ltd as trustee for Hawkesdale Asset Trust,Hawkesdale Wind Farm,Wind,89.0,4.88,Hawkesdale Wind Farm,-38.147894,142.361381,2026-03-01T17:33:07.301063
2026/03/02 03:35:00,HDWF1,26.2,HWF1 Pty Ltd,Hornsdale Wind Farm,Wind,102.0,25.69,Hornsdale Wind Farm,-33.050556,138.543611,2026-03-01T17:33:07.301063
2026/03/02 03:35:00,HDWF2,28.1,HWF 2 Pty Ltd,Hornsdale Wind Farm 2,Wind,102.0,27.55,Hornsdale Wind Farm 2,-33.06,138.54,2026-03-01T17:33:07.301063
2026/03/02 03:35:00,HDWF3,32.6,HWF3 Pty Ltd,Hornsdale Wind Farm 3,Wind,109.0,29.91,Hornsdale Wind Farm 3,-33.06,138.54,2026-03-01T17:33:07.301063
2026/03/02 03:35:00,KABANWF1,4.86,Kaban Wind Farm Pty Ltd as trustee for Kaban Wind Farm Trust,Kaban Wind Farm,Wind,152.0,3.2,Kaban Wind Farm,-17.56,145.41,2026-03-01T17:33:07.301063
2026/03/02 03:35:00,KEPWF1,40.1,Kennedy Energy Park Pty Ltd,Kennedy Energy Park,Wind,43.0,93.26,Kennedy Energy Park,-20.88,144.42,2026-03-01T17:33:07.301063
2026/03/02 03:35:00,KIATAWF1,0.0,Kiata ProjectCo Pty Ltd Atf Kiata Project Trust,Kiata Wind Farm,Wind,31.0,0.0,Kiata Wind Farm,-36.4,141.75,2026-03-01T17:33:07.301063
2026/03/02 03:35:00,LGAPWF1,42.34,Lincoln Gap Wind Farm (Operations) Pty Ltd,Lincoln Gap Wind Farm,Wind,123.0,34.42,Lincoln Gap Wind Farm,-32.564279,137.557328,2026-03-01T17:33:07.301063
2026/03/02 03:35:00,LGAPWF1,42.34,Lincoln Gap Wind Farm (Operations) Pty Ltd,Lincoln Gap Wind Farm,Wind,123.0,34.42,Lincoln Gap Wind Farm,-32.564279,137.557328,2026-03-01T17:33:07.301063
2026/03/02 03:35:00,LGAPWF2,63.15,Lincoln Gap Wind Farm (Operations) Pty Ltd,Lincoln Gap Wind Farm,Wind,85.0,74.29,Lincoln Gap Wind Farm,-32.564279,137.557328,2026-03-01T17:33:07.301063
2026/03/02 03:35:00,LGAPWF2,63.15,Lincoln Gap Wind Farm (Operations) Pty Ltd,Lincoln Gap Wind Farm,Wind,85.0,74.29,Lincoln Gap Wind Farm,-32.564279,137.557328,2026-03-01T17:33:07.301063
2026/03/02 03:35:00,LKBONNY1,23.13,Lake Bonney Wind Power Pty Ltd,Lake Bonney Wind Farm Stage 1,Wind,81.0,28.56,Lake Bonney Wind Farm Stage 1,-37.76,140.4,2026-03-01T17:33:07.301063
2026/03/02 03:35:00,LKBONNY2,44.95,Lake Bonney Wind Power Pty Ltd,Lake Bonney Stage 2 Windfarm,Wind,159.0,28.27,Lake Bonney Stage 2 Windfarm,-37.76,140.4,2026-03-01T17:33:07.301063
2026/03/02 03:35:00,LKBONNY3,8.37,Lake Bonney Wind Power Pty Ltd,Lake Bonney Stage 3 Wind Farm,Wind,39.0,21.46,Lake Bonney Stage 3 Wind Farm,-37.737781,140.388137,2026-03-01T17:33:07.301063
2026/03/02 03:35:00,MACARTH1,4.3,AGL Hydro Partnership,Macarthur Wind Farm,Wind,420.0,1.02,Macarthur Wind Farm,-38.048957,142.192112,2026-03-01T17:33:07.301063
2026/03/02 03:35:00,MCINTYR1,391.77,MacIntyre UJV Operator Pty Ltd,MacIntyre Wind Farm,Wind,890.0,44.02,MacIntyre Wind Farm,-28.32,151.54,2026-03-01T17:33:07.301063
2026/03/02 03:35:00,MERCER01,116.6,Mt Mercer Windfarm Pty Ltd,Mt Mercer Wind Farm,Wind,131.0,89.01,Mt Mercer Wind Farm,-37.841111,143.871111,2026-03-01T17:33:07.301063
2026/03/02 03:35:00,MEWF1,0.0,Ergon Energy Queensland Pty Ltd ,Mount Emerald Wind Farm,Wind,178.0,0.0,Mount Emerald Wind Farm,-17.133007,145.380644,2026-03-01T17:33:07.301063
2026/03/02 03:35:00,MRTLSWF1,18.91,Mortlake South Wind Farm Pty Ltd,Mortlake South Wind Farm,Wind,153.0,12.36,Mortlake South Wind Farm,-38.127337,142.857801,2026-03-01T17:33:07.301063
2026/03/02 03:35:00,MTGELWF1,0.0,Mt. Gellibrand Wind Farm Pty Ltd,Mt Gellibrand Wind Farm,Wind,132.0,0.0,Mt Gellibrand Wind Farm,-38.23,143.77,2026-03-01T17:33:07.301063
2026/03/02 03:35:00,MTMILLAR,30.2,Mt Millar Wind Farm Pty Ltd,Mt Millar Wind Farm,Wind,70.0,43.14,Mt Millar Wind Farm,-33.624444,136.703611,2026-03-01T17:33:07.301063
2026/03/02 03:35:00,MUSSELR1,116.1,Hydro-Electric Corporation,Musselroe Wind Farm,Wind,168.0,69.11,Musselroe Wind Farm,-40.780225,148.010799,2026-03-01T17:33:07.301063
2026/03/02 03:35:00,MUWAWF1,0.0,Telstra Energy (Generation) Pty Ltd,Murra Warra Wind Farm,Wind,225.7,0.0,Murra Warra Wind Farm,-36.432404,142.317853,2026-03-01T17:33:07.301063
2026/03/02 03:35:00,MUWAWF2,0.0,Murra Warra II Project Co Pty Ltd ATF The Murra Warra II Project Trust,Murra Warra Wind Farm Stage 2,Wind,203.0,0.0,Murra Warra Wind Farm Stage 2,-36.43,142.32,2026-03-01T17:33:07.301063
2026/03/02 03:35:00,NBHWF1,32.9,AGL SA Generation Pty Limited,North Brown Hill Wind Farm,Wind,132.0,24.92,North Brown Hill Wind Farm,-33.367778,138.728611,2026-03-01T17:33:07.301063
2026/03/02 03:35:00,OAKLAND1,0.2,AGL Hydro Partnership,Oaklands Hill Wind Farm,Wind,63.0,0.32,Oaklands Hill Wind Farm,-37.683078,142.551678,2026-03-01T17:33:07.301063
2026/03/02 03:35:00,PAREPW1,181.58,Iberdrola Australia Energy Markets Pty Limited,Port Augusta Renewable Energy Park,Wind,201.0,90.34,Port Augusta Renewable Energy Park,-32.566944,137.856111,2026-03-01T17:33:07.301063
2026/03/02 03:35:00,RYANCWF1,55.05,Ryan Corner Development Pty Ltd,Ryan Corner Wind Farm,Wind,205.0,26.85,Ryan Corner Wind Farm,-38.271017,142.140647,2026-03-01T17:33:07.301063
2026/03/02 03:35:00,RYEPARK1,133.65,Rye Park Renewable Energy Pty Ltd as trustee for Rye Park Wind Farm Trust,Rye Park Renewable Energy,Wind,384.0,34.8,Rye Park Renewable Energy,-32.138333,148.972778,2026-03-01T17:33:07.301063
2026/03/02 03:35:00,SALTCRK1,10.93,Salt Creek Wind Farm Pty Ltd,Salt Creek Wind Farm,Wind,54.0,20.24,Salt Creek Wind Farm,-37.95,142.63,2026-03-01T17:33:07.301063
2026/03/02 03:35:00,SAPHWF1,251.49,The Trustee For The SWF1 Operations Trust,Sapphire Wind Farm,Wind,270.0,93.14,Sapphire Wind Farm,-29.7,151.41,2026-03-01T17:33:07.301063
2026/03/02 03:35:00,SNOWNTH1,84.4,Snowtown Wind Farm Stage 2 Pty Ltd,Snowtown Wind Farm Stage 2 North,Wind,144.0,58.61,Snowtown Wind Farm Stage 2 North,-33.83,138.118611,2026-03-01T17:33:07.301063
2026/03/02 03:35:00,SNOWSTH1,67.8,Snowtown Wind Farm Stage 2 Pty Ltd,Snowtown South Wind Farm,Wind,126.0,53.81,Snowtown South Wind Farm,-33.83,138.118611,2026-03-01T17:33:07.301063
2026/03/02 03:35:00,SNOWTWN1,51.26,Snowtown Wind Farm Pty Ltd,Snowtown Wind Farm Units 1 And 47,Wind,99.0,51.78,Snowtown Wind Farm Units 1 And 47,-33.83,138.118611,2026-03-01T17:33:07.301063
2026/03/02 03:35:00,STARHLWF,17.69,Starfish Hill Wind Farm Pty Ltd,Starfish Hill Wind Farm,Wind,35.0,50.54,Starfish Hill Wind Farm,-35.58,138.14,2026-03-01T17:33:07.301063
2026/03/02 03:35:00,STOCKYD1,313.65,Stockyard Hill Wind Farm Pty Ltd,Stockyard Hill Wind Farm,Wind,511.0,61.38,Stockyard Hill Wind Farm,-37.535833,143.251389,2026-03-01T17:33:07.301063
2026/03/02 03:35:00,STWF1,36.17,PARF Company 8 Pty Ltd as The Trustee for Silverton Project Trust,Silverton Wind Farm,Wind,198.0,18.27,Silverton Wind Farm,-37.683168,142.551678,2026-03-01T17:33:07.301063
2026/03/02 03:35:00,TARALGA1,33.47,Taralga Wind Farm Nominees No 2 Pty Ltd (ATF Taralga Wind Farm Operating Trust),Taralga Wind Farm,Wind,106.0,31.58,Taralga Wind Farm,-34.42352,149.826267,2026-03-01T17:33:07.301063
2026/03/02 03:35:00,WAMBOWF1,205.3,Stanwell Corporation Limited,Wambo Wind Farm 1,Wind,245.0,83.8,Wambo Wind Farm 1,-35.187301,149.524945,2026-03-01T17:33:07.301063
2026/03/02 03:35:00,WATERLWF,35.0,Waterloo Wind Farm Pty Ltd,Waterloo Wind Farm,Wind,130.0,26.92,Waterloo Wind Farm,-34.00094,138.911567,2026-03-01T17:33:07.301063
2026/03/02 03:35:00,WGWF1,30.8,Willogoleche Power Pty Ltd As The Trustee For The Willogoleche Operating Trust,Willogoleche Wind Farm,Wind,119.0,25.88,Willogoleche Wind Farm,-33.39,138.85,2026-03-01T17:33:07.301063
2026/03/02 03:35:00,WOODLWN1,7.92,Woodlawn Wind Pty Ltd,Woodlawn Wind Farm,Wind,48.0,16.5,Woodlawn Wind Farm,-35.08,149.62,2026-03-01T17:33:07.301063
2026/03/02 03:35:00,WPWF,45.6,AGL SA Generation Pty Limited,Wattle Point Wind Farm,Wind,91.0,50.11,Wattle Point Wind Farm,-35.111624,137.7219,2026-03-01T17:33:07.301063
2026/03/02 03:35:00,WRWF1,130.74,White Rock Wind Farm Pty Ltd,White Rock Wind Farm,Wind,172.0,76.01,White Rock Wind Farm,-29.79,151.54,2026-03-01T17:33:07.301063
2026/03/02 03:35:00,YENDWF1,115.9,Lal Lal Wind Farms Nom Co Pty Ltd,Yendon Wind Farm,Wind,142.0,81.62,Yendon Wind Farm,-37.629987,144.022717,2026-03-01T17:33:07.301063
