SETTLEMENTDATE,DUID,SCADAVALUE,Participant,Station Name,Fuel Source - Primary,MAX_CAP,utilisation_pct,Plant,Latitude,Longitude,timestamp_utc
2026/02/22 07:55:00,CAPTL_WF,1.83,Iberdrola Australia Holdings Pty Limited,Capital Wind Farm,Wind,140.0,1.31,Capital Wind Farm,-35.1,149.31,2026-02-21T21:52:42.979110
2026/02/22 07:55:00,CHALLHWF,7.6,Pacific Hydro Challicum Hills Pty Ltd,Challicum Hills Wind Farm,Wind,52.0,14.62,Challicum Hills Wind Farm,-37.38,143.11,2026-02-21T21:52:42.979110
2026/02/22 07:55:00,CULLRGWF,13.27,Cullerin Range Wind Farm Pty Ltd,Cullerin Range Wind Farm,Wind,30.0,44.23,Cullerin Range Wind Farm,-34.81,149.4,2026-02-21T21:52:42.979110
2026/02/22 07:55:00,DIAPURWF1,7.5,Y.E.S. Energy (SA) Pty Ltd,Diapur Wind Farm,Wind,7.0,107.14,Diapur Wind Farm,-36.3425,141.43,2026-02-21T21:52:42.979110
2026/02/22 07:55:00,MLWF1,12.8,Mortons Lane Windfarm Pty Limited,Mortons Lane Wind Farm,Wind,20.0,64.0,Mortons Lane Wind Farm,-37.84,142.45,2026-02-21T21:52:42.979110
2026/02/22 07:55:00,WAUBRAWF,27.76,Pyrenees Wind Energy Developments Pty Ltd,Waubra Wind Farm,Wind,192.0,14.46,Waubra Wind Farm,-37.394498,143.638982,2026-02-21T21:52:42.979110
2026/02/22 07:55:00,WOOLNTH1,65.59,Hydro-Electric Corporation,Woolnorth Studland Bay / Bluff Point Wind Farm,Wind,140.0,46.85,Woolnorth Studland Bay / Bluff Point Wind Farm,-40.69,144.72,2026-02-21T21:52:42.979110
2026/02/22 07:55:00,YAMBUKWF,2.0,Energy Pacific (Vic) Pty Ltd,Yambuk Wind Farm,Wind,30.0,6.67,Yambuk Wind Farm,-38.299083,142.027577,2026-02-21T21:52:42.979110
2026/02/22 07:55:00,YSWF1,5.2,Pacific Hydro Yaloak South Pty Ltd,Yaloak South Wind Farm,Wind,28.0,18.57,Yaloak South Wind Farm,-37.7163,144.242853,2026-02-21T21:52:42.979110
2026/02/22 07:55:00,ARWF1,28.4,Ararat Wind Farm Pty Ltd,Ararat Wind Farm,Wind,241.0,11.78,Ararat Wind Farm,-37.232778,143.031389,2026-02-21T21:52:42.979110
2026/02/22 07:55:00,BALDHWF1,60.43,Alinta Energy Retail Sales Pty Ltd,Bald Hills Wind Farm,Wind,106.0,57.01,Bald Hills Wind Farm,-38.79,145.93,2026-02-21T21:52:42.979110
2026/02/22 07:55:00,BANGOWF1,105.5,BWF Nominees Pty Ltd as The Trustee for BWF Trust,Bango 973 Wind Farm,Wind,155.0,68.06,Bango 973 Wind Farm,-34.551582,148.732808,2026-02-21T21:52:42.979110
2026/02/22 07:55:00,BANGOWF2,57.8,BWF Nominees Pty Ltd as The Trustee for BWF Trust,Bango 999 Wind Farm,Wind,82.0,70.49,Bango 999 Wind Farm,-34.551582,148.732808,2026-02-21T21:52:42.979110
2026/02/22 07:55:00,BLUFF1,0.0,AGL SA Generation Pty Limited,The Bluff Wind Farm,Wind,53.0,0.0,The Bluff Wind Farm,-33.367778,138.728611,2026-02-21T21:52:42.979110
2026/02/22 07:55:00,BOCORWF1,69.71,Boco Rock Wind Farm Pty Ltd,Boco Rock Wind Farm,Wind,111.0,62.8,Boco Rock Wind Farm,-36.578611,149.103333,2026-02-21T21:52:42.979110
2026/02/22 07:55:00,BRYB1WF1,131.95,Berrybank Development Pty Ltd,Berrybank Wind Farm,Wind,175.9,75.01,Berrybank Wind Farm,-37.94,143.52,2026-02-21T21:52:42.979110
2026/02/22 07:55:00,BRYB2WF2,95.32,Berrybank 2 Asset Pty Ltd as trustee for Berrybank 2 Asset Trust,Berrybank 2 Wind Farm,Wind,105.0,90.78,Berrybank 2 Wind Farm,-37.94,143.52,2026-02-21T21:52:42.979110
2026/02/22 07:55:00,BULGANA1,29.72,Bulgana Wind Farm Pty Ltd,Bulgana Green Power Hub,Wind,204.0,14.57,Bulgana Green Power Hub,-37.0975,142.973611,2026-02-21T21:52:42.979110
2026/02/22 07:55:00,CATHROCK,1.5,Cathedral Rocks Wind Farm Pty Ltd,Cathedral Rocks,Wind,66.0,2.27,Cathedral Rocks,-34.51,135.35,2026-02-21T21:52:42.979110
2026/02/22 07:55:00,CHYTWF1,11.29,Cherry Tree Wind Farm Pty Ltd as trustee for The Cherry Tree Project trust ,Cherry Tree Wind Farm,Wind,57.0,19.81,Cherry Tree Wind Farm,-37.1,145.26,2026-02-21T21:52:42.979110
2026/02/22 07:55:00,CLEMGPWF,0.0,Pacific Hydro Clements Gap Pty Ltd,Clements Gap Wind Farm,Wind,57.0,0.0,Clements Gap Wind Farm,-33.48,138.1,2026-02-21T21:52:42.979110
2026/02/22 07:55:00,CLRKCWF1,251.97,Stanwell Corporation Limited ,Clarke Creek Wind Farm,Wind,338.0,74.55,Clarke Creek Wind Farm,-22.85,149.45,2026-02-21T21:52:42.979110
2026/02/22 07:55:00,CLRKCWF2,64.27,Stanwell Corporation Limited ,Clarke Creek Wind Farm,Wind,101.0,63.63,Clarke Creek Wind Farm,-22.85,149.45,2026-02-21T21:52:42.979110
2026/02/22 07:55:00,CNUNDAWF,5.61,Canunda Power Pty Ltd,Canunda Wind Farm,Wind,46.0,12.2,Canunda Wind Farm,-37.73,140.39,2026-02-21T21:52:42.979110
2026/02/22 07:55:00,COLWF01,89.84,Collector Wind Farm Pty Ltd,Collector Wind Farm 1,Wind,219.0,41.02,Collector Wind Farm 1,-34.8719,149.3967,2026-02-21T21:52:42.979110
2026/02/22 07:55:00,COOPGWF1,160.72,PARF Company 10 Pty Limited as The Trustee for Coopers Gap Project Trust,Coopers Gap Wind Farm,Wind,440.0,36.53,Coopers Gap Wind Farm,-26.74,151.45,2026-02-21T21:52:42.979110
2026/02/22 07:55:00,CROOKWF2,89.56,Crookwell Development Pty Ltd ,Crookwell 2 Wind Farm,Wind,91.0,98.42,Crookwell 2 Wind Farm,-34.52,149.54,2026-02-21T21:52:42.979110
2026/02/22 07:55:00,CROOKWF3,46.98,Crookwell 3 Development Pty Ltd,Crookwell 3 Wind Farm,Wind,56.0,83.89,Crookwell 3 Wind Farm,-34.52,149.54,2026-02-21T21:52:42.979110
2026/02/22 07:55:00,CROWLWF1,5.09,Pacific Hydro Crowlands Pty Ltd ,Crowlands Wind Farm,Wind,79.0,6.44,Crowlands Wind Farm,-37.13,143.16,2026-02-21T21:52:42.979110
2026/02/22 07:55:00,CRURWF1,3.4,CRWF Nominees Pty Ltd As Trustee For The CRWF Trust,Crudine Ridge Wind Farm,Wind,138.0,2.46,Crudine Ridge Wind Farm,-32.97,149.64,2026-02-21T21:52:42.979110
2026/02/22 07:55:00,CTHLWF1,134.54,Wild Cattle Hill Pty Ltd,Cattle Hill Wind Farm,Wind,144.0,93.43,Cattle Hill Wind Farm,-42.15,146.69,2026-02-21T21:52:42.979110
2026/02/22 07:55:00,DULAWF1,45.7,Dulacca Energy Project Co Pty Ltd,Dulacca Wind Farm,Wind,173.0,26.42,Dulacca Wind Farm,-26.63,149.87,2026-02-21T21:52:42.979110
2026/02/22 07:55:00,DUNDWF1,147.29,Dundonnell Wind Farm Pty Ltd,Dundonnell Wind Farm,Wind,168.0,87.67,Dundonnell Wind Farm,-37.52,142.58,2026-02-21T21:52:42.979110
2026/02/22 07:55:00,DUNDWF2,43.73,Dundonnell Wind Farm Pty Ltd,Dundonnell Wind Farm,Wind,46.0,95.07,Dundonnell Wind Farm,-37.52,142.58,2026-02-21T21:52:42.979110
2026/02/22 07:55:00,DUNDWF3,98.83,Dundonnell Wind Farm Pty Ltd,Dundonnell Wind Farm,Wind,122.0,81.01,Dundonnell Wind Farm,-37.52,142.58,2026-02-21T21:52:42.979110
2026/02/22 07:55:00,ELAINWF1,5.78,Lal Lal Wind Farms Nom Co Pty Ltd,Elaine Wind Farm,Wind,82.0,7.05,Elaine Wind Farm,-37.36,144.0,2026-02-21T21:52:42.979110
2026/02/22 07:55:00,FLYCRKWF,23.86,Iberdrola Australia Energy Markets Pty Limited,Flyers Creek Wind Farm,Wind,140.0,17.04,Flyers Creek Wind Farm,-33.365556,148.981944,2026-02-21T21:52:42.979110
2026/02/22 07:55:00,GPWFEST1,124.94,Golden Plains WF1 Pty Ltd as Trustee for the Golden Plains WF1 Unit Trust,Golden Plains Wind Farm East,Wind,240.0,52.06,Golden Plains Wind Farm East,-37.945091,143.752614,2026-02-21T21:52:42.979110
2026/02/22 07:55:00,GPWFEST2,95.51,Golden Plains WF1 Pty Ltd as Trustee for the Golden Plains WF1 Unit Trust,Golden Plains Wind Farm East,Wind,253.0,37.75,Golden Plains Wind Farm East,-37.945091,143.752614,2026-02-21T21:52:42.979110
2026/02/22 07:55:00,GPWFEST3,136.88,Golden Plains WF1 Pty Ltd as Trustee for the Golden Plains WF1 Unit Trust,Golden Plains Wind Farm East,Wind,240.0,57.03,Golden Plains Wind Farm East,-37.945091,143.752614,2026-02-21T21:52:42.979110
2026/02/22 07:55:00,GRANWF1,94.08,Granville Harbour Operations Pty Ltd as The Trustee for Granville Harbour Operations Trust,Granville Harbour Wind Farm,Wind,111.0,84.76,Granville Harbour Wind Farm,-41.8,145.06,2026-02-21T21:52:42.979110
2026/02/22 07:55:00,GSWF1A,59.39,Goyder Wind Farm 1 Pty Ltd as the Trustee for Goyder Wind Farm 1 Trust,Goyder South Wind Farm 1A,Wind,201.0,29.55,Goyder South Wind Farm 1A,-33.679758,138.937597,2026-02-21T21:52:42.979110
2026/02/22 07:55:00,GSWF1B1,18.71,Goyder Wind Farm 1B Pty Ltd as the Trustee for the Goyder Wind Farm 1B Trust,Goyder South Wind Farm 1B,Wind,196.0,9.55,Goyder South Wind Farm 1B,-33.679758,138.937597,2026-02-21T21:52:42.979110
2026/02/22 07:55:00,GULLRWF1,119.91,New Gullen Range Wind Farm Pty Ltd,Gullen Range Wind Farm,Wind,161.0,74.48,Gullen Range Wind Farm,-34.34,149.27,2026-02-21T21:52:42.979110
2026/02/22 07:55:00,GULLRWF2,98.16,New Gullen Range Wind Farm Pty Ltd,Gullen Range Wind Farm,Wind,107.0,91.74,Gullen Range Wind Farm,-34.34,149.27,2026-02-21T21:52:42.979110
2026/02/22 07:55:00,GUNNING1,37.12,Gunning Wind Energy Developments Pty Ltd,Gunning Wind Farm,Wind,47.0,78.98,Gunning Wind Farm,-34.813333,149.4,2026-02-21T21:52:42.979110
2026/02/22 07:55:00,HALLWF1,4.75,AGL SA Generation Pty Limited,Hallett 1 Wind Farm,Wind,95.0,5.0,Hallett 1 Wind Farm,-33.367778,138.728611,2026-02-21T21:52:42.979110
2026/02/22 07:55:00,HALLWF2,3.94,AGL SA Generation Pty Limited,Hallett 2 Wind Farm,Wind,71.0,5.55,Hallett 2 Wind Farm,-33.367778,138.728611,2026-02-21T21:52:42.979110
2026/02/22 07:55:00,HD1WF1,56.33,Hawkesdale Asset Pty Ltd as trustee for Hawkesdale Asset Trust,Hawkesdale Wind Farm,Wind,89.0,63.29,Hawkesdale Wind Farm,-38.147894,142.361381,2026-02-21T21:52:42.979110
2026/02/22 07:55:00,HDWF1,3.9,HWF1 Pty Ltd,Hornsdale Wind Farm,Wind,102.0,3.82,Hornsdale Wind Farm,-33.050556,138.543611,2026-02-21T21:52:42.979110
2026/02/22 07:55:00,HDWF2,2.1,HWF 2 Pty Ltd,Hornsdale Wind Farm 2,Wind,102.0,2.06,Hornsdale Wind Farm 2,-33.06,138.54,2026-02-21T21:52:42.979110
2026/02/22 07:55:00,HDWF3,6.3,HWF3 Pty Ltd,Hornsdale Wind Farm 3,Wind,109.0,5.78,Hornsdale Wind Farm 3,-33.06,138.54,2026-02-21T21:52:42.979110
2026/02/22 07:55:00,KABANWF1,0.0,Kaban Wind Farm Pty Ltd as trustee for Kaban Wind Farm Trust,Kaban Wind Farm,Wind,152.0,0.0,Kaban Wind Farm,-17.56,145.41,2026-02-21T21:52:42.979110
2026/02/22 07:55:00,KEPWF1,4.8,Kennedy Energy Park Pty Ltd,Kennedy Energy Park,Wind,43.0,11.16,Kennedy Energy Park,-20.88,144.42,2026-02-21T21:52:42.979110
2026/02/22 07:55:00,KIATAWF1,8.9,Kiata ProjectCo Pty Ltd Atf Kiata Project Trust,Kiata Wind Farm,Wind,31.0,28.71,Kiata Wind Farm,-36.4,141.75,2026-02-21T21:52:42.979110
2026/02/22 07:55:00,LGAPWF1,21.58,Lincoln Gap Wind Farm (Operations) Pty Ltd,Lincoln Gap Wind Farm,Wind,123.0,17.54,Lincoln Gap Wind Farm,-32.564279,137.557328,2026-02-21T21:52:42.979110
2026/02/22 07:55:00,LGAPWF1,21.58,Lincoln Gap Wind Farm (Operations) Pty Ltd,Lincoln Gap Wind Farm,Wind,123.0,17.54,Lincoln Gap Wind Farm,-32.564279,137.557328,2026-02-21T21:52:42.979110
2026/02/22 07:55:00,LGAPWF2,54.31,Lincoln Gap Wind Farm (Operations) Pty Ltd,Lincoln Gap Wind Farm,Wind,85.0,63.89,Lincoln Gap Wind Farm,-32.564279,137.557328,2026-02-21T21:52:42.979110
2026/02/22 07:55:00,LGAPWF2,54.31,Lincoln Gap Wind Farm (Operations) Pty Ltd,Lincoln Gap Wind Farm,Wind,85.0,63.89,Lincoln Gap Wind Farm,-32.564279,137.557328,2026-02-21T21:52:42.979110
2026/02/22 07:55:00,LKBONNY1,6.88,Lake Bonney Wind Power Pty Ltd,Lake Bonney Wind Farm Stage 1,Wind,81.0,8.49,Lake Bonney Wind Farm Stage 1,-37.76,140.4,2026-02-21T21:52:42.979110
2026/02/22 07:55:00,LKBONNY2,24.51,Lake Bonney Wind Power Pty Ltd,Lake Bonney Stage 2 Windfarm,Wind,159.0,15.42,Lake Bonney Stage 2 Windfarm,-37.76,140.4,2026-02-21T21:52:42.979110
2026/02/22 07:55:00,LKBONNY3,8.71,Lake Bonney Wind Power Pty Ltd,Lake Bonney Stage 3 Wind Farm,Wind,39.0,22.33,Lake Bonney Stage 3 Wind Farm,-37.737781,140.388137,2026-02-21T21:52:42.979110
2026/02/22 07:55:00,MACARTH1,147.7,AGL Hydro Partnership,Macarthur Wind Farm,Wind,420.0,35.17,Macarthur Wind Farm,-38.048957,142.192112,2026-02-21T21:52:42.979110
2026/02/22 07:55:00,MCINTYR1,50.02,MacIntyre UJV Operator Pty Ltd,MacIntyre Wind Farm,Wind,890.0,5.62,MacIntyre Wind Farm,-28.32,151.54,2026-02-21T21:52:42.979110
2026/02/22 07:55:00,MERCER01,7.1,Mt Mercer Windfarm Pty Ltd,Mt Mercer Wind Farm,Wind,131.0,5.42,Mt Mercer Wind Farm,-37.841111,143.871111,2026-02-21T21:52:42.979110
2026/02/22 07:55:00,MEWF1,0.0,Ergon Energy Queensland Pty Ltd ,Mount Emerald Wind Farm,Wind,178.0,0.0,Mount Emerald Wind Farm,-17.133007,145.380644,2026-02-21T21:52:42.979110
2026/02/22 07:55:00,MRTLSWF1,6.29,Mortlake South Wind Farm Pty Ltd,Mortlake South Wind Farm,Wind,153.0,4.11,Mortlake South Wind Farm,-38.127337,142.857801,2026-02-21T21:52:42.979110
2026/02/22 07:55:00,MTGELWF1,22.14,Mt. Gellibrand Wind Farm Pty Ltd,Mt Gellibrand Wind Farm,Wind,132.0,16.77,Mt Gellibrand Wind Farm,-38.23,143.77,2026-02-21T21:52:42.979110
2026/02/22 07:55:00,MTMILLAR,0.0,Mt Millar Wind Farm Pty Ltd,Mt Millar Wind Farm,Wind,70.0,0.0,Mt Millar Wind Farm,-33.624444,136.703611,2026-02-21T21:52:42.979110
2026/02/22 07:55:00,MUSSELR1,4.5,Hydro-Electric Corporation,Musselroe Wind Farm,Wind,168.0,2.68,Musselroe Wind Farm,-40.780225,148.010799,2026-02-21T21:52:42.979110
2026/02/22 07:55:00,MUWAWF1,4.75,Telstra Energy (Generation) Pty Ltd,Murra Warra Wind Farm,Wind,225.7,2.1,Murra Warra Wind Farm,-36.432404,142.317853,2026-02-21T21:52:42.979110
2026/02/22 07:55:00,MUWAWF2,1.4,Murra Warra II Project Co Pty Ltd ATF The Murra Warra II Project Trust,Murra Warra Wind Farm Stage 2,Wind,203.0,0.69,Murra Warra Wind Farm Stage 2,-36.43,142.32,2026-02-21T21:52:42.979110
2026/02/22 07:55:00,NBHWF1,1.7,AGL SA Generation Pty Limited,North Brown Hill Wind Farm,Wind,132.0,1.29,North Brown Hill Wind Farm,-33.367778,138.728611,2026-02-21T21:52:42.979110
2026/02/22 07:55:00,OAKLAND1,49.8,AGL Hydro Partnership,Oaklands Hill Wind Farm,Wind,63.0,79.05,Oaklands Hill Wind Farm,-37.683078,142.551678,2026-02-21T21:52:42.979110
2026/02/22 07:55:00,PAREPW1,40.73,Iberdrola Australia Energy Markets Pty Limited,Port Augusta Renewable Energy Park,Wind,201.0,20.26,Port Augusta Renewable Energy Park,-32.566944,137.856111,2026-02-21T21:52:42.979110
2026/02/22 07:55:00,RYANCWF1,11.06,Ryan Corner Development Pty Ltd,Ryan Corner Wind Farm,Wind,205.0,5.4,Ryan Corner Wind Farm,-38.271017,142.140647,2026-02-21T21:52:42.979110
2026/02/22 07:55:00,RYEPARK1,253.14,Rye Park Renewable Energy Pty Ltd as trustee for Rye Park Wind Farm Trust,Rye Park Renewable Energy,Wind,384.0,65.92,Rye Park Renewable Energy,-32.138333,148.972778,2026-02-21T21:52:42.979110
2026/02/22 07:55:00,SALTCRK1,19.05,Salt Creek Wind Farm Pty Ltd,Salt Creek Wind Farm,Wind,54.0,35.28,Salt Creek Wind Farm,-37.95,142.63,2026-02-21T21:52:42.979110
2026/02/22 07:55:00,SAPHWF1,64.27,The Trustee For The SWF1 Operations Trust,Sapphire Wind Farm,Wind,270.0,23.8,Sapphire Wind Farm,-29.7,151.41,2026-02-21T21:52:42.979110
2026/02/22 07:55:00,SNOWNTH1,1.6,Snowtown Wind Farm Stage 2 Pty Ltd,Snowtown Wind Farm Stage 2 North,Wind,144.0,1.11,Snowtown Wind Farm Stage 2 North,-33.83,138.118611,2026-02-21T21:52:42.979110
2026/02/22 07:55:00,SNOWSTH1,7.9,Snowtown Wind Farm Stage 2 Pty Ltd,Snowtown South Wind Farm,Wind,126.0,6.27,Snowtown South Wind Farm,-33.83,138.118611,2026-02-21T21:52:42.979110
2026/02/22 07:55:00,SNOWTWN1,0.0,Snowtown Wind Farm Pty Ltd,Snowtown Wind Farm Units 1 And 47,Wind,99.0,0.0,Snowtown Wind Farm Units 1 And 47,-33.83,138.118611,2026-02-21T21:52:42.979110
2026/02/22 07:55:00,STARHLWF,0.1,Starfish Hill Wind Farm Pty Ltd,Starfish Hill Wind Farm,Wind,35.0,0.29,Starfish Hill Wind Farm,-35.58,138.14,2026-02-21T21:52:42.979110
2026/02/22 07:55:00,STOCKYD1,61.63,Stockyard Hill Wind Farm Pty Ltd,Stockyard Hill Wind Farm,Wind,511.0,12.06,Stockyard Hill Wind Farm,-37.535833,143.251389,2026-02-21T21:52:42.979110
2026/02/22 07:55:00,STWF1,101.55,PARF Company 8 Pty Ltd as The Trustee for Silverton Project Trust,Silverton Wind Farm,Wind,198.0,51.29,Silverton Wind Farm,-37.683168,142.551678,2026-02-21T21:52:42.979110
2026/02/22 07:55:00,TARALGA1,77.06,Taralga Wind Farm Nominees No 2 Pty Ltd (ATF Taralga Wind Farm Operating Trust),Taralga Wind Farm,Wind,106.0,72.7,Taralga Wind Farm,-34.42352,149.826267,2026-02-21T21:52:42.979110
2026/02/22 07:55:00,WAMBOWF1,61.7,Stanwell Corporation Limited,Wambo Wind Farm 1,Wind,245.0,25.18,Wambo Wind Farm 1,-35.187301,149.524945,2026-02-21T21:52:42.979110
2026/02/22 07:55:00,WATERLWF,86.9,Waterloo Wind Farm Pty Ltd,Waterloo Wind Farm,Wind,130.0,66.85,Waterloo Wind Farm,-34.00094,138.911567,2026-02-21T21:52:42.979110
2026/02/22 07:55:00,WGWF1,2.0,Willogoleche Power Pty Ltd As The Trustee For The Willogoleche Operating Trust,Willogoleche Wind Farm,Wind,119.0,1.68,Willogoleche Wind Farm,-33.39,138.85,2026-02-21T21:52:42.979110
2026/02/22 07:55:00,WOODLWN1,13.45,Woodlawn Wind Pty Ltd,Woodlawn Wind Farm,Wind,48.0,28.02,Woodlawn Wind Farm,-35.08,149.62,2026-02-21T21:52:42.979110
2026/02/22 07:55:00,WPWF,0.0,AGL SA Generation Pty Limited,Wattle Point Wind Farm,Wind,91.0,0.0,Wattle Point Wind Farm,-35.111624,137.7219,2026-02-21T21:52:42.979110
2026/02/22 07:55:00,WRWF1,59.49,White Rock Wind Farm Pty Ltd,White Rock Wind Farm,Wind,172.0,34.59,White Rock Wind Farm,-29.79,151.54,2026-02-21T21:52:42.979110
2026/02/22 07:55:00,YENDWF1,2.04,Lal Lal Wind Farms Nom Co Pty Ltd,Yendon Wind Farm,Wind,142.0,1.44,Yendon Wind Farm,-37.629987,144.022717,2026-02-21T21:52:42.979110
